[
  {
    "id": "334020",
    "name": "GAKO - OP",
    "registration_area_id": "16955",
    "precise_location": null,
    "abbreviation": "001",
    "units": "001",
    "delimitation": "25/10/13/001",
    "remark": "EXISTING PU",
    "ward_id": "16955",
    "ward_name": "ALOGANI",
    "local_government_id": "534",
    "local_government_name": "NASARAWA EGGON",
    "state_id": "25",
    "state_name": "NASARAWA",
    "location": {
      "latitude": 8.6907467,
      "longitude": 8.5499017,
      "viewport": {
        "northeast": {
          "lat": 8.692126129892722,
          "lng": 8.551249079892722
        },
        "southwest": {
          "lat": 8.689426470107279,
          "lng": 8.548549420107278
        }
      },
      "formatted_address": "Makurdi - Jos Rd, 960167, Nigeria",
      "google_map_url": "https://maps.google.com?q=8.6907467,8.5499017",
      "google_place_id": "ChIJY8QHJ58LURARyAlIxEKtY4o"
    }
  },
  {
    "id": "334021",
    "name": "ALOGANI TUDU - OP",
    "registration_area_id": "16955",
    "precise_location": null,
    "abbreviation": "002",
    "units": "002",
    "delimitation": "25/10/13/002",
    "remark": "EXISTING PU",
    "ward_id": "16955",
    "ward_name": "ALOGANI",
    "local_government_id": "534",
    "local_government_name": "NASARAWA EGGON",
    "state_id": "25",
    "state_name": "NASARAWA",
    "location": {
      "latitude": 8.7425085,
      "longitude": 8.5418899,
      "viewport": {
        "northeast": {
          "lat": 8.743869579892722,
          "lng": 8.542984379892722
        },
        "southwest": {
          "lat": 8.741169920107279,
          "lng": 8.540284720107278
        }
      },
      "formatted_address": "PGVR+2Q2, Nassarawa Eggon, Akwanga Road Nassarawa Eggong, 960167, Nassarawa Egon, Nigeria",
      "google_map_url": "https://maps.google.com?q=8.7425085,8.5418899",
      "google_place_id": "ChIJ83Nzq1Z1URARBb-1jcJoURU"
    }
  },
  {
    "id": "334022",
    "name": "WOGAN - OP",
    "registration_area_id": "16955",
    "precise_location": null,
    "abbreviation": "003",
    "units": "003",
    "delimitation": "25/10/13/003",
    "remark": "EXISTING PU",
    "ward_id": "16955",
    "ward_name": "ALOGANI",
    "local_government_id": "534",
    "local_government_name": "NASARAWA EGGON",
    "state_id": "25",
    "state_name": "NASARAWA",
    "location": {
      "latitude": 8.6907467,
      "longitude": 8.5499017,
      "viewport": {
        "northeast": {
          "lat": 8.692126129892722,
          "lng": 8.551249079892722
        },
        "southwest": {
          "lat": 8.689426470107279,
          "lng": 8.548549420107278
        }
      },
      "formatted_address": "Makurdi - Jos Rd, 960167, Nigeria",
      "google_map_url": "https://maps.google.com?q=8.6907467,8.5499017",
      "google_place_id": "ChIJY8QHJ58LURARyAlIxEKtY4o"
    }
  },
  {
    "id": "334023",
    "name": "GIDAN WAYA - OP",
    "registration_area_id": "16955",
    "precise_location": null,
    "abbreviation": "004",
    "units": "004",
    "delimitation": "25/10/13/004",
    "remark": "EXISTING PU",
    "ward_id": "16955",
    "ward_name": "ALOGANI",
    "local_government_id": "534",
    "local_government_name": "NASARAWA EGGON",
    "state_id": "25",
    "state_name": "NASARAWA",
    "location": {
      "latitude": 8.6907467,
      "longitude": 8.5499017,
      "viewport": {
        "northeast": {
          "lat": 8.692126129892722,
          "lng": 8.551249079892722
        },
        "southwest": {
          "lat": 8.689426470107279,
          "lng": 8.548549420107278
        }
      },
      "formatted_address": "Makurdi - Jos Rd, 960167, Nigeria",
      "google_map_url": "https://maps.google.com?q=8.6907467,8.5499017",
      "google_place_id": "ChIJY8QHJ58LURARyAlIxEKtY4o"
    }
  },
  {
    "id": "334024",
    "name": "ALOGANI SOUTH - OP",
    "registration_area_id": "16955",
    "precise_location": null,
    "abbreviation": "005",
    "units": "005",
    "delimitation": "25/10/13/005",
    "remark": "EXISTING PU",
    "ward_id": "16955",
    "ward_name": "ALOGANI",
    "local_government_id": "534",
    "local_government_name": "NASARAWA EGGON",
    "state_id": "25",
    "state_name": "NASARAWA",
    "location": {
      "latitude": 8.7425085,
      "longitude": 8.5418899,
      "viewport": {
        "northeast": {
          "lat": 8.743869579892722,
          "lng": 8.542984379892722
        },
        "southwest": {
          "lat": 8.741169920107279,
          "lng": 8.540284720107278
        }
      },
      "formatted_address": "PGVR+2Q2, Nassarawa Eggon, Akwanga Road Nassarawa Eggong, 960167, Nassarawa Egon, Nigeria",
      "google_map_url": "https://maps.google.com?q=8.7425085,8.5418899",
      "google_place_id": "ChIJ83Nzq1Z1URARBb-1jcJoURU"
    }
  },
  {
    "id": "334025",
    "name": "EHALA YAKA - OP",
    "registration_area_id": "16955",
    "precise_location": null,
    "abbreviation": "006",
    "units": "006",
    "delimitation": "25/10/13/006",
    "remark": "EXISTING PU",
    "ward_id": "16955",
    "ward_name": "ALOGANI",
    "local_government_id": "534",
    "local_government_name": "NASARAWA EGGON",
    "state_id": "25",
    "state_name": "NASARAWA",
    "location": {
      "latitude": 8.6907467,
      "longitude": 8.5499017,
      "viewport": {
        "northeast": {
          "lat": 8.692126129892722,
          "lng": 8.551249079892722
        },
        "southwest": {
          "lat": 8.689426470107279,
          "lng": 8.548549420107278
        }
      },
      "formatted_address": "Makurdi - Jos Rd, 960167, Nigeria",
      "google_map_url": "https://maps.google.com?q=8.6907467,8.5499017",
      "google_place_id": "ChIJY8QHJ58LURARyAlIxEKtY4o"
    }
  },
  {
    "id": "334026",
    "name": "EHALA YAKA - I PRI.SCHOOL - PB",
    "registration_area_id": "16955",
    "precise_location": null,
    "abbreviation": "007",
    "units": "007",
    "delimitation": "25/10/13/007",
    "remark": "EXISTING PU",
    "ward_id": "16955",
    "ward_name": "ALOGANI",
    "local_government_id": "534",
    "local_government_name": "NASARAWA EGGON",
    "state_id": "25",
    "state_name": "NASARAWA",
    "location": {
      "latitude": 8.7760866,
      "longitude": 8.525455,
      "viewport": {
        "northeast": {
          "lat": 8.777437579892723,
          "lng": 8.526813929892722
        },
        "southwest": {
          "lat": 8.77473792010728,
          "lng": 8.524114270107278
        }
      },
      "formatted_address": "QGGG+C5P, 960168, Nassarawa Egon, Nigeria",
      "google_map_url": "https://maps.google.com?q=8.7760866,8.525455",
      "google_place_id": "ChIJGSNuUQJ1URARQSyAJrzIHRc"
    }
  },
  {
    "id": "334027",
    "name": "ZAURE ALLU AMMA - OP",
    "registration_area_id": "16955",
    "precise_location": null,
    "abbreviation": "008",
    "units": "008",
    "delimitation": "25/10/13/008",
    "remark": "EXISTING PU",
    "ward_id": "16955",
    "ward_name": "ALOGANI",
    "local_government_id": "534",
    "local_government_name": "NASARAWA EGGON",
    "state_id": "25",
    "state_name": "NASARAWA",
    "location": null
  },
  {
    "id": "334028",
    "name": "ALOGANI NORTH - OP",
    "registration_area_id": "16955",
    "precise_location": null,
    "abbreviation": "009",
    "units": "009",
    "delimitation": "25/10/13/009",
    "remark": "EXISTING PU",
    "ward_id": "16955",
    "ward_name": "ALOGANI",
    "local_government_id": "534",
    "local_government_name": "NASARAWA EGGON",
    "state_id": "25",
    "state_name": "NASARAWA",
    "location": {
      "latitude": 8.7446028,
      "longitude": 8.5410411,
      "viewport": {
        "northeast": {
          "lat": 8.745956229892721,
          "lng": 8.542416879892722
        },
        "southwest": {
          "lat": 8.743256570107278,
          "lng": 8.539717220107278
        }
      },
      "formatted_address": "PGVR+RCV, Eggon, Nasarawa, Nigeria",
      "google_map_url": "https://maps.google.com?q=8.7446028,8.5410411",
      "google_place_id": "ChIJt1DW2s10URARqKHxpCIlv3E"
    }
  },
  {
    "id": "334029",
    "name": "GALLE TUDU - OP",
    "registration_area_id": "16955",
    "precise_location": null,
    "abbreviation": "010",
    "units": "010",
    "delimitation": "25/10/13/010",
    "remark": "EXISTING PU",
    "ward_id": "16955",
    "ward_name": "ALOGANI",
    "local_government_id": "534",
    "local_government_name": "NASARAWA EGGON",
    "state_id": "25",
    "state_name": "NASARAWA",
    "location": {
      "latitude": 8.7425085,
      "longitude": 8.5418899,
      "viewport": {
        "northeast": {
          "lat": 8.743869579892722,
          "lng": 8.542984379892722
        },
        "southwest": {
          "lat": 8.741169920107279,
          "lng": 8.540284720107278
        }
      },
      "formatted_address": "PGVR+2Q2, Nassarawa Eggon, Akwanga Road Nassarawa Eggong, 960167, Nassarawa Egon, Nigeria",
      "google_map_url": "https://maps.google.com?q=8.7425085,8.5418899",
      "google_place_id": "ChIJ83Nzq1Z1URARBb-1jcJoURU"
    }
  },
  {
    "id": "334030",
    "name": "ONHWONAKO - OP",
    "registration_area_id": "16955",
    "precise_location": null,
    "abbreviation": "011",
    "units": "011",
    "delimitation": "25/10/13/011",
    "remark": "EXISTING PU",
    "ward_id": "16955",
    "ward_name": "ALOGANI",
    "local_government_id": "534",
    "local_government_name": "NASARAWA EGGON",
    "state_id": "25",
    "state_name": "NASARAWA",
    "location": {
      "latitude": 8.7425085,
      "longitude": 8.5418899,
      "viewport": {
        "northeast": {
          "lat": 8.743869579892722,
          "lng": 8.542984379892722
        },
        "southwest": {
          "lat": 8.741169920107279,
          "lng": 8.540284720107278
        }
      },
      "formatted_address": "PGVR+2Q2, Nassarawa Eggon, Akwanga Road Nassarawa Eggong, 960167, Nassarawa Egon, Nigeria",
      "google_map_url": "https://maps.google.com?q=8.7425085,8.5418899",
      "google_place_id": "ChIJ83Nzq1Z1URARBb-1jcJoURU"
    }
  },
  {
    "id": "334031",
    "name": "ALOGANI CENTRAL",
    "registration_area_id": "16955",
    "precise_location": null,
    "abbreviation": "012",
    "units": "012",
    "delimitation": "25/10/13/012",
    "remark": "EXISTING PU",
    "ward_id": "16955",
    "ward_name": "ALOGANI",
    "local_government_id": "534",
    "local_government_name": "NASARAWA EGGON",
    "state_id": "25",
    "state_name": "NASARAWA",
    "location": {
      "latitude": 8.7425085,
      "longitude": 8.5418899,
      "viewport": {
        "northeast": {
          "lat": 8.7552189,
          "lng": 8.5531997
        },
        "southwest": {
          "lat": 8.7333743,
          "lng": 8.5326434
        }
      },
      "formatted_address": "Nassarawa Egon, Nigeria",
      "google_map_url": "https://maps.google.com?q=8.7425085,8.5418899",
      "google_place_id": "ChIJf5lHxM10URARgf2SiB522V0"
    }
  },
  {
    "id": "334032",
    "name": "KOFAR SABO",
    "registration_area_id": "16955",
    "precise_location": null,
    "abbreviation": "013",
    "units": "013",
    "delimitation": "25/10/13/013",
    "remark": "NEW PU",
    "ward_id": "16955",
    "ward_name": "ALOGANI",
    "local_government_id": "534",
    "local_government_name": "NASARAWA EGGON",
    "state_id": "25",
    "state_name": "NASARAWA",
    "location": {
      "latitude": 8.6907467,
      "longitude": 8.5499017,
      "viewport": {
        "northeast": {
          "lat": 8.692126129892722,
          "lng": 8.551249079892722
        },
        "southwest": {
          "lat": 8.689426470107279,
          "lng": 8.548549420107278
        }
      },
      "formatted_address": "Makurdi - Jos Rd, 960167, Nigeria",
      "google_map_url": "https://maps.google.com?q=8.6907467,8.5499017",
      "google_place_id": "ChIJY8QHJ58LURARyAlIxEKtY4o"
    }
  },
  {
    "id": "334033",
    "name": "EHUM-GALLE",
    "registration_area_id": "16955",
    "precise_location": null,
    "abbreviation": "014",
    "units": "014",
    "delimitation": "25/10/13/014",
    "remark": "NEW PU",
    "ward_id": "16955",
    "ward_name": "ALOGANI",
    "local_government_id": "534",
    "local_government_name": "NASARAWA EGGON",
    "state_id": "25",
    "state_name": "NASARAWA",
    "location": {
      "latitude": 8.6907467,
      "longitude": 8.5499017,
      "viewport": {
        "northeast": {
          "lat": 8.692126129892722,
          "lng": 8.551249079892722
        },
        "southwest": {
          "lat": 8.689426470107279,
          "lng": 8.548549420107278
        }
      },
      "formatted_address": "Makurdi - Jos Rd, 960167, Nigeria",
      "google_map_url": "https://maps.google.com?q=8.6907467,8.5499017",
      "google_place_id": "ChIJY8QHJ58LURARyAlIxEKtY4o"
    }
  },
  {
    "id": "334034",
    "name": "PHC ALOGANI SOUTH",
    "registration_area_id": "16955",
    "precise_location": null,
    "abbreviation": "015",
    "units": "015",
    "delimitation": "25/10/13/015",
    "remark": "NEW PU",
    "ward_id": "16955",
    "ward_name": "ALOGANI",
    "local_government_id": "534",
    "local_government_name": "NASARAWA EGGON",
    "state_id": "25",
    "state_name": "NASARAWA",
    "location": {
      "latitude": 8.5073889,
      "longitude": 8.5206082,
      "viewport": {
        "northeast": {
          "lat": 8.508744079892724,
          "lng": 8.521919479892722
        },
        "southwest": {
          "lat": 8.50604442010728,
          "lng": 8.519219820107278
        }
      },
      "formatted_address": "GG4C+X65, Makurdi - Jos Rd, 950101, Lafia, Nigeria",
      "google_map_url": "https://maps.google.com?q=8.5073889,8.5206082",
      "google_place_id": "ChIJp7cfyBsHURAR-ydN4bdXfvU"
    }
  },
  {
    "id": "334035",
    "name": "AKUN GALLE-OP",
    "registration_area_id": "16955",
    "precise_location": null,
    "abbreviation": "016",
    "units": "016",
    "delimitation": "25/10/13/016",
    "remark": "NEW PU",
    "ward_id": "16955",
    "ward_name": "ALOGANI",
    "local_government_id": "534",
    "local_government_name": "NASARAWA EGGON",
    "state_id": "25",
    "state_name": "NASARAWA",
    "location": {
      "latitude": 8.7425085,
      "longitude": 8.5418899,
      "viewport": {
        "northeast": {
          "lat": 8.743869579892722,
          "lng": 8.542984379892722
        },
        "southwest": {
          "lat": 8.741169920107279,
          "lng": 8.540284720107278
        }
      },
      "formatted_address": "PGVR+2Q2, Nassarawa Eggon, Akwanga Road Nassarawa Eggong, 960167, Nassarawa Egon, Nigeria",
      "google_map_url": "https://maps.google.com?q=8.7425085,8.5418899",
      "google_place_id": "ChIJ83Nzq1Z1URARBb-1jcJoURU"
    }
  },
  {
    "id": "334036",
    "name": "AKUN UMBUGADU-WUGIM-OS",
    "registration_area_id": "16955",
    "precise_location": null,
    "abbreviation": "017",
    "units": "017",
    "delimitation": "25/10/13/017",
    "remark": "NEW PU",
    "ward_id": "16955",
    "ward_name": "ALOGANI",
    "local_government_id": "534",
    "local_government_name": "NASARAWA EGGON",
    "state_id": "25",
    "state_name": "NASARAWA",
    "location": {
      "latitude": 8.6907467,
      "longitude": 8.5499017,
      "viewport": {
        "northeast": {
          "lat": 8.692126129892722,
          "lng": 8.551249079892722
        },
        "southwest": {
          "lat": 8.689426470107279,
          "lng": 8.548549420107278
        }
      },
      "formatted_address": "Makurdi - Jos Rd, 960167, Nigeria",
      "google_map_url": "https://maps.google.com?q=8.6907467,8.5499017",
      "google_place_id": "ChIJY8QHJ58LURARyAlIxEKtY4o"
    }
  },
  {
    "id": "334037",
    "name": "AKUN GAZAN",
    "registration_area_id": "16955",
    "precise_location": null,
    "abbreviation": "018",
    "units": "018",
    "delimitation": "25/10/13/018",
    "remark": "NEW PU",
    "ward_id": "16955",
    "ward_name": "ALOGANI",
    "local_government_id": "534",
    "local_government_name": "NASARAWA EGGON",
    "state_id": "25",
    "state_name": "NASARAWA",
    "location": {
      "latitude": 8.6853147,
      "longitude": 8.539144,
      "viewport": {
        "northeast": {
          "lat": 8.7465134,
          "lng": 8.5760261
        },
        "southwest": {
          "lat": 8.6527509,
          "lng": 8.5137241
        }
      },
      "formatted_address": "Nasarawa Eggon, Nigeria",
      "google_map_url": "https://maps.google.com?q=8.6853147,8.539144",
      "google_place_id": "ChIJW3Cj2QsLURARiCEnSLWSWjI"
    }
  },
  {
    "id": "334038",
    "name": "KOFAN MUSA MANZU",
    "registration_area_id": "16955",
    "precise_location": null,
    "abbreviation": "019",
    "units": "019",
    "delimitation": "25/10/13/019",
    "remark": "NEW PU",
    "ward_id": "16955",
    "ward_name": "ALOGANI",
    "local_government_id": "534",
    "local_government_name": "NASARAWA EGGON",
    "state_id": "25",
    "state_name": "NASARAWA",
    "location": null
  },
  {
    "id": "334039",
    "name": "KOFAN UMARU ENWON",
    "registration_area_id": "16955",
    "precise_location": null,
    "abbreviation": "020",
    "units": "020",
    "delimitation": "25/10/13/020",
    "remark": "NEW PU",
    "ward_id": "16955",
    "ward_name": "ALOGANI",
    "local_government_id": "534",
    "local_government_name": "NASARAWA EGGON",
    "state_id": "25",
    "state_name": "NASARAWA",
    "location": {
      "latitude": 8.6907467,
      "longitude": 8.5499017,
      "viewport": {
        "northeast": {
          "lat": 8.692126129892722,
          "lng": 8.551249079892722
        },
        "southwest": {
          "lat": 8.689426470107279,
          "lng": 8.548549420107278
        }
      },
      "formatted_address": "Makurdi - Jos Rd, 960167, Nigeria",
      "google_map_url": "https://maps.google.com?q=8.6907467,8.5499017",
      "google_place_id": "ChIJY8QHJ58LURARyAlIxEKtY4o"
    }
  },
  {
    "id": "334040",
    "name": "AKUN ABEMEG-OP",
    "registration_area_id": "16955",
    "precise_location": null,
    "abbreviation": "021",
    "units": "021",
    "delimitation": "25/10/13/021",
    "remark": "NEW PU",
    "ward_id": "16955",
    "ward_name": "ALOGANI",
    "local_government_id": "534",
    "local_government_name": "NASARAWA EGGON",
    "state_id": "25",
    "state_name": "NASARAWA",
    "location": {
      "latitude": 8.6907467,
      "longitude": 8.5499017,
      "viewport": {
        "northeast": {
          "lat": 8.692126129892722,
          "lng": 8.551249079892722
        },
        "southwest": {
          "lat": 8.689426470107279,
          "lng": 8.548549420107278
        }
      },
      "formatted_address": "Makurdi - Jos Rd, 960167, Nigeria",
      "google_map_url": "https://maps.google.com?q=8.6907467,8.5499017",
      "google_place_id": "ChIJY8QHJ58LURARyAlIxEKtY4o"
    }
  },
  {
    "id": "334041",
    "name": "G.S.S. ALOGANI CENTRAL",
    "registration_area_id": "16955",
    "precise_location": null,
    "abbreviation": "022",
    "units": "022",
    "delimitation": "25/10/13/022",
    "remark": "NEW PU",
    "ward_id": "16955",
    "ward_name": "ALOGANI",
    "local_government_id": "534",
    "local_government_name": "NASARAWA EGGON",
    "state_id": "25",
    "state_name": "NASARAWA",
    "location": {
      "latitude": 8.493059299999999,
      "longitude": 8.5308236,
      "viewport": {
        "northeast": {
          "lat": 8.494426029892722,
          "lng": 8.532201579892721
        },
        "southwest": {
          "lat": 8.491726370107278,
          "lng": 8.529501920107277
        }
      },
      "formatted_address": "FGVJ+68F, 950101, Lafia, Nigeria",
      "google_map_url": "https://maps.google.com?q=8.493059299999999,8.5308236",
      "google_place_id": "ChIJvQh1hCQHURARTbPE304XlmA"
    }
  }
]