[
  {
    "id": "55205",
    "name": "JOINT OSCHOOL AMOFIA",
    "registration_area_id": "2986",
    "precise_location": null,
    "abbreviation": "001",
    "units": "001",
    "delimitation": "14/02/02/001",
    "remark": "EXISTING PU",
    "ward_id": "2986",
    "ward_name": "AWGU II",
    "local_government_id": "260",
    "local_government_name": "AWGU",
    "state_id": "14",
    "state_name": "ENUGU",
    "location": {
      "latitude": 6.064004199999999,
      "longitude": 7.476073499999999,
      "viewport": {
        "northeast": {
          "lat": 6.065314979892722,
          "lng": 7.477485679892721
        },
        "southwest": {
          "lat": 6.062615320107278,
          "lng": 7.474786020107277
        }
      },
      "formatted_address": "402121, Awgu, Nigeria",
      "google_map_url": "https://maps.google.com?q=6.064004199999999,7.476073499999999",
      "google_place_id": "ChIJ_____6tBQxAR-jIyMsD-Z5c"
    }
  },
  {
    "id": "55206",
    "name": "COMM. SCHOOL ONOLI I",
    "registration_area_id": "2986",
    "precise_location": null,
    "abbreviation": "002",
    "units": "002",
    "delimitation": "14/02/02/002",
    "remark": "EXISTING PU",
    "ward_id": "2986",
    "ward_name": "AWGU II",
    "local_government_id": "260",
    "local_government_name": "AWGU",
    "state_id": "14",
    "state_name": "ENUGU",
    "location": {
      "latitude": 6.064004199999999,
      "longitude": 7.476073499999999,
      "viewport": {
        "northeast": {
          "lat": 6.065314979892722,
          "lng": 7.477485679892721
        },
        "southwest": {
          "lat": 6.062615320107278,
          "lng": 7.474786020107277
        }
      },
      "formatted_address": "Community Secondary School, Ugbo Awgu Ugbo, 402121, Enugu, Nigeria",
      "google_map_url": "https://maps.google.com?q=6.064004199999999,7.476073499999999",
      "google_place_id": "ChIJAcgqQfJBQxARnDXmb4J22XM"
    }
  },
  {
    "id": "55207",
    "name": "COMM. SCHOOL ONOLI II",
    "registration_area_id": "2986",
    "precise_location": null,
    "abbreviation": "003",
    "units": "003",
    "delimitation": "14/02/02/003",
    "remark": "EXISTING PU",
    "ward_id": "2986",
    "ward_name": "AWGU II",
    "local_government_id": "260",
    "local_government_name": "AWGU",
    "state_id": "14",
    "state_name": "ENUGU",
    "location": {
      "latitude": 6.064004199999999,
      "longitude": 7.476073499999999,
      "viewport": {
        "northeast": {
          "lat": 6.065314979892722,
          "lng": 7.477485679892721
        },
        "southwest": {
          "lat": 6.062615320107278,
          "lng": 7.474786020107277
        }
      },
      "formatted_address": "Community Secondary School, Ugbo Awgu Ugbo, 402121, Enugu, Nigeria",
      "google_map_url": "https://maps.google.com?q=6.064004199999999,7.476073499999999",
      "google_place_id": "ChIJAcgqQfJBQxARnDXmb4J22XM"
    }
  },
  {
    "id": "55208",
    "name": "COMM. SCHOOL AWGU",
    "registration_area_id": "2986",
    "precise_location": null,
    "abbreviation": "004",
    "units": "004",
    "delimitation": "14/02/02/004",
    "remark": "EXISTING PU",
    "ward_id": "2986",
    "ward_name": "AWGU II",
    "local_government_id": "260",
    "local_government_name": "AWGU",
    "state_id": "14",
    "state_name": "ENUGU",
    "location": {
      "latitude": 6.064004199999999,
      "longitude": 7.476073499999999,
      "viewport": {
        "northeast": {
          "lat": 6.065314979892722,
          "lng": 7.477485679892721
        },
        "southwest": {
          "lat": 6.062615320107278,
          "lng": 7.474786020107277
        }
      },
      "formatted_address": "Community Secondary School, Ugbo Awgu Ugbo, 402121, Enugu, Nigeria",
      "google_map_url": "https://maps.google.com?q=6.064004199999999,7.476073499999999",
      "google_place_id": "ChIJAcgqQfJBQxARnDXmb4J22XM"
    }
  },
  {
    "id": "55209",
    "name": "OBODO AMETA OBUOFFIA SQUARE",
    "registration_area_id": "2986",
    "precise_location": null,
    "abbreviation": "005",
    "units": "005",
    "delimitation": "14/02/02/005",
    "remark": "EXISTING PU",
    "ward_id": "2986",
    "ward_name": "AWGU II",
    "local_government_id": "260",
    "local_government_name": "AWGU",
    "state_id": "14",
    "state_name": "ENUGU",
    "location": {
      "latitude": 6.0780322,
      "longitude": 7.4790901,
      "viewport": {
        "northeast": {
          "lat": 6.079356979892721,
          "lng": 7.480416579892722
        },
        "southwest": {
          "lat": 6.076657320107277,
          "lng": 7.477716920107278
        }
      },
      "formatted_address": "3FGH+MPP, 402121, Awgu, Nigeria",
      "google_map_url": "https://maps.google.com?q=6.0780322,7.4790901",
      "google_place_id": "ChIJr5TXgotBQxARJuMzcyPcW50"
    }
  },
  {
    "id": "55210",
    "name": "OGWUMABIRI SQUARE AWGU I",
    "registration_area_id": "2986",
    "precise_location": null,
    "abbreviation": "006",
    "units": "006",
    "delimitation": "14/02/02/006",
    "remark": "EXISTING PU",
    "ward_id": "2986",
    "ward_name": "AWGU II",
    "local_government_id": "260",
    "local_government_name": "AWGU",
    "state_id": "14",
    "state_name": "ENUGU",
    "location": {
      "latitude": 6.0778766,
      "longitude": 7.469917199999999,
      "viewport": {
        "northeast": {
          "lat": 6.090479999999999,
          "lng": 7.479102099999999
        },
        "southwest": {
          "lat": 6.072424,
          "lng": 7.468269
        }
      },
      "formatted_address": "Awgu, Nigeria",
      "google_map_url": "https://maps.google.com?q=6.0778766,7.469917199999999",
      "google_place_id": "ChIJ5dizpwdBQxARvefkIxGTKRE"
    }
  },
  {
    "id": "55211",
    "name": "OYE UMUHU MARKET SQUARE I",
    "registration_area_id": "2986",
    "precise_location": null,
    "abbreviation": "007",
    "units": "007",
    "delimitation": "14/02/02/007",
    "remark": "EXISTING PU",
    "ward_id": "2986",
    "ward_name": "AWGU II",
    "local_government_id": "260",
    "local_government_name": "AWGU",
    "state_id": "14",
    "state_name": "ENUGU",
    "location": {
      "latitude": 6.2498719,
      "longitude": 7.4714215,
      "viewport": {
        "northeast": {
          "lat": 6.251207429892721,
          "lng": 7.472788729892722
        },
        "southwest": {
          "lat": 6.248507770107277,
          "lng": 7.470089070107278
        }
      },
      "formatted_address": "6FXC+WHV, 402138, Agbogugu, Nigeria",
      "google_map_url": "https://maps.google.com?q=6.2498719,7.4714215",
      "google_place_id": "ChIJTQsIqjZdQxARg2AGrcCsUtc"
    }
  },
  {
    "id": "55212",
    "name": "OYE UMUHU MARKET SQUARE II",
    "registration_area_id": "2986",
    "precise_location": null,
    "abbreviation": "008",
    "units": "008",
    "delimitation": "14/02/02/008",
    "remark": "EXISTING PU",
    "ward_id": "2986",
    "ward_name": "AWGU II",
    "local_government_id": "260",
    "local_government_name": "AWGU",
    "state_id": "14",
    "state_name": "ENUGU",
    "location": {
      "latitude": 6.0780322,
      "longitude": 7.4790901,
      "viewport": {
        "northeast": {
          "lat": 6.079356979892721,
          "lng": 7.480416579892722
        },
        "southwest": {
          "lat": 6.076657320107277,
          "lng": 7.477716920107278
        }
      },
      "formatted_address": "3FGH+MPP, 402121, Awgu, Nigeria",
      "google_map_url": "https://maps.google.com?q=6.0780322,7.4790901",
      "google_place_id": "ChIJr5TXgotBQxARJuMzcyPcW50"
    }
  },
  {
    "id": "55213",
    "name": "JOINT SCHOOL AWGU",
    "registration_area_id": "2986",
    "precise_location": null,
    "abbreviation": "009",
    "units": "009",
    "delimitation": "14/02/02/009",
    "remark": "EXISTING PU",
    "ward_id": "2986",
    "ward_name": "AWGU II",
    "local_government_id": "260",
    "local_government_name": "AWGU",
    "state_id": "14",
    "state_name": "ENUGU",
    "location": {
      "latitude": 6.064004199999999,
      "longitude": 7.476073499999999,
      "viewport": {
        "northeast": {
          "lat": 6.065314979892722,
          "lng": 7.477485679892721
        },
        "southwest": {
          "lat": 6.062615320107278,
          "lng": 7.474786020107277
        }
      },
      "formatted_address": "402121, Awgu, Nigeria",
      "google_map_url": "https://maps.google.com?q=6.064004199999999,7.476073499999999",
      "google_place_id": "ChIJ_____6tBQxAR-jIyMsD-Z5c"
    }
  },
  {
    "id": "55214",
    "name": "AMAJIRIJI VILLAGE SQUARE",
    "registration_area_id": "2986",
    "precise_location": null,
    "abbreviation": "010",
    "units": "010",
    "delimitation": "14/02/02/010",
    "remark": "EXISTING PU",
    "ward_id": "2986",
    "ward_name": "AWGU II",
    "local_government_id": "260",
    "local_government_name": "AWGU",
    "state_id": "14",
    "state_name": "ENUGU",
    "location": {
      "latitude": 6.0443594,
      "longitude": 7.480358900000001,
      "viewport": {
        "northeast": {
          "lat": 6.045802229892722,
          "lng": 7.481665579892721
        },
        "southwest": {
          "lat": 6.043102570107278,
          "lng": 7.478965920107277
        }
      },
      "formatted_address": "2FVJ+P4X, 402120, Awgu, Nigeria",
      "google_map_url": "https://maps.google.com?q=6.0443594,7.480358900000001",
      "google_place_id": "ChIJ_____6tBQxARtfi6Ut2SouE"
    }
  },
  {
    "id": "55215",
    "name": "UHUANYA PUBLIC SQUARE",
    "registration_area_id": "2986",
    "precise_location": null,
    "abbreviation": "011",
    "units": "011",
    "delimitation": "14/02/02/011",
    "remark": "EXISTING PU",
    "ward_id": "2986",
    "ward_name": "AWGU II",
    "local_government_id": "260",
    "local_government_name": "AWGU",
    "state_id": "14",
    "state_name": "ENUGU",
    "location": {
      "latitude": 6.0780322,
      "longitude": 7.4790901,
      "viewport": {
        "northeast": {
          "lat": 6.079356979892721,
          "lng": 7.480416579892722
        },
        "southwest": {
          "lat": 6.076657320107277,
          "lng": 7.477716920107278
        }
      },
      "formatted_address": "3FGH+MPP, 402121, Awgu, Nigeria",
      "google_map_url": "https://maps.google.com?q=6.0780322,7.4790901",
      "google_place_id": "ChIJr5TXgotBQxARJuMzcyPcW50"
    }
  },
  {
    "id": "55216",
    "name": "OGWUMABIRI SQUARE AWGU II",
    "registration_area_id": "2986",
    "precise_location": null,
    "abbreviation": "012",
    "units": "012",
    "delimitation": "14/02/02/012",
    "remark": "EXISTING PU",
    "ward_id": "2986",
    "ward_name": "AWGU II",
    "local_government_id": "260",
    "local_government_name": "AWGU",
    "state_id": "14",
    "state_name": "ENUGU",
    "location": {
      "latitude": 6.0443594,
      "longitude": 7.480358900000001,
      "viewport": {
        "northeast": {
          "lat": 6.045802229892722,
          "lng": 7.481665579892721
        },
        "southwest": {
          "lat": 6.043102570107278,
          "lng": 7.478965920107277
        }
      },
      "formatted_address": "2FVJ+P4X, 402120, Awgu, Nigeria",
      "google_map_url": "https://maps.google.com?q=6.0443594,7.480358900000001",
      "google_place_id": "ChIJ_____6tBQxARtfi6Ut2SouE"
    }
  },
  {
    "id": "55217",
    "name": "EZIUMUHU PUBLIC SQUARE",
    "registration_area_id": "2986",
    "precise_location": null,
    "abbreviation": "013",
    "units": "013",
    "delimitation": "14/02/02/013",
    "remark": "EXISTING PU",
    "ward_id": "2986",
    "ward_name": "AWGU II",
    "local_government_id": "260",
    "local_government_name": "AWGU",
    "state_id": "14",
    "state_name": "ENUGU",
    "location": {
      "latitude": 6.0780322,
      "longitude": 7.4790901,
      "viewport": {
        "northeast": {
          "lat": 6.079356979892721,
          "lng": 7.480416579892722
        },
        "southwest": {
          "lat": 6.076657320107277,
          "lng": 7.477716920107278
        }
      },
      "formatted_address": "3FGH+MPP, 402121, Awgu, Nigeria",
      "google_map_url": "https://maps.google.com?q=6.0780322,7.4790901",
      "google_place_id": "ChIJr5TXgotBQxARJuMzcyPcW50"
    }
  },
  {
    "id": "55218",
    "name": "EKE AMAIWE VILLAGE HALL",
    "registration_area_id": "2986",
    "precise_location": null,
    "abbreviation": "014",
    "units": "014",
    "delimitation": "14/02/02/014",
    "remark": "NEW PU",
    "ward_id": "2986",
    "ward_name": "AWGU II",
    "local_government_id": "260",
    "local_government_name": "AWGU",
    "state_id": "14",
    "state_name": "ENUGU",
    "location": {
      "latitude": 6.0780322,
      "longitude": 7.4790901,
      "viewport": {
        "northeast": {
          "lat": 6.079356979892721,
          "lng": 7.480416579892722
        },
        "southwest": {
          "lat": 6.076657320107277,
          "lng": 7.477716920107278
        }
      },
      "formatted_address": "3FGH+MPP, 402121, Awgu, Nigeria",
      "google_map_url": "https://maps.google.com?q=6.0780322,7.4790901",
      "google_place_id": "ChIJr5TXgotBQxARJuMzcyPcW50"
    }
  },
  {
    "id": "55219",
    "name": "COMMUNITY SCHOOL AWGU II",
    "registration_area_id": "2986",
    "precise_location": null,
    "abbreviation": "015",
    "units": "015",
    "delimitation": "14/02/02/015",
    "remark": "NEW PU",
    "ward_id": "2986",
    "ward_name": "AWGU II",
    "local_government_id": "260",
    "local_government_name": "AWGU",
    "state_id": "14",
    "state_name": "ENUGU",
    "location": {
      "latitude": 6.0558479,
      "longitude": 7.472743299999999,
      "viewport": {
        "northeast": {
          "lat": 6.057057129892722,
          "lng": 7.474098529892721
        },
        "southwest": {
          "lat": 6.054357470107278,
          "lng": 7.471398870107278
        }
      },
      "formatted_address": "3F4F+83Q, 402120, Awgu, Nigeria",
      "google_map_url": "https://maps.google.com?q=6.0558479,7.472743299999999",
      "google_place_id": "ChIJxaD-QZ5BQxARV16Ys0dBTLc"
    }
  },
  {
    "id": "55220",
    "name": "TOWN HALL OBUOFFIA",
    "registration_area_id": "2986",
    "precise_location": null,
    "abbreviation": "016",
    "units": "016",
    "delimitation": "14/02/02/016",
    "remark": "NEW PU",
    "ward_id": "2986",
    "ward_name": "AWGU II",
    "local_government_id": "260",
    "local_government_name": "AWGU",
    "state_id": "14",
    "state_name": "ENUGU",
    "location": {
      "latitude": 6.064004199999999,
      "longitude": 7.476073499999999,
      "viewport": {
        "northeast": {
          "lat": 6.065314979892722,
          "lng": 7.477485679892721
        },
        "southwest": {
          "lat": 6.062615320107278,
          "lng": 7.474786020107277
        }
      },
      "formatted_address": "3F7G+JC6, 402121, Awgu, Nigeria",
      "google_map_url": "https://maps.google.com?q=6.064004199999999,7.476073499999999",
      "google_place_id": "ChIJ_____6tBQxARdifQwLtegzA"
    }
  },
  {
    "id": "55221",
    "name": "AMAGU UMUHU SQUARE",
    "registration_area_id": "2986",
    "precise_location": null,
    "abbreviation": "017",
    "units": "017",
    "delimitation": "14/02/02/017",
    "remark": "NEW PU",
    "ward_id": "2986",
    "ward_name": "AWGU II",
    "local_government_id": "260",
    "local_government_name": "AWGU",
    "state_id": "14",
    "state_name": "ENUGU",
    "location": {
      "latitude": 6.0780322,
      "longitude": 7.4790901,
      "viewport": {
        "northeast": {
          "lat": 6.079356979892721,
          "lng": 7.480416579892722
        },
        "southwest": {
          "lat": 6.076657320107277,
          "lng": 7.477716920107278
        }
      },
      "formatted_address": "3FGH+MPP, 402121, Awgu, Nigeria",
      "google_map_url": "https://maps.google.com?q=6.0780322,7.4790901",
      "google_place_id": "ChIJr5TXgotBQxARJuMzcyPcW50"
    }
  },
  {
    "id": "55222",
    "name": "IN-FRONT OF CORPERS LODGE",
    "registration_area_id": "2986",
    "precise_location": null,
    "abbreviation": "018",
    "units": "018",
    "delimitation": "14/02/02/018",
    "remark": "NEW PU",
    "ward_id": "2986",
    "ward_name": "AWGU II",
    "local_government_id": "260",
    "local_government_name": "AWGU",
    "state_id": "14",
    "state_name": "ENUGU",
    "location": {
      "latitude": 6.076509799999999,
      "longitude": 7.4711436,
      "viewport": {
        "northeast": {
          "lat": 6.077861079892721,
          "lng": 7.47248732989272
        },
        "southwest": {
          "lat": 6.075161420107277,
          "lng": 7.469787670107277
        }
      },
      "formatted_address": "3FGC+HFX, Unnamed Road, 402121, Awgu, Nigeria",
      "google_map_url": "https://maps.google.com?q=6.076509799999999,7.4711436",
      "google_place_id": "ChIJ2aPipZ9BQxAR5G1wkxnIBPk"
    }
  },
  {
    "id": "55223",
    "name": "AMEBO OLIKWU VILLAGE SQUARE",
    "registration_area_id": "2986",
    "precise_location": null,
    "abbreviation": "019",
    "units": "019",
    "delimitation": "14/02/02/019",
    "remark": "NEW PU",
    "ward_id": "2986",
    "ward_name": "AWGU II",
    "local_government_id": "260",
    "local_government_name": "AWGU",
    "state_id": "14",
    "state_name": "ENUGU",
    "location": {
      "latitude": 6.0443594,
      "longitude": 7.480358900000001,
      "viewport": {
        "northeast": {
          "lat": 6.045802229892722,
          "lng": 7.481665579892721
        },
        "southwest": {
          "lat": 6.043102570107278,
          "lng": 7.478965920107277
        }
      },
      "formatted_address": "2FVJ+P4X, 402120, Awgu, Nigeria",
      "google_map_url": "https://maps.google.com?q=6.0443594,7.480358900000001",
      "google_place_id": "ChIJ_____6tBQxARtfi6Ut2SouE"
    }
  },
  {
    "id": "55224",
    "name": "OBODO UHUAGWU TOWN HALL",
    "registration_area_id": "2986",
    "precise_location": null,
    "abbreviation": "020",
    "units": "020",
    "delimitation": "14/02/02/020",
    "remark": "NEW PU",
    "ward_id": "2986",
    "ward_name": "AWGU II",
    "local_government_id": "260",
    "local_government_name": "AWGU",
    "state_id": "14",
    "state_name": "ENUGU",
    "location": {
      "latitude": 6.0780322,
      "longitude": 7.4790901,
      "viewport": {
        "northeast": {
          "lat": 6.079356979892721,
          "lng": 7.480416579892722
        },
        "southwest": {
          "lat": 6.076657320107277,
          "lng": 7.477716920107278
        }
      },
      "formatted_address": "3FGH+MPP, 402121, Awgu, Nigeria",
      "google_map_url": "https://maps.google.com?q=6.0780322,7.4790901",
      "google_place_id": "ChIJr5TXgotBQxARJuMzcyPcW50"
    }
  },
  {
    "id": "55225",
    "name": "UGWUORJI OGWUMABIRI SQUARE",
    "registration_area_id": "2986",
    "precise_location": null,
    "abbreviation": "021",
    "units": "021",
    "delimitation": "14/02/02/021",
    "remark": "NEW PU",
    "ward_id": "2986",
    "ward_name": "AWGU II",
    "local_government_id": "260",
    "local_government_name": "AWGU",
    "state_id": "14",
    "state_name": "ENUGU",
    "location": {
      "latitude": 6.0443594,
      "longitude": 7.480358900000001,
      "viewport": {
        "northeast": {
          "lat": 6.045802229892722,
          "lng": 7.481665579892721
        },
        "southwest": {
          "lat": 6.043102570107278,
          "lng": 7.478965920107277
        }
      },
      "formatted_address": "2FVJ+P4X, 402120, Awgu, Nigeria",
      "google_map_url": "https://maps.google.com?q=6.0443594,7.480358900000001",
      "google_place_id": "ChIJ_____6tBQxARtfi6Ut2SouE"
    }
  },
  {
    "id": "55226",
    "name": "EZIUMUHU TOWN HALL",
    "registration_area_id": "2986",
    "precise_location": null,
    "abbreviation": "022",
    "units": "022",
    "delimitation": "14/02/02/022",
    "remark": "NEW PU",
    "ward_id": "2986",
    "ward_name": "AWGU II",
    "local_government_id": "260",
    "local_government_name": "AWGU",
    "state_id": "14",
    "state_name": "ENUGU",
    "location": {
      "latitude": 6.0780322,
      "longitude": 7.4790901,
      "viewport": {
        "northeast": {
          "lat": 6.079356979892721,
          "lng": 7.480416579892722
        },
        "southwest": {
          "lat": 6.076657320107277,
          "lng": 7.477716920107278
        }
      },
      "formatted_address": "3FGH+MPP, 402121, Awgu, Nigeria",
      "google_map_url": "https://maps.google.com?q=6.0780322,7.4790901",
      "google_place_id": "ChIJr5TXgotBQxARJuMzcyPcW50"
    }
  }
]