[
  {
    "id": "53370",
    "name": "ST. JOHN'S ROAD , AT ST. JOHN'S SCHOOL",
    "registration_area_id": "2846",
    "precise_location": null,
    "abbreviation": "001",
    "units": "001",
    "delimitation": "13/05/03/001",
    "remark": "EXISTING PU",
    "ward_id": "2846",
    "ward_name": "ILAWE   III",
    "local_government_id": "247",
    "local_government_name": "EKITI SOUTH WEST",
    "state_id": "13",
    "state_name": "EKITI",
    "location": {
      "latitude": 7.373193,
      "longitude": 5.2429276,
      "viewport": {
        "northeast": {
          "lat": 7.374610929892722,
          "lng": 5.244296629892721
        },
        "southwest": {
          "lat": 7.371911270107279,
          "lng": 5.241596970107278
        }
      },
      "formatted_address": "96FV+757, Unnamed Road, Iju, Iju-Itaogbolu, Nigeria",
      "google_map_url": "https://maps.google.com?q=7.373193,5.2429276",
      "google_place_id": "ChIJvyD12o2SRxARRzzdA_wImkU"
    }
  },
  {
    "id": "53371",
    "name": "ADO ROAD  , AT ST. JOHN'S SCHOOL",
    "registration_area_id": "2846",
    "precise_location": null,
    "abbreviation": "002",
    "units": "002",
    "delimitation": "13/05/03/002",
    "remark": "EXISTING PU",
    "ward_id": "2846",
    "ward_name": "ILAWE   III",
    "local_government_id": "247",
    "local_government_name": "EKITI SOUTH WEST",
    "state_id": "13",
    "state_name": "EKITI",
    "location": {
      "latitude": 7.953544099999999,
      "longitude": 5.2362543,
      "viewport": {
        "northeast": {
          "lat": 7.954923329892722,
          "lng": 5.237525979892723
        },
        "southwest": {
          "lat": 7.952223670107278,
          "lng": 5.234826320107279
        }
      },
      "formatted_address": "St Johns Primary School, 360103, Iye, Nigeria",
      "google_map_url": "https://maps.google.com?q=7.953544099999999,5.2362543",
      "google_place_id": "ChIJU1uRHXIQSBARfq5KLhmrxVw"
    }
  },
  {
    "id": "53372",
    "name": "CHIEF AGBAJELOLA / OMIODO / AT ST. JOHN'S SCHOOL",
    "registration_area_id": "2846",
    "precise_location": null,
    "abbreviation": "003",
    "units": "003",
    "delimitation": "13/05/03/003",
    "remark": "EXISTING PU",
    "ward_id": "2846",
    "ward_name": "ILAWE   III",
    "local_government_id": "247",
    "local_government_name": "EKITI SOUTH WEST",
    "state_id": "13",
    "state_name": "EKITI",
    "location": {
      "latitude": 7.595095999999999,
      "longitude": 5.1041269,
      "viewport": {
        "northeast": {
          "lat": 7.59615262989272,
          "lng": 5.105391129892722
        },
        "southwest": {
          "lat": 7.593452970107276,
          "lng": 5.102691470107279
        }
      },
      "formatted_address": "361102, Bolorunduro, Nigeria",
      "google_map_url": "https://maps.google.com?q=7.595095999999999,5.1041269",
      "google_place_id": "ChIJNydS-D35RxARL8npVQUviCA"
    }
  },
  {
    "id": "53373",
    "name": "ALATORO / OKEBEDO / NEAR ALATORO",
    "registration_area_id": "2846",
    "precise_location": null,
    "abbreviation": "004",
    "units": "004",
    "delimitation": "13/05/03/004",
    "remark": "EXISTING PU",
    "ward_id": "2846",
    "ward_name": "ILAWE   III",
    "local_government_id": "247",
    "local_government_name": "EKITI SOUTH WEST",
    "state_id": "13",
    "state_name": "EKITI",
    "location": {
      "latitude": 7.614038300000001,
      "longitude": 5.129699899999999,
      "viewport": {
        "northeast": {
          "lat": 7.615400429892723,
          "lng": 5.130980429892722
        },
        "southwest": {
          "lat": 7.61270077010728,
          "lng": 5.128280770107278
        }
      },
      "formatted_address": "Local Government, Road, 360101, Igbara Odo, Nigeria",
      "google_map_url": "https://maps.google.com?q=7.614038300000001,5.129699899999999",
      "google_place_id": "ChIJ-zV-eZr5RxARU5kqaxA7fJs"
    }
  },
  {
    "id": "53374",
    "name": "EKUASA  /   NEAR EKUASA",
    "registration_area_id": "2846",
    "precise_location": null,
    "abbreviation": "005",
    "units": "005",
    "delimitation": "13/05/03/005",
    "remark": "EXISTING PU",
    "ward_id": "2846",
    "ward_name": "ILAWE   III",
    "local_government_id": "247",
    "local_government_name": "EKITI SOUTH WEST",
    "state_id": "13",
    "state_name": "EKITI",
    "location": {
      "latitude": 7.594036399999999,
      "longitude": 5.1012537,
      "viewport": {
        "northeast": {
          "lat": 7.595374629892721,
          "lng": 5.102607929892721
        },
        "southwest": {
          "lat": 7.592674970107277,
          "lng": 5.099908270107277
        }
      },
      "formatted_address": "6FV7H4V2+HGCX, 28 Iro Street, 361102, Ilawe Ekiti, Nigeria",
      "google_map_url": "https://maps.google.com?q=7.594036399999999,5.1012537",
      "google_place_id": "ChIJKee-30_5RxARAn2rG0OuMf4"
    }
  },
  {
    "id": "53375",
    "name": "IGUNMRIN COMMUNITY  / NEAR DISPENSARY , IGUNRIN",
    "registration_area_id": "2846",
    "precise_location": null,
    "abbreviation": "006",
    "units": "006",
    "delimitation": "13/05/03/006",
    "remark": "EXISTING PU",
    "ward_id": "2846",
    "ward_name": "ILAWE   III",
    "local_government_id": "247",
    "local_government_name": "EKITI SOUTH WEST",
    "state_id": "13",
    "state_name": "EKITI",
    "location": {
      "latitude": 7.796338,
      "longitude": 5.235949499999999,
      "viewport": {
        "northeast": {
          "lat": 7.797593279892721,
          "lng": 5.237230579892722
        },
        "southwest": {
          "lat": 7.794893620107278,
          "lng": 5.234530920107278
        }
      },
      "formatted_address": "Ifaki-Ido Rd, 371103, Ifaki, Nigeria",
      "google_map_url": "https://maps.google.com?q=7.796338,5.235949499999999",
      "google_place_id": "ChIJldeB9YcISBARsL6lvIPyAcM"
    }
  },
  {
    "id": "53376",
    "name": "GIRIGBOMOLA  ,  NEAR GIRIGBOMOLA",
    "registration_area_id": "2846",
    "precise_location": null,
    "abbreviation": "007",
    "units": "007",
    "delimitation": "13/05/03/007",
    "remark": "EXISTING PU",
    "ward_id": "2846",
    "ward_name": "ILAWE   III",
    "local_government_id": "247",
    "local_government_name": "EKITI SOUTH WEST",
    "state_id": "13",
    "state_name": "EKITI",
    "location": {
      "latitude": 7.614038300000001,
      "longitude": 5.129699899999999,
      "viewport": {
        "northeast": {
          "lat": 7.615400429892723,
          "lng": 5.130980429892722
        },
        "southwest": {
          "lat": 7.61270077010728,
          "lng": 5.128280770107278
        }
      },
      "formatted_address": "Local Government, Road, 360101, Igbara Odo, Nigeria",
      "google_map_url": "https://maps.google.com?q=7.614038300000001,5.129699899999999",
      "google_place_id": "ChIJ-zV-eZr5RxARU5kqaxA7fJs"
    }
  },
  {
    "id": "53377",
    "name": "OKELOYE / OKEBEDO  , AT  ST. JOHN'S SCHOOL",
    "registration_area_id": "2846",
    "precise_location": null,
    "abbreviation": "008",
    "units": "008",
    "delimitation": "13/05/03/008",
    "remark": "EXISTING PU",
    "ward_id": "2846",
    "ward_name": "ILAWE   III",
    "local_government_id": "247",
    "local_government_name": "EKITI SOUTH WEST",
    "state_id": "13",
    "state_name": "EKITI",
    "location": {
      "latitude": 7.5838932,
      "longitude": 5.2224004,
      "viewport": {
        "northeast": {
          "lat": 7.585216029892722,
          "lng": 5.223733879892722
        },
        "southwest": {
          "lat": 7.582516370107278,
          "lng": 5.221034220107278
        }
      },
      "formatted_address": "1, LANE 6 OLUJODA STREET, ADO EKITI, Ikere, Nigeria",
      "google_map_url": "https://maps.google.com?q=7.5838932,5.2224004",
      "google_place_id": "ChIJAUQncuv7RxARBYEwy8NLCFM"
    }
  },
  {
    "id": "53378",
    "name": "IDIAGBA / IKEREJE / OLORO , NEAR IKEREJE",
    "registration_area_id": "2846",
    "precise_location": null,
    "abbreviation": "009",
    "units": "009",
    "delimitation": "13/05/03/009",
    "remark": "EXISTING PU",
    "ward_id": "2846",
    "ward_name": "ILAWE   III",
    "local_government_id": "247",
    "local_government_name": "EKITI SOUTH WEST",
    "state_id": "13",
    "state_name": "EKITI",
    "location": null
  },
  {
    "id": "53379",
    "name": "MOGUN / IBIYEMI  ,  NEAR IBIYEMI",
    "registration_area_id": "2846",
    "precise_location": null,
    "abbreviation": "010",
    "units": "010",
    "delimitation": "13/05/03/010",
    "remark": "EXISTING PU",
    "ward_id": "2846",
    "ward_name": "ILAWE   III",
    "local_government_id": "247",
    "local_government_name": "EKITI SOUTH WEST",
    "state_id": "13",
    "state_name": "EKITI",
    "location": null
  },
  {
    "id": "53380",
    "name": "ODOFIN  , NEAR OISA  OKE'S HOUSE",
    "registration_area_id": "2846",
    "precise_location": null,
    "abbreviation": "011",
    "units": "011",
    "delimitation": "13/05/03/011",
    "remark": "EXISTING PU",
    "ward_id": "2846",
    "ward_name": "ILAWE   III",
    "local_government_id": "247",
    "local_government_name": "EKITI SOUTH WEST",
    "state_id": "13",
    "state_name": "EKITI",
    "location": {
      "latitude": 7.614038300000001,
      "longitude": 5.129699899999999,
      "viewport": {
        "northeast": {
          "lat": 7.615400429892723,
          "lng": 5.130980429892722
        },
        "southwest": {
          "lat": 7.61270077010728,
          "lng": 5.128280770107278
        }
      },
      "formatted_address": "Local Government, Road, 360101, Igbara Odo, Nigeria",
      "google_map_url": "https://maps.google.com?q=7.614038300000001,5.129699899999999",
      "google_place_id": "ChIJ-zV-eZr5RxARU5kqaxA7fJs"
    }
  }
]