[
  {
    "id": "67350",
    "name": "KANTOGA GARI  KANTOGA P.S",
    "registration_area_id": "3680",
    "precise_location": null,
    "abbreviation": "001",
    "units": "001",
    "delimitation": "17/03/03/001",
    "remark": "EXISTING PU",
    "ward_id": "3680",
    "ward_name": "KANTOGA",
    "local_government_id": "322",
    "local_government_name": "BIRNIN KUDU",
    "state_id": "17",
    "state_name": "JIGAWA",
    "location": {
      "latitude": 11.4983698,
      "longitude": 9.378409000000001,
      "viewport": {
        "northeast": {
          "lat": 11.5610554,
          "lng": 9.453916
        },
        "southwest": {
          "lat": 11.4079915,
          "lng": 9.298589999999999
        }
      },
      "formatted_address": "Kantoga, 721101, Nigeria",
      "google_map_url": "https://maps.google.com?q=11.4983698,9.378409000000001",
      "google_place_id": "ChIJJ4TIBw2SqxERsb0ynJ39wUs"
    }
  },
  {
    "id": "67351",
    "name": "KANTOGA  GORAWA KANTOGA P.SCH.",
    "registration_area_id": "3680",
    "precise_location": null,
    "abbreviation": "002",
    "units": "002",
    "delimitation": "17/03/03/002",
    "remark": "EXISTING PU",
    "ward_id": "3680",
    "ward_name": "KANTOGA",
    "local_government_id": "322",
    "local_government_name": "BIRNIN KUDU",
    "state_id": "17",
    "state_name": "JIGAWA",
    "location": {
      "latitude": 11.4983698,
      "longitude": 9.378409000000001,
      "viewport": {
        "northeast": {
          "lat": 11.5610554,
          "lng": 9.453916
        },
        "southwest": {
          "lat": 11.4079915,
          "lng": 9.298589999999999
        }
      },
      "formatted_address": "Kantoga, 721101, Nigeria",
      "google_map_url": "https://maps.google.com?q=11.4983698,9.378409000000001",
      "google_place_id": "ChIJJ4TIBw2SqxERsb0ynJ39wUs"
    }
  },
  {
    "id": "67352",
    "name": "UNG. GALADIMA WUDILAWA  UNG. GALADIMA P.SCH.",
    "registration_area_id": "3680",
    "precise_location": null,
    "abbreviation": "003",
    "units": "003",
    "delimitation": "17/03/03/003",
    "remark": "EXISTING PU",
    "ward_id": "3680",
    "ward_name": "KANTOGA",
    "local_government_id": "322",
    "local_government_name": "BIRNIN KUDU",
    "state_id": "17",
    "state_name": "JIGAWA",
    "location": {
      "latitude": 11.4537142,
      "longitude": 9.3850955,
      "viewport": {
        "northeast": {
          "lat": 11.45503127989272,
          "lng": 9.38639532989272
        },
        "southwest": {
          "lat": 11.45233162010728,
          "lng": 9.383695670107276
        }
      },
      "formatted_address": "F93M+FXP, 721101, Birnin Kudu, Nigeria",
      "google_map_url": "https://maps.google.com?q=11.4537142,9.3850955",
      "google_place_id": "ChIJG_DyEvKRqxERPiKRSg8a0-4"
    }
  },
  {
    "id": "67353",
    "name": "UNG. GALADIMA   UNG. GALADIMA P.SCH.",
    "registration_area_id": "3680",
    "precise_location": null,
    "abbreviation": "004",
    "units": "004",
    "delimitation": "17/03/03/004",
    "remark": "EXISTING PU",
    "ward_id": "3680",
    "ward_name": "KANTOGA",
    "local_government_id": "322",
    "local_government_name": "BIRNIN KUDU",
    "state_id": "17",
    "state_name": "JIGAWA",
    "location": {
      "latitude": 11.4537142,
      "longitude": 9.3850955,
      "viewport": {
        "northeast": {
          "lat": 11.45503127989272,
          "lng": 9.38639532989272
        },
        "southwest": {
          "lat": 11.45233162010728,
          "lng": 9.383695670107276
        }
      },
      "formatted_address": "F93M+FXP, 721101, Birnin Kudu, Nigeria",
      "google_map_url": "https://maps.google.com?q=11.4537142,9.3850955",
      "google_place_id": "ChIJG_DyEvKRqxERPiKRSg8a0-4"
    }
  },
  {
    "id": "67354",
    "name": "UNG. MAMAN TSOHUWA UNG. MAMMAN",
    "registration_area_id": "3680",
    "precise_location": null,
    "abbreviation": "005",
    "units": "005",
    "delimitation": "17/03/03/005",
    "remark": "EXISTING PU",
    "ward_id": "3680",
    "ward_name": "KANTOGA",
    "local_government_id": "322",
    "local_government_name": "BIRNIN KUDU",
    "state_id": "17",
    "state_name": "JIGAWA",
    "location": {
      "latitude": 11.4374238,
      "longitude": 9.4739813,
      "viewport": {
        "northeast": {
          "lat": 11.43873477989272,
          "lng": 9.475406779892719
        },
        "southwest": {
          "lat": 11.43603512010728,
          "lng": 9.472707120107275
        }
      },
      "formatted_address": "CFPF+XH9, 721101, Birnin Kudu, Nigeria",
      "google_map_url": "https://maps.google.com?q=11.4374238,9.4739813",
      "google_place_id": "ChIJHztLMFuXqxER1n4B_u2zKpk"
    }
  },
  {
    "id": "67355",
    "name": "BAJI/KANTOGA KUFAI UNG. BAJI",
    "registration_area_id": "3680",
    "precise_location": null,
    "abbreviation": "006",
    "units": "006",
    "delimitation": "17/03/03/006",
    "remark": "EXISTING PU",
    "ward_id": "3680",
    "ward_name": "KANTOGA",
    "local_government_id": "322",
    "local_government_name": "BIRNIN KUDU",
    "state_id": "17",
    "state_name": "JIGAWA",
    "location": null
  },
  {
    "id": "67356",
    "name": "KARFAWA UNG. BABUWA KARFAWA",
    "registration_area_id": "3680",
    "precise_location": null,
    "abbreviation": "007",
    "units": "007",
    "delimitation": "17/03/03/007",
    "remark": "EXISTING PU",
    "ward_id": "3680",
    "ward_name": "KANTOGA",
    "local_government_id": "322",
    "local_government_name": "BIRNIN KUDU",
    "state_id": "17",
    "state_name": "JIGAWA",
    "location": null
  },
  {
    "id": "67357",
    "name": "KADANI KADANI",
    "registration_area_id": "3680",
    "precise_location": null,
    "abbreviation": "008",
    "units": "008",
    "delimitation": "17/03/03/008",
    "remark": "EXISTING PU",
    "ward_id": "3680",
    "ward_name": "KANTOGA",
    "local_government_id": "322",
    "local_government_name": "BIRNIN KUDU",
    "state_id": "17",
    "state_name": "JIGAWA",
    "location": {
      "latitude": 11.7406068,
      "longitude": 8.4917926,
      "viewport": {
        "northeast": {
          "lat": 11.7452019,
          "lng": 8.502712899999999
        },
        "southwest": {
          "lat": 11.7388129,
          "lng": 8.489658
        }
      },
      "formatted_address": "Kadani, Nigeria",
      "google_map_url": "https://maps.google.com?q=11.7406068,8.4917926",
      "google_place_id": "ChIJDYPDMLgyrBERQyqbQPItZiA"
    }
  },
  {
    "id": "67358",
    "name": "ZANGA GARI ZANGA P.S",
    "registration_area_id": "3680",
    "precise_location": null,
    "abbreviation": "009",
    "units": "009",
    "delimitation": "17/03/03/009",
    "remark": "EXISTING PU",
    "ward_id": "3680",
    "ward_name": "KANTOGA",
    "local_government_id": "322",
    "local_government_name": "BIRNIN KUDU",
    "state_id": "17",
    "state_name": "JIGAWA",
    "location": {
      "latitude": 11.451025,
      "longitude": 9.4049513,
      "viewport": {
        "northeast": {
          "lat": 11.45237627989272,
          "lng": 9.406287679892724
        },
        "southwest": {
          "lat": 11.44967662010728,
          "lng": 9.40358802010728
        }
      },
      "formatted_address": "FC23+CX8, 721101, Birnin Kudu, Nigeria",
      "google_map_url": "https://maps.google.com?q=11.451025,9.4049513",
      "google_place_id": "ChIJZaIxQpuRqxERv6ZwRGCgAoM"
    }
  },
  {
    "id": "67359",
    "name": "BAGGA MAUDU BAGGA MAUDU P.SCH.",
    "registration_area_id": "3680",
    "precise_location": null,
    "abbreviation": "010",
    "units": "010",
    "delimitation": "17/03/03/010",
    "remark": "EXISTING PU",
    "ward_id": "3680",
    "ward_name": "KANTOGA",
    "local_government_id": "322",
    "local_government_name": "BIRNIN KUDU",
    "state_id": "17",
    "state_name": "JIGAWA",
    "location": {
      "latitude": 11.4432567,
      "longitude": 9.4827143,
      "viewport": {
        "northeast": {
          "lat": 11.44461587989272,
          "lng": 9.484145329892723
        },
        "southwest": {
          "lat": 11.44191622010728,
          "lng": 9.481445670107279
        }
      },
      "formatted_address": "CFVM+834, 721101, Birnin Kudu, Nigeria",
      "google_map_url": "https://maps.google.com?q=11.4432567,9.4827143",
      "google_place_id": "ChIJE_yyFZSWqxERrXE3nWIm5Ug"
    }
  },
  {
    "id": "67360",
    "name": "BIGIDAN KAWARI  BIGIDAN KAWARI",
    "registration_area_id": "3680",
    "precise_location": null,
    "abbreviation": "011",
    "units": "011",
    "delimitation": "17/03/03/011",
    "remark": "EXISTING PU",
    "ward_id": "3680",
    "ward_name": "KANTOGA",
    "local_government_id": "322",
    "local_government_name": "BIRNIN KUDU",
    "state_id": "17",
    "state_name": "JIGAWA",
    "location": null
  },
  {
    "id": "67361",
    "name": "BIGIDAN BIGIDAN P.SCH. I",
    "registration_area_id": "3680",
    "precise_location": null,
    "abbreviation": "012",
    "units": "012",
    "delimitation": "17/03/03/012",
    "remark": "EXISTING PU",
    "ward_id": "3680",
    "ward_name": "KANTOGA",
    "local_government_id": "322",
    "local_government_name": "BIRNIN KUDU",
    "state_id": "17",
    "state_name": "JIGAWA",
    "location": null
  },
  {
    "id": "67362",
    "name": "BIGIDAN BIGIDAN P.SCH. II",
    "registration_area_id": "3680",
    "precise_location": null,
    "abbreviation": "013",
    "units": "013",
    "delimitation": "17/03/03/013",
    "remark": "EXISTING PU",
    "ward_id": "3680",
    "ward_name": "KANTOGA",
    "local_government_id": "322",
    "local_government_name": "BIRNIN KUDU",
    "state_id": "17",
    "state_name": "JIGAWA",
    "location": null
  },
  {
    "id": "67363",
    "name": "TSARA DAGAJI DAGAJI",
    "registration_area_id": "3680",
    "precise_location": null,
    "abbreviation": "014",
    "units": "014",
    "delimitation": "17/03/03/014",
    "remark": "EXISTING PU",
    "ward_id": "3680",
    "ward_name": "KANTOGA",
    "local_government_id": "322",
    "local_government_name": "BIRNIN KUDU",
    "state_id": "17",
    "state_name": "JIGAWA",
    "location": null
  },
  {
    "id": "67364",
    "name": "KYANKA A KOTA KYANKA A KOTA",
    "registration_area_id": "3680",
    "precise_location": null,
    "abbreviation": "015",
    "units": "015",
    "delimitation": "17/03/03/015",
    "remark": "EXISTING PU",
    "ward_id": "3680",
    "ward_name": "KANTOGA",
    "local_government_id": "322",
    "local_government_name": "BIRNIN KUDU",
    "state_id": "17",
    "state_name": "JIGAWA",
    "location": null
  },
  {
    "id": "67365",
    "name": "UNG. GIDE FAI FAI",
    "registration_area_id": "3680",
    "precise_location": null,
    "abbreviation": "016",
    "units": "016",
    "delimitation": "17/03/03/016",
    "remark": "EXISTING PU",
    "ward_id": "3680",
    "ward_name": "KANTOGA",
    "local_government_id": "322",
    "local_government_name": "BIRNIN KUDU",
    "state_id": "17",
    "state_name": "JIGAWA",
    "location": {
      "latitude": 11.4654398,
      "longitude": 9.481354699999999,
      "viewport": {
        "northeast": {
          "lat": 11.46663967989272,
          "lng": 9.482539079892721
        },
        "southwest": {
          "lat": 11.46394002010728,
          "lng": 9.479839420107277
        }
      },
      "formatted_address": "FF8J+5GH, Kano-Kari Rd, 721101, Birnin Kudu, Nigeria",
      "google_map_url": "https://maps.google.com?q=11.4654398,9.481354699999999",
      "google_place_id": "ChIJEywfCyGUqxERTNrTMQF9HMY"
    }
  },
  {
    "id": "67366",
    "name": "KULUMI KULUMI",
    "registration_area_id": "3680",
    "precise_location": null,
    "abbreviation": "017",
    "units": "017",
    "delimitation": "17/03/03/017",
    "remark": "EXISTING PU",
    "ward_id": "3680",
    "ward_name": "KANTOGA",
    "local_government_id": "322",
    "local_government_name": "BIRNIN KUDU",
    "state_id": "17",
    "state_name": "JIGAWA",
    "location": {
      "latitude": 11.5056389,
      "longitude": 9.500614299999999,
      "viewport": {
        "northeast": {
          "lat": 11.7294111,
          "lng": 9.6651218
        },
        "southwest": {
          "lat": 11.2519725,
          "lng": 9.1921255
        }
      },
      "formatted_address": "Birnin Kudu, Nigeria",
      "google_map_url": "https://maps.google.com?q=11.5056389,9.500614299999999",
      "google_place_id": "ChIJ8RRqrL6TqxERNmwuQqqp9HE"
    }
  },
  {
    "id": "67367",
    "name": "KAROFI KAROFI",
    "registration_area_id": "3680",
    "precise_location": null,
    "abbreviation": "018",
    "units": "018",
    "delimitation": "17/03/03/018",
    "remark": "EXISTING PU",
    "ward_id": "3680",
    "ward_name": "KANTOGA",
    "local_government_id": "322",
    "local_government_name": "BIRNIN KUDU",
    "state_id": "17",
    "state_name": "JIGAWA",
    "location": {
      "latitude": 11.3767444,
      "longitude": 8.8752212,
      "viewport": {
        "northeast": {
          "lat": 11.3779801,
          "lng": 8.8807689
        },
        "southwest": {
          "lat": 11.3713131,
          "lng": 8.868824
        }
      },
      "formatted_address": "712102, Karofi, Nigeria",
      "google_map_url": "https://maps.google.com?q=11.3767444,8.8752212",
      "google_place_id": "ChIJV8ZKp85nrBERIbVGWal1DhU"
    }
  },
  {
    "id": "67368",
    "name": "WARWADE YAMMA WARWADE P.SCH.",
    "registration_area_id": "3680",
    "precise_location": null,
    "abbreviation": "019",
    "units": "019",
    "delimitation": "17/03/03/019",
    "remark": "EXISTING PU",
    "ward_id": "3680",
    "ward_name": "KANTOGA",
    "local_government_id": "322",
    "local_government_name": "BIRNIN KUDU",
    "state_id": "17",
    "state_name": "JIGAWA",
    "location": {
      "latitude": 11.4374238,
      "longitude": 9.4739813,
      "viewport": {
        "northeast": {
          "lat": 11.43873477989272,
          "lng": 9.475406779892719
        },
        "southwest": {
          "lat": 11.43603512010728,
          "lng": 9.472707120107275
        }
      },
      "formatted_address": "CFPF+XH9, 721101, Birnin Kudu, Nigeria",
      "google_map_url": "https://maps.google.com?q=11.4374238,9.4739813",
      "google_place_id": "ChIJHztLMFuXqxER1n4B_u2zKpk"
    }
  },
  {
    "id": "67369",
    "name": "WARWADE GABAS WARWADE GABAS",
    "registration_area_id": "3680",
    "precise_location": null,
    "abbreviation": "020",
    "units": "020",
    "delimitation": "17/03/03/020",
    "remark": "EXISTING PU",
    "ward_id": "3680",
    "ward_name": "KANTOGA",
    "local_government_id": "322",
    "local_government_name": "BIRNIN KUDU",
    "state_id": "17",
    "state_name": "JIGAWA",
    "location": null
  },
  {
    "id": "67370",
    "name": "MUNGULO/GURUMA MUNGULO",
    "registration_area_id": "3680",
    "precise_location": null,
    "abbreviation": "021",
    "units": "021",
    "delimitation": "17/03/03/021",
    "remark": "EXISTING PU",
    "ward_id": "3680",
    "ward_name": "KANTOGA",
    "local_government_id": "322",
    "local_government_name": "BIRNIN KUDU",
    "state_id": "17",
    "state_name": "JIGAWA",
    "location": {
      "latitude": 11.4374238,
      "longitude": 9.4739813,
      "viewport": {
        "northeast": {
          "lat": 11.43873477989272,
          "lng": 9.475406779892719
        },
        "southwest": {
          "lat": 11.43603512010728,
          "lng": 9.472707120107275
        }
      },
      "formatted_address": "CFPF+XH9, 721101, Birnin Kudu, Nigeria",
      "google_map_url": "https://maps.google.com?q=11.4374238,9.4739813",
      "google_place_id": "ChIJHztLMFuXqxER1n4B_u2zKpk"
    }
  },
  {
    "id": "67371",
    "name": "YALWAN KARGO SABUWA YALWAN KALGO",
    "registration_area_id": "3680",
    "precise_location": null,
    "abbreviation": "022",
    "units": "022",
    "delimitation": "17/03/03/022",
    "remark": "EXISTING PU",
    "ward_id": "3680",
    "ward_name": "KANTOGA",
    "local_government_id": "322",
    "local_government_name": "BIRNIN KUDU",
    "state_id": "17",
    "state_name": "JIGAWA",
    "location": null
  },
  {
    "id": "67372",
    "name": "KAFIN GANA GABAS KAFIN GANA GABAS",
    "registration_area_id": "3680",
    "precise_location": null,
    "abbreviation": "023",
    "units": "023",
    "delimitation": "17/03/03/023",
    "remark": "EXISTING PU",
    "ward_id": "3680",
    "ward_name": "KANTOGA",
    "local_government_id": "322",
    "local_government_name": "BIRNIN KUDU",
    "state_id": "17",
    "state_name": "JIGAWA",
    "location": {
      "latitude": 11.4500522,
      "longitude": 9.474975299999999,
      "viewport": {
        "northeast": {
          "lat": 11.45143707989272,
          "lng": 9.476474129892722
        },
        "southwest": {
          "lat": 11.44873742010728,
          "lng": 9.473774470107278
        }
      },
      "formatted_address": "No 60 Kafin Gana Gabas Birnin Kudu, #, Nigeria",
      "google_map_url": "https://maps.google.com?q=11.4500522,9.474975299999999",
      "google_place_id": "ChIJDccv5BGXqxERnIV-qm1Izy0"
    }
  },
  {
    "id": "67373",
    "name": "KAFIN GANA YAMMA KAFIN GANA YAMMA",
    "registration_area_id": "3680",
    "precise_location": null,
    "abbreviation": "024",
    "units": "024",
    "delimitation": "17/03/03/024",
    "remark": "EXISTING PU",
    "ward_id": "3680",
    "ward_name": "KANTOGA",
    "local_government_id": "322",
    "local_government_name": "BIRNIN KUDU",
    "state_id": "17",
    "state_name": "JIGAWA",
    "location": null
  },
  {
    "id": "67374",
    "name": "GATARI / KWADAGE GATARI",
    "registration_area_id": "3680",
    "precise_location": null,
    "abbreviation": "025",
    "units": "025",
    "delimitation": "17/03/03/025",
    "remark": "EXISTING PU",
    "ward_id": "3680",
    "ward_name": "KANTOGA",
    "local_government_id": "322",
    "local_government_name": "BIRNIN KUDU",
    "state_id": "17",
    "state_name": "JIGAWA",
    "location": {
      "latitude": 11.498785,
      "longitude": 9.339784,
      "viewport": {
        "northeast": {
          "lat": 11.50011637989272,
          "lng": 9.341130079892721
        },
        "southwest": {
          "lat": 11.49741672010728,
          "lng": 9.338430420107278
        }
      },
      "formatted_address": "F8XQ+GW7, 721101, Warwade, Nigeria",
      "google_map_url": "https://maps.google.com?q=11.498785,9.339784",
      "google_place_id": "ChIJUavSp7yNqxERsnpfiooapT0"
    }
  },
  {
    "id": "67375",
    "name": "HALIMBE / HALIMBE",
    "registration_area_id": "3680",
    "precise_location": null,
    "abbreviation": "026",
    "units": "026",
    "delimitation": "17/03/03/026",
    "remark": "EXISTING PU",
    "ward_id": "3680",
    "ward_name": "KANTOGA",
    "local_government_id": "322",
    "local_government_name": "BIRNIN KUDU",
    "state_id": "17",
    "state_name": "JIGAWA",
    "location": {
      "latitude": 11.5167211,
      "longitude": 9.4097166,
      "viewport": {
        "northeast": {
          "lat": 11.5276542,
          "lng": 9.425723999999999
        },
        "southwest": {
          "lat": 11.5057875,
          "lng": 9.3937092
        }
      },
      "formatted_address": "Halimbe Public Well, 721101, Nigeria",
      "google_map_url": "https://maps.google.com?q=11.5167211,9.4097166",
      "google_place_id": "ChIJ9WINpv2SqxER5oESyxjcH50"
    }
  },
  {
    "id": "67376",
    "name": "RUDA / RUDA",
    "registration_area_id": "3680",
    "precise_location": null,
    "abbreviation": "027",
    "units": "027",
    "delimitation": "17/03/03/027",
    "remark": "EXISTING PU",
    "ward_id": "3680",
    "ward_name": "KANTOGA",
    "local_government_id": "322",
    "local_government_name": "BIRNIN KUDU",
    "state_id": "17",
    "state_name": "JIGAWA",
    "location": {
      "latitude": 11.5056389,
      "longitude": 9.500614299999999,
      "viewport": {
        "northeast": {
          "lat": 11.7294111,
          "lng": 9.6651218
        },
        "southwest": {
          "lat": 11.2519725,
          "lng": 9.1921255
        }
      },
      "formatted_address": "Birnin Kudu, Nigeria",
      "google_map_url": "https://maps.google.com?q=11.5056389,9.500614299999999",
      "google_place_id": "ChIJ8RRqrL6TqxERNmwuQqqp9HE"
    }
  },
  {
    "id": "67377",
    "name": "TSOHUWAR KANTOGA",
    "registration_area_id": "3680",
    "precise_location": null,
    "abbreviation": "028",
    "units": "028",
    "delimitation": "17/03/03/028",
    "remark": "EXISTING PU",
    "ward_id": "3680",
    "ward_name": "KANTOGA",
    "local_government_id": "322",
    "local_government_name": "BIRNIN KUDU",
    "state_id": "17",
    "state_name": "JIGAWA",
    "location": {
      "latitude": 11.4983698,
      "longitude": 9.378409000000001,
      "viewport": {
        "northeast": {
          "lat": 11.5610554,
          "lng": 9.453916
        },
        "southwest": {
          "lat": 11.4079915,
          "lng": 9.298589999999999
        }
      },
      "formatted_address": "Kantoga, 721101, Nigeria",
      "google_map_url": "https://maps.google.com?q=11.4983698,9.378409000000001",
      "google_place_id": "ChIJJ4TIBw2SqxERsb0ynJ39wUs"
    }
  },
  {
    "id": "67378",
    "name": "KANTOGA SENIOR SEC. SCH.  II",
    "registration_area_id": "3680",
    "precise_location": null,
    "abbreviation": "029",
    "units": "029",
    "delimitation": "17/03/03/029",
    "remark": "NEW PU",
    "ward_id": "3680",
    "ward_name": "KANTOGA",
    "local_government_id": "322",
    "local_government_name": "BIRNIN KUDU",
    "state_id": "17",
    "state_name": "JIGAWA",
    "location": {
      "latitude": 11.4527074,
      "longitude": 9.491808299999999,
      "viewport": {
        "northeast": {
          "lat": 11.45407972989272,
          "lng": 9.493194729892723
        },
        "southwest": {
          "lat": 11.45138007010728,
          "lng": 9.49049507010728
        }
      },
      "formatted_address": "FF3R+3PM, zazika road, 721101, Birnin Kudu, Nigeria",
      "google_map_url": "https://maps.google.com?q=11.4527074,9.491808299999999",
      "google_place_id": "ChIJ9cIhai2XqxERgQATvWo0ADA"
    }
  },
  {
    "id": "67379",
    "name": "WARWADE PRI. SCH.  II",
    "registration_area_id": "3680",
    "precise_location": null,
    "abbreviation": "030",
    "units": "030",
    "delimitation": "17/03/03/030",
    "remark": "NEW PU",
    "ward_id": "3680",
    "ward_name": "KANTOGA",
    "local_government_id": "322",
    "local_government_name": "BIRNIN KUDU",
    "state_id": "17",
    "state_name": "JIGAWA",
    "location": {
      "latitude": 11.495922,
      "longitude": 9.3779075,
      "viewport": {
        "northeast": {
          "lat": 11.49721142989272,
          "lng": 9.379179329892722
        },
        "southwest": {
          "lat": 11.49451177010728,
          "lng": 9.376479670107278
        }
      },
      "formatted_address": "F9WH+957, 721101, Warwade, Nigeria",
      "google_map_url": "https://maps.google.com?q=11.495922,9.3779075",
      "google_place_id": "ChIJd3CvKHCSqxERHnF1vpVoTiE"
    }
  },
  {
    "id": "67380",
    "name": "KAFIN GANA PRI. SCH. II",
    "registration_area_id": "3680",
    "precise_location": null,
    "abbreviation": "031",
    "units": "031",
    "delimitation": "17/03/03/031",
    "remark": "NEW PU",
    "ward_id": "3680",
    "ward_name": "KANTOGA",
    "local_government_id": "322",
    "local_government_name": "BIRNIN KUDU",
    "state_id": "17",
    "state_name": "JIGAWA",
    "location": {
      "latitude": 11.5206998,
      "longitude": 9.358011699999999,
      "viewport": {
        "northeast": {
          "lat": 11.52193627989272,
          "lng": 9.359333429892722
        },
        "southwest": {
          "lat": 11.51923662010728,
          "lng": 9.356633770107278
        }
      },
      "formatted_address": "G9C5+76C, 721101, Warwade, Nigeria",
      "google_map_url": "https://maps.google.com?q=11.5206998,9.358011699999999",
      "google_place_id": "ChIJo1LoxXqNqxERFwT-5v0OZ2s"
    }
  },
  {
    "id": "67381",
    "name": "KAFIN GANA JUNIOR SEC. SCH. II",
    "registration_area_id": "3680",
    "precise_location": null,
    "abbreviation": "032",
    "units": "032",
    "delimitation": "17/03/03/032",
    "remark": "NEW PU",
    "ward_id": "3680",
    "ward_name": "KANTOGA",
    "local_government_id": "322",
    "local_government_name": "BIRNIN KUDU",
    "state_id": "17",
    "state_name": "JIGAWA",
    "location": {
      "latitude": 11.4527074,
      "longitude": 9.491808299999999,
      "viewport": {
        "northeast": {
          "lat": 11.45407972989272,
          "lng": 9.493194729892723
        },
        "southwest": {
          "lat": 11.45138007010728,
          "lng": 9.49049507010728
        }
      },
      "formatted_address": "FF3R+3PM, zazika road, 721101, Birnin Kudu, Nigeria",
      "google_map_url": "https://maps.google.com?q=11.4527074,9.491808299999999",
      "google_place_id": "ChIJ9cIhai2XqxERgQATvWo0ADA"
    }
  }
]