[
  {
    "id": "29167",
    "name": "ECHORI I - PLAY GROUND",
    "registration_area_id": "1551",
    "precise_location": null,
    "abbreviation": "001",
    "units": "001",
    "delimitation": "07/14/10/001",
    "remark": "EXISTING PU",
    "ward_id": "1551",
    "ward_name": "OKPOKWU",
    "local_government_id": "132",
    "local_government_name": "OBI",
    "state_id": "7",
    "state_name": "BENUE",
    "location": {
      "latitude": 7.1542248,
      "longitude": 7.799955199999999,
      "viewport": {
        "northeast": {
          "lat": 7.155391929892723,
          "lng": 7.801302879892723
        },
        "southwest": {
          "lat": 7.152692270107279,
          "lng": 7.798603220107279
        }
      },
      "formatted_address": "OBI LGA OF #BENUE STATE, behind PILOT SCHOOL, OBARILE 973104, Ito, Nigeria",
      "google_map_url": "https://maps.google.com?q=7.1542248,7.799955199999999",
      "google_place_id": "ChIJlbkOn1LTWhAR_Dyzqm5RILU"
    }
  },
  {
    "id": "29168",
    "name": "ECHORI II - PLAY GROUND",
    "registration_area_id": "1551",
    "precise_location": null,
    "abbreviation": "002",
    "units": "002",
    "delimitation": "07/14/10/002",
    "remark": "EXISTING PU",
    "ward_id": "1551",
    "ward_name": "OKPOKWU",
    "local_government_id": "132",
    "local_government_name": "OBI",
    "state_id": "7",
    "state_name": "BENUE",
    "location": {
      "latitude": 7.1542248,
      "longitude": 7.799955199999999,
      "viewport": {
        "northeast": {
          "lat": 7.155391929892723,
          "lng": 7.801302879892723
        },
        "southwest": {
          "lat": 7.152692270107279,
          "lng": 7.798603220107279
        }
      },
      "formatted_address": "OBI LGA OF #BENUE STATE, behind PILOT SCHOOL, OBARILE 973104, Ito, Nigeria",
      "google_map_url": "https://maps.google.com?q=7.1542248,7.799955199999999",
      "google_place_id": "ChIJlbkOn1LTWhAR_Dyzqm5RILU"
    }
  },
  {
    "id": "29169",
    "name": "ITAKPA IHIO MARKET SQUARE I",
    "registration_area_id": "1551",
    "precise_location": null,
    "abbreviation": "003",
    "units": "003",
    "delimitation": "07/14/10/003",
    "remark": "EXISTING PU",
    "ward_id": "1551",
    "ward_name": "OKPOKWU",
    "local_government_id": "132",
    "local_government_name": "OBI",
    "state_id": "7",
    "state_name": "BENUE",
    "location": {
      "latitude": 6.9072453,
      "longitude": 7.7892191,
      "viewport": {
        "northeast": {
          "lat": 6.908627679892721,
          "lng": 7.790494329892721
        },
        "southwest": {
          "lat": 6.905928020107277,
          "lng": 7.787794670107277
        }
      },
      "formatted_address": "WQ4Q+VMX, 973102, Ichama, Nigeria",
      "google_map_url": "https://maps.google.com?q=6.9072453,7.7892191",
      "google_place_id": "ChIJjar4ZGstWxARr_XCnpUW1Ws"
    }
  },
  {
    "id": "29170",
    "name": "ITAKPA PRIMARY SCHOOL -  II",
    "registration_area_id": "1551",
    "precise_location": null,
    "abbreviation": "004",
    "units": "004",
    "delimitation": "07/14/10/004",
    "remark": "EXISTING PU",
    "ward_id": "1551",
    "ward_name": "OKPOKWU",
    "local_government_id": "132",
    "local_government_name": "OBI",
    "state_id": "7",
    "state_name": "BENUE",
    "location": {
      "latitude": 7.0505486,
      "longitude": 8.2114391,
      "viewport": {
        "northeast": {
          "lat": 7.051922029892722,
          "lng": 8.212811779892723
        },
        "southwest": {
          "lat": 7.049222370107278,
          "lng": 8.21011212010728
        }
      },
      "formatted_address": "6FVC3626+6HW Itakpa Okpokwu obi, Ameke, Nigeria",
      "google_map_url": "https://maps.google.com?q=7.0505486,8.2114391",
      "google_place_id": "ChIJTygOAGjhWhARqST2VDcLmuU"
    }
  },
  {
    "id": "29171",
    "name": "OKPOKWU OPP. ST. MARKS CHURCH - I",
    "registration_area_id": "1551",
    "precise_location": null,
    "abbreviation": "005",
    "units": "005",
    "delimitation": "07/14/10/005",
    "remark": "EXISTING PU",
    "ward_id": "1551",
    "ward_name": "OKPOKWU",
    "local_government_id": "132",
    "local_government_name": "OBI",
    "state_id": "7",
    "state_name": "BENUE",
    "location": {
      "latitude": 43.4169324,
      "longitude": -80.5346923,
      "viewport": {
        "northeast": {
          "lat": 43.41827317989273,
          "lng": -80.53318552010728
        },
        "southwest": {
          "lat": 43.41557352010728,
          "lng": -80.53588517989273
        }
      },
      "formatted_address": "55 Driftwood Dr, Kitchener, ON N2N 3A2, Canada",
      "google_map_url": "https://maps.google.com?q=43.4169324,-80.5346923",
      "google_place_id": "ChIJ-0rEet31K4gRW3mnHs6080c"
    }
  },
  {
    "id": "29172",
    "name": "OKPOKWU PLAY GROUND - II",
    "registration_area_id": "1551",
    "precise_location": null,
    "abbreviation": "006",
    "units": "006",
    "delimitation": "07/14/10/006",
    "remark": "EXISTING PU",
    "ward_id": "1551",
    "ward_name": "OKPOKWU",
    "local_government_id": "132",
    "local_government_name": "OBI",
    "state_id": "7",
    "state_name": "BENUE",
    "location": null
  },
  {
    "id": "29173",
    "name": "MARKET SQUARE  ANYEJE",
    "registration_area_id": "1551",
    "precise_location": null,
    "abbreviation": "007",
    "units": "007",
    "delimitation": "07/14/10/007",
    "remark": "NEW PU",
    "ward_id": "1551",
    "ward_name": "OKPOKWU",
    "local_government_id": "132",
    "local_government_name": "OBI",
    "state_id": "7",
    "state_name": "BENUE",
    "location": {
      "latitude": 6.9072453,
      "longitude": 7.7892191,
      "viewport": {
        "northeast": {
          "lat": 6.908627679892721,
          "lng": 7.790494329892721
        },
        "southwest": {
          "lat": 6.905928020107277,
          "lng": 7.787794670107277
        }
      },
      "formatted_address": "WQ4Q+VMX, 973102, Ichama, Nigeria",
      "google_map_url": "https://maps.google.com?q=6.9072453,7.7892191",
      "google_place_id": "ChIJjar4ZGstWxARr_XCnpUW1Ws"
    }
  },
  {
    "id": "29174",
    "name": "LGEA PRIMARY SCHOOL OBINE",
    "registration_area_id": "1551",
    "precise_location": null,
    "abbreviation": "008",
    "units": "008",
    "delimitation": "07/14/10/008",
    "remark": "NEW PU",
    "ward_id": "1551",
    "ward_name": "OKPOKWU",
    "local_government_id": "132",
    "local_government_name": "OBI",
    "state_id": "7",
    "state_name": "BENUE",
    "location": {
      "latitude": 6.997364999999999,
      "longitude": 7.855391,
      "viewport": {
        "northeast": {
          "lat": 6.998740229892721,
          "lng": 7.856688129892721
        },
        "southwest": {
          "lat": 6.996040570107278,
          "lng": 7.853988470107277
        }
      },
      "formatted_address": "XVW4+W5R, 973104, Okpoga, Nigeria",
      "google_map_url": "https://maps.google.com?q=6.997364999999999,7.855391",
      "google_place_id": "ChIJuz6SgzkqWxARuUAU8O3X4-0"
    }
  },
  {
    "id": "29175",
    "name": "PLAYGROUND ITAKPA",
    "registration_area_id": "1551",
    "precise_location": null,
    "abbreviation": "009",
    "units": "009",
    "delimitation": "07/14/10/009",
    "remark": "NEW PU",
    "ward_id": "1551",
    "ward_name": "OKPOKWU",
    "local_government_id": "132",
    "local_government_name": "OBI",
    "state_id": "7",
    "state_name": "BENUE",
    "location": {
      "latitude": 7.195645300000001,
      "longitude": 8.1447852,
      "viewport": {
        "northeast": {
          "lat": 7.196995129892723,
          "lng": 8.146135029892724
        },
        "southwest": {
          "lat": 7.19429547010728,
          "lng": 8.14343537010728
        }
      },
      "formatted_address": "54WV+7W3, Ibadan St, 972261, Otukpo, Nigeria",
      "google_map_url": "https://maps.google.com?q=7.195645300000001,8.1447852",
      "google_place_id": "ChIJr9XAcojpWhARFXMRjJ1-70E"
    }
  },
  {
    "id": "29176",
    "name": "PLAYGROUND UGBOGWU",
    "registration_area_id": "1551",
    "precise_location": null,
    "abbreviation": "010",
    "units": "010",
    "delimitation": "07/14/10/010",
    "remark": "NEW PU",
    "ward_id": "1551",
    "ward_name": "OKPOKWU",
    "local_government_id": "132",
    "local_government_name": "OBI",
    "state_id": "7",
    "state_name": "BENUE",
    "location": {
      "latitude": 7.1145948,
      "longitude": 7.81788,
      "viewport": {
        "northeast": {
          "lat": 7.115616429892722,
          "lng": 7.818940079892721
        },
        "southwest": {
          "lat": 7.112916770107278,
          "lng": 7.816240420107277
        }
      },
      "formatted_address": "4R79+R56, 973106, Okwogo, Nigeria",
      "google_map_url": "https://maps.google.com?q=7.1145948,7.81788",
      "google_place_id": "ChIJE5XxNH3TWhARzhKuCOpF31c"
    }
  },
  {
    "id": "29177",
    "name": "UBE OKPOKWU",
    "registration_area_id": "1551",
    "precise_location": null,
    "abbreviation": "011",
    "units": "011",
    "delimitation": "07/14/10/011",
    "remark": "NEW PU",
    "ward_id": "1551",
    "ward_name": "OKPOKWU",
    "local_government_id": "132",
    "local_government_name": "OBI",
    "state_id": "7",
    "state_name": "BENUE",
    "location": {
      "latitude": 6.905228699999999,
      "longitude": 7.788291800000001,
      "viewport": {
        "northeast": {
          "lat": 6.906605479892721,
          "lng": 7.789731729892721
        },
        "southwest": {
          "lat": 6.903905820107277,
          "lng": 7.787032070107277
        }
      },
      "formatted_address": "II okpokwu Benue, 6FR9WQ4Q+37C Ichama Center, Ichama, Nigeria",
      "google_map_url": "https://maps.google.com?q=6.905228699999999,7.788291800000001",
      "google_place_id": "ChIJu51IE1ctWxAR7FSKZGOWuOk"
    }
  },
  {
    "id": "29178",
    "name": "OKPOKWU EVENING MARKET",
    "registration_area_id": "1551",
    "precise_location": null,
    "abbreviation": "012",
    "units": "012",
    "delimitation": "07/14/10/012",
    "remark": "NEW PU",
    "ward_id": "1551",
    "ward_name": "OKPOKWU",
    "local_government_id": "132",
    "local_government_name": "OBI",
    "state_id": "7",
    "state_name": "BENUE",
    "location": {
      "latitude": 6.907072299999999,
      "longitude": 7.788049300000001,
      "viewport": {
        "northeast": {
          "lat": 6.908461329892722,
          "lng": 7.789402479892722
        },
        "southwest": {
          "lat": 6.905761670107278,
          "lng": 7.786702820107278
        }
      },
      "formatted_address": "ICHAMA MARKET SQUARE OKPOKWU LGA, Nigeria",
      "google_map_url": "https://maps.google.com?q=6.907072299999999,7.788049300000001",
      "google_place_id": "ChIJmTnSgGItWxAR3-C1hOInbmo"
    }
  }
]