[
  {
    "id": "112367",
    "name": "19, OKO-OBA ROAD",
    "registration_area_id": "5855",
    "precise_location": null,
    "abbreviation": "001",
    "units": "001",
    "delimitation": "24/01/09/001",
    "remark": "EXISTING PU",
    "ward_id": "5855",
    "ward_name": "TABON TABON/OKO OBA",
    "local_government_id": "506",
    "local_government_name": "AGEGE",
    "state_id": "24",
    "state_name": "LAGOS",
    "location": {
      "latitude": 6.6341288,
      "longitude": 3.3119762,
      "viewport": {
        "northeast": {
          "lat": 6.635502979892722,
          "lng": 3.313189329892722
        },
        "southwest": {
          "lat": 6.632803320107278,
          "lng": 3.310489670107278
        }
      },
      "formatted_address": "19 Oko-Oba Rd, Agege 102212, Lagos, Nigeria",
      "google_map_url": "https://maps.google.com?q=6.6341288,3.3119762",
      "google_place_id": "ChIJk5IpTTyROxARjMVQPNT_Bjg"
    }
  },
  {
    "id": "112368",
    "name": "OKO-OBA RD./DORCAS MOROLAHUN JUNCTION",
    "registration_area_id": "5855",
    "precise_location": null,
    "abbreviation": "002",
    "units": "002",
    "delimitation": "24/01/09/002",
    "remark": "EXISTING PU",
    "ward_id": "5855",
    "ward_name": "TABON TABON/OKO OBA",
    "local_government_id": "506",
    "local_government_name": "AGEGE",
    "state_id": "24",
    "state_name": "LAGOS",
    "location": {
      "latitude": 6.6380365,
      "longitude": 3.3129029,
      "viewport": {
        "northeast": {
          "lat": 6.639370929892721,
          "lng": 3.314197679892723
        },
        "southwest": {
          "lat": 6.636671270107278,
          "lng": 3.311498020107278
        }
      },
      "formatted_address": "71 Oko-Oba Rd, Agege 102212, Lagos, Nigeria",
      "google_map_url": "https://maps.google.com?q=6.6380365,3.3129029",
      "google_place_id": "ChIJd52RpeuROxARl8q919kP9uY"
    }
  },
  {
    "id": "112369",
    "name": "6, OLANREWAJU STREET I",
    "registration_area_id": "5855",
    "precise_location": null,
    "abbreviation": "003",
    "units": "003",
    "delimitation": "24/01/09/003",
    "remark": "EXISTING PU",
    "ward_id": "5855",
    "ward_name": "TABON TABON/OKO OBA",
    "local_government_id": "506",
    "local_government_name": "AGEGE",
    "state_id": "24",
    "state_name": "LAGOS",
    "location": {
      "latitude": 6.633391,
      "longitude": 3.3159345,
      "viewport": {
        "northeast": {
          "lat": 6.634840829892722,
          "lng": 3.317273929892723
        },
        "southwest": {
          "lat": 6.632141170107278,
          "lng": 3.314574270107278
        }
      },
      "formatted_address": "6 Olanrewaju St, Agege 102212, Lagos, Nigeria",
      "google_map_url": "https://maps.google.com?q=6.633391,3.3159345",
      "google_place_id": "ChIJGf77TT6ROxARr5gdaR2z9xA"
    }
  },
  {
    "id": "112370",
    "name": "6, OLANREWAJU STREET II",
    "registration_area_id": "5855",
    "precise_location": null,
    "abbreviation": "004",
    "units": "004",
    "delimitation": "24/01/09/004",
    "remark": "EXISTING PU",
    "ward_id": "5855",
    "ward_name": "TABON TABON/OKO OBA",
    "local_government_id": "506",
    "local_government_name": "AGEGE",
    "state_id": "24",
    "state_name": "LAGOS",
    "location": {
      "latitude": 6.633391,
      "longitude": 3.3159345,
      "viewport": {
        "northeast": {
          "lat": 6.634840829892722,
          "lng": 3.317273929892723
        },
        "southwest": {
          "lat": 6.632141170107278,
          "lng": 3.314574270107278
        }
      },
      "formatted_address": "6 Olanrewaju St, Agege 102212, Lagos, Nigeria",
      "google_map_url": "https://maps.google.com?q=6.633391,3.3159345",
      "google_place_id": "ChIJGf77TT6ROxARr5gdaR2z9xA"
    }
  },
  {
    "id": "112371",
    "name": "51, POWERLINE I",
    "registration_area_id": "5855",
    "precise_location": null,
    "abbreviation": "005",
    "units": "005",
    "delimitation": "24/01/09/005",
    "remark": "EXISTING PU",
    "ward_id": "5855",
    "ward_name": "TABON TABON/OKO OBA",
    "local_government_id": "506",
    "local_government_name": "AGEGE",
    "state_id": "24",
    "state_name": "LAGOS",
    "location": {
      "latitude": 6.6340613,
      "longitude": 3.311166,
      "viewport": {
        "northeast": {
          "lat": 6.635321429892721,
          "lng": 3.312529429892722
        },
        "southwest": {
          "lat": 6.632621770107277,
          "lng": 3.309829770107278
        }
      },
      "formatted_address": "51 Powerline Rd, Agege 102212, Lagos, Nigeria",
      "google_map_url": "https://maps.google.com?q=6.6340613,3.311166",
      "google_place_id": "Ei01MSBQb3dlcmxpbmUgUmQsIEFnZWdlIDEwMjIxMiwgTGFnb3MsIE5pZ2VyaWEiMBIuChQKEgkLxpKqPZE7EBE8a7oas7c49xAzKhQKEglreYGsPZE7EBFB9md-fRKbdg"
    }
  },
  {
    "id": "112372",
    "name": "51, POWERLINE II",
    "registration_area_id": "5855",
    "precise_location": null,
    "abbreviation": "006",
    "units": "006",
    "delimitation": "24/01/09/006",
    "remark": "EXISTING PU",
    "ward_id": "5855",
    "ward_name": "TABON TABON/OKO OBA",
    "local_government_id": "506",
    "local_government_name": "AGEGE",
    "state_id": "24",
    "state_name": "LAGOS",
    "location": {
      "latitude": 6.6340613,
      "longitude": 3.311166,
      "viewport": {
        "northeast": {
          "lat": 6.635321429892721,
          "lng": 3.312529429892722
        },
        "southwest": {
          "lat": 6.632621770107277,
          "lng": 3.309829770107278
        }
      },
      "formatted_address": "51 Powerline Rd, Agege 102212, Lagos, Nigeria",
      "google_map_url": "https://maps.google.com?q=6.6340613,3.311166",
      "google_place_id": "Ei01MSBQb3dlcmxpbmUgUmQsIEFnZWdlIDEwMjIxMiwgTGFnb3MsIE5pZ2VyaWEiMBIuChQKEgkLxpKqPZE7EBE8a7oas7c49xAzKhQKEglreYGsPZE7EBFB9md-fRKbdg"
    }
  },
  {
    "id": "112373",
    "name": "51, POWERLINE III",
    "registration_area_id": "5855",
    "precise_location": null,
    "abbreviation": "007",
    "units": "007",
    "delimitation": "24/01/09/007",
    "remark": "EXISTING PU",
    "ward_id": "5855",
    "ward_name": "TABON TABON/OKO OBA",
    "local_government_id": "506",
    "local_government_name": "AGEGE",
    "state_id": "24",
    "state_name": "LAGOS",
    "location": {
      "latitude": 6.6340613,
      "longitude": 3.311166,
      "viewport": {
        "northeast": {
          "lat": 6.635321429892721,
          "lng": 3.312529429892722
        },
        "southwest": {
          "lat": 6.632621770107277,
          "lng": 3.309829770107278
        }
      },
      "formatted_address": "51 Powerline Rd, Agege 102212, Lagos, Nigeria",
      "google_map_url": "https://maps.google.com?q=6.6340613,3.311166",
      "google_place_id": "Ei01MSBQb3dlcmxpbmUgUmQsIEFnZWdlIDEwMjIxMiwgTGFnb3MsIE5pZ2VyaWEiMBIuChQKEgkLxpKqPZE7EBE8a7oas7c49xAzKhQKEglreYGsPZE7EBFB9md-fRKbdg"
    }
  },
  {
    "id": "112374",
    "name": "8, AKINLEYE STREET",
    "registration_area_id": "5855",
    "precise_location": null,
    "abbreviation": "008",
    "units": "008",
    "delimitation": "24/01/09/008",
    "remark": "EXISTING PU",
    "ward_id": "5855",
    "ward_name": "TABON TABON/OKO OBA",
    "local_government_id": "506",
    "local_government_name": "AGEGE",
    "state_id": "24",
    "state_name": "LAGOS",
    "location": {
      "latitude": 6.6327672,
      "longitude": 3.3144435,
      "viewport": {
        "northeast": {
          "lat": 6.634063579892721,
          "lng": 3.315779779892722
        },
        "southwest": {
          "lat": 6.631363920107277,
          "lng": 3.313080120107278
        }
      },
      "formatted_address": "8 Akinleye St, Agege 102212, Lagos, Nigeria",
      "google_map_url": "https://maps.google.com?q=6.6327672,3.3144435",
      "google_place_id": "ChIJgZkzbT6ROxARUVTcrgvB6ac"
    }
  },
  {
    "id": "112375",
    "name": "6, AKINLEYE STREET",
    "registration_area_id": "5855",
    "precise_location": null,
    "abbreviation": "009",
    "units": "009",
    "delimitation": "24/01/09/009",
    "remark": "EXISTING PU",
    "ward_id": "5855",
    "ward_name": "TABON TABON/OKO OBA",
    "local_government_id": "506",
    "local_government_name": "AGEGE",
    "state_id": "24",
    "state_name": "LAGOS",
    "location": {
      "latitude": 6.6328787,
      "longitude": 3.3146168,
      "viewport": {
        "northeast": {
          "lat": 6.634102279892722,
          "lng": 3.315934579892722
        },
        "southwest": {
          "lat": 6.631402620107278,
          "lng": 3.313234920107277
        }
      },
      "formatted_address": "6 Akinleye St, Agege 102212, Lagos, Nigeria",
      "google_map_url": "https://maps.google.com?q=6.6328787,3.3146168",
      "google_place_id": "ChIJlSqFbD6ROxAR0TdJaQ-UzRQ"
    }
  },
  {
    "id": "112376",
    "name": "24, AJAYI-IBE STREET",
    "registration_area_id": "5855",
    "precise_location": null,
    "abbreviation": "010",
    "units": "010",
    "delimitation": "24/01/09/010",
    "remark": "EXISTING PU",
    "ward_id": "5855",
    "ward_name": "TABON TABON/OKO OBA",
    "local_government_id": "506",
    "local_government_name": "AGEGE",
    "state_id": "24",
    "state_name": "LAGOS",
    "location": {
      "latitude": 6.6336705,
      "longitude": 3.3147808,
      "viewport": {
        "northeast": {
          "lat": 6.634928229892722,
          "lng": 3.316139629892722
        },
        "southwest": {
          "lat": 6.632228570107278,
          "lng": 3.313439970107277
        }
      },
      "formatted_address": "24 Ajayi Ibe St, Agege 102212, Lagos, Nigeria",
      "google_map_url": "https://maps.google.com?q=6.6336705,3.3147808",
      "google_place_id": "ChIJpWPdZj6ROxARvoiHNqviL4Q"
    }
  },
  {
    "id": "112377",
    "name": "BESIDE NATIONAL PETROL STATION TABON-TABON",
    "registration_area_id": "5855",
    "precise_location": null,
    "abbreviation": "011",
    "units": "011",
    "delimitation": "24/01/09/011",
    "remark": "EXISTING PU",
    "ward_id": "5855",
    "ward_name": "TABON TABON/OKO OBA",
    "local_government_id": "506",
    "local_government_name": "AGEGE",
    "state_id": "24",
    "state_name": "LAGOS",
    "location": {
      "latitude": 6.639065899999999,
      "longitude": 3.3129181,
      "viewport": {
        "northeast": {
          "lat": 6.640411029892721,
          "lng": 3.314202179892722
        },
        "southwest": {
          "lat": 6.637711370107278,
          "lng": 3.311502520107278
        }
      },
      "formatted_address": "22 Oko-Oba Rd, Agege 102212, Lagos, Nigeria",
      "google_map_url": "https://maps.google.com?q=6.639065899999999,3.3129181",
      "google_place_id": "ChIJlbmztP-ROxAR4vhPEjGwYY8"
    }
  },
  {
    "id": "112378",
    "name": "METHODIST PRIMARY SCHOOL I",
    "registration_area_id": "5855",
    "precise_location": null,
    "abbreviation": "012",
    "units": "012",
    "delimitation": "24/01/09/012",
    "remark": "EXISTING PU",
    "ward_id": "5855",
    "ward_name": "TABON TABON/OKO OBA",
    "local_government_id": "506",
    "local_government_name": "AGEGE",
    "state_id": "24",
    "state_name": "LAGOS",
    "location": {
      "latitude": 6.631408,
      "longitude": 3.3190136,
      "viewport": {
        "northeast": {
          "lat": 6.632674729892722,
          "lng": 3.320366779892722
        },
        "southwest": {
          "lat": 6.629975070107278,
          "lng": 3.317667120107278
        }
      },
      "formatted_address": "J8J9+HJ6, Agege 102212, Lagos, Nigeria",
      "google_map_url": "https://maps.google.com?q=6.631408,3.3190136",
      "google_place_id": "ChIJhTO8bXOROxARTZVcs7QxUWw"
    }
  },
  {
    "id": "112379",
    "name": "METHODIST PRIMARY SCHOOL II",
    "registration_area_id": "5855",
    "precise_location": null,
    "abbreviation": "013",
    "units": "013",
    "delimitation": "24/01/09/013",
    "remark": "EXISTING PU",
    "ward_id": "5855",
    "ward_name": "TABON TABON/OKO OBA",
    "local_government_id": "506",
    "local_government_name": "AGEGE",
    "state_id": "24",
    "state_name": "LAGOS",
    "location": {
      "latitude": 6.631408,
      "longitude": 3.3190136,
      "viewport": {
        "northeast": {
          "lat": 6.632674729892722,
          "lng": 3.320366779892722
        },
        "southwest": {
          "lat": 6.629975070107278,
          "lng": 3.317667120107278
        }
      },
      "formatted_address": "J8J9+HJ6, Agege 102212, Lagos, Nigeria",
      "google_map_url": "https://maps.google.com?q=6.631408,3.3190136",
      "google_place_id": "ChIJhTO8bXOROxARTZVcs7QxUWw"
    }
  },
  {
    "id": "112380",
    "name": "8, ORILE ROAD",
    "registration_area_id": "5855",
    "precise_location": null,
    "abbreviation": "014",
    "units": "014",
    "delimitation": "24/01/09/014",
    "remark": "EXISTING PU",
    "ward_id": "5855",
    "ward_name": "TABON TABON/OKO OBA",
    "local_government_id": "506",
    "local_government_name": "AGEGE",
    "state_id": "24",
    "state_name": "LAGOS",
    "location": {
      "latitude": 6.6315741,
      "longitude": 3.3196321,
      "viewport": {
        "northeast": {
          "lat": 6.632796779892721,
          "lng": 3.321017829892722
        },
        "southwest": {
          "lat": 6.630097120107277,
          "lng": 3.318318170107278
        }
      },
      "formatted_address": "8 Orile Rd, Agege 102212, Lagos, Nigeria",
      "google_map_url": "https://maps.google.com?q=6.6315741,3.3196321",
      "google_place_id": "ChIJX67WHUCROxARBp534JPYlSo"
    }
  },
  {
    "id": "112381",
    "name": "56, ORILE ROAD",
    "registration_area_id": "5855",
    "precise_location": null,
    "abbreviation": "015",
    "units": "015",
    "delimitation": "24/01/09/015",
    "remark": "EXISTING PU",
    "ward_id": "5855",
    "ward_name": "TABON TABON/OKO OBA",
    "local_government_id": "506",
    "local_government_name": "AGEGE",
    "state_id": "24",
    "state_name": "LAGOS",
    "location": {
      "latitude": 6.6312033,
      "longitude": 3.3155424,
      "viewport": {
        "northeast": {
          "lat": 6.632476629892722,
          "lng": 3.316872329892722
        },
        "southwest": {
          "lat": 6.629776970107278,
          "lng": 3.314172670107277
        }
      },
      "formatted_address": "56 Orile Rd, Agege 102212, Lagos, Nigeria",
      "google_map_url": "https://maps.google.com?q=6.6312033,3.3155424",
      "google_place_id": "Eik1NiBPcmlsZSBSZCwgQWdlZ2UgMTAyMjEyLCBMYWdvcywgTmlnZXJpYSIwEi4KFAoSCZsvnIsVkTsQEZ9FjYqzS6uoEDgqFAoSCa2cdiw-kTsQEVi1Dd_xi28o"
    }
  },
  {
    "id": "112382",
    "name": "5, ADEBOLA STREET",
    "registration_area_id": "5855",
    "precise_location": null,
    "abbreviation": "016",
    "units": "016",
    "delimitation": "24/01/09/016",
    "remark": "EXISTING PU",
    "ward_id": "5855",
    "ward_name": "TABON TABON/OKO OBA",
    "local_government_id": "506",
    "local_government_name": "AGEGE",
    "state_id": "24",
    "state_name": "LAGOS",
    "location": {
      "latitude": 6.632150999999999,
      "longitude": 3.3143611,
      "viewport": {
        "northeast": {
          "lat": 6.633498629892721,
          "lng": 3.315607279892722
        },
        "southwest": {
          "lat": 6.630798970107278,
          "lng": 3.312907620107277
        }
      },
      "formatted_address": "5 Adebola St, Agege 102212, Lagos, Nigeria",
      "google_map_url": "https://maps.google.com?q=6.632150999999999,3.3143611",
      "google_place_id": "ChIJo1geED6ROxARcY3fryZrCJE"
    }
  },
  {
    "id": "112383",
    "name": "5, ITOGBE STREET",
    "registration_area_id": "5855",
    "precise_location": null,
    "abbreviation": "017",
    "units": "017",
    "delimitation": "24/01/09/017",
    "remark": "EXISTING PU",
    "ward_id": "5855",
    "ward_name": "TABON TABON/OKO OBA",
    "local_government_id": "506",
    "local_government_name": "AGEGE",
    "state_id": "24",
    "state_name": "LAGOS",
    "location": {
      "latitude": 6.6320147,
      "longitude": 3.3160525,
      "viewport": {
        "northeast": {
          "lat": 6.633190229892722,
          "lng": 3.317391929892723
        },
        "southwest": {
          "lat": 6.630490570107278,
          "lng": 3.314692270107278
        }
      },
      "formatted_address": "3/5 Itogbe St, Agege 102212, Lagos, Nigeria",
      "google_map_url": "https://maps.google.com?q=6.6320147,3.3160525",
      "google_place_id": "ChIJI-qHMj6ROxARfVbx9r1P7oQ"
    }
  },
  {
    "id": "112384",
    "name": "44, ITOGBE STREET",
    "registration_area_id": "5855",
    "precise_location": null,
    "abbreviation": "018",
    "units": "018",
    "delimitation": "24/01/09/018",
    "remark": "EXISTING PU",
    "ward_id": "5855",
    "ward_name": "TABON TABON/OKO OBA",
    "local_government_id": "506",
    "local_government_name": "AGEGE",
    "state_id": "24",
    "state_name": "LAGOS",
    "location": {
      "latitude": 6.632284599999999,
      "longitude": 3.3123939,
      "viewport": {
        "northeast": {
          "lat": 6.633708829892721,
          "lng": 3.313751679892722
        },
        "southwest": {
          "lat": 6.631009170107277,
          "lng": 3.311052020107278
        }
      },
      "formatted_address": "44 Itogbe St, Agege 102212, Lagos, Nigeria",
      "google_map_url": "https://maps.google.com?q=6.632284599999999,3.3123939",
      "google_place_id": "Eio0NCBJdG9nYmUgU3QsIEFnZWdlIDEwMjIxMiwgTGFnb3MsIE5pZ2VyaWEiMBIuChQKEgk1Q32TPZE7EBHIekXljljzwRAsKhQKEgmRLrHiPZE7EBEQMKTvAkiScw"
    }
  },
  {
    "id": "112385",
    "name": "42, ITOGBE STREET",
    "registration_area_id": "5855",
    "precise_location": null,
    "abbreviation": "019",
    "units": "019",
    "delimitation": "24/01/09/019",
    "remark": "EXISTING PU",
    "ward_id": "5855",
    "ward_name": "TABON TABON/OKO OBA",
    "local_government_id": "506",
    "local_government_name": "AGEGE",
    "state_id": "24",
    "state_name": "LAGOS",
    "location": {
      "latitude": 6.6320695,
      "longitude": 3.3126068,
      "viewport": {
        "northeast": {
          "lat": 6.633402379892722,
          "lng": 3.314031529892723
        },
        "southwest": {
          "lat": 6.630702720107277,
          "lng": 3.311331870107278
        }
      },
      "formatted_address": "42 Itogbe St, Agege 102212, Lagos, Nigeria",
      "google_map_url": "https://maps.google.com?q=6.6320695,3.3126068",
      "google_place_id": "ChIJtXWH8j2ROxARMEcWmUaHPag"
    }
  },
  {
    "id": "112386",
    "name": "9, AINA-AKERA STREET",
    "registration_area_id": "5855",
    "precise_location": null,
    "abbreviation": "020",
    "units": "020",
    "delimitation": "24/01/09/020",
    "remark": "EXISTING PU",
    "ward_id": "5855",
    "ward_name": "TABON TABON/OKO OBA",
    "local_government_id": "506",
    "local_government_name": "AGEGE",
    "state_id": "24",
    "state_name": "LAGOS",
    "location": {
      "latitude": 6.632885900000001,
      "longitude": 3.3153435,
      "viewport": {
        "northeast": {
          "lat": 6.634235729892723,
          "lng": 3.316693329892722
        },
        "southwest": {
          "lat": 6.631536070107279,
          "lng": 3.313993670107278
        }
      },
      "formatted_address": "9 Aina Akera St, Agege 102212, Lagos, Nigeria",
      "google_map_url": "https://maps.google.com?q=6.632885900000001,3.3153435",
      "google_place_id": "Ei05IEFpbmEgQWtlcmEgU3QsIEFnZWdlIDEwMjIxMiwgTGFnb3MsIE5pZ2VyaWEiMBIuChQKEgnXYuo4PpE7EBFbC3gjMs_xbBAJKhQKEgkpSEMZPpE7EBHV-WqfK3Ez2w"
    }
  },
  {
    "id": "112387",
    "name": "7, AINA-AKERA STREET",
    "registration_area_id": "5855",
    "precise_location": null,
    "abbreviation": "021",
    "units": "021",
    "delimitation": "24/01/09/021",
    "remark": "EXISTING PU",
    "ward_id": "5855",
    "ward_name": "TABON TABON/OKO OBA",
    "local_government_id": "506",
    "local_government_name": "AGEGE",
    "state_id": "24",
    "state_name": "LAGOS",
    "location": {
      "latitude": 6.6327265,
      "longitude": 3.3152039,
      "viewport": {
        "northeast": {
          "lat": 6.634076529892721,
          "lng": 3.316624479892722
        },
        "southwest": {
          "lat": 6.631376870107277,
          "lng": 3.313924820107277
        }
      },
      "formatted_address": "7 Aina Akera St, Agege 102212, Lagos, Nigeria",
      "google_map_url": "https://maps.google.com?q=6.6327265,3.3152039",
      "google_place_id": "Ei03IEFpbmEgQWtlcmEgU3QsIEFnZWdlIDEwMjIxMiwgTGFnb3MsIE5pZ2VyaWEiMBIuChQKEgnXYuo4PpE7EBFbC3gjMs_xbBAHKhQKEgkpSEMZPpE7EBHV-WqfK3Ez2w"
    }
  },
  {
    "id": "112388",
    "name": "1, IFELOJU STREET",
    "registration_area_id": "5855",
    "precise_location": null,
    "abbreviation": "022",
    "units": "022",
    "delimitation": "24/01/09/022",
    "remark": "EXISTING PU",
    "ward_id": "5855",
    "ward_name": "TABON TABON/OKO OBA",
    "local_government_id": "506",
    "local_government_name": "AGEGE",
    "state_id": "24",
    "state_name": "LAGOS",
    "location": {
      "latitude": 6.635281699999999,
      "longitude": 3.3127582,
      "viewport": {
        "northeast": {
          "lat": 6.636743229892722,
          "lng": 3.314112279892723
        },
        "southwest": {
          "lat": 6.634043570107278,
          "lng": 3.311412620107278
        }
      },
      "formatted_address": "1 Ifeloju St, Agege 102212, Lagos, Nigeria",
      "google_map_url": "https://maps.google.com?q=6.635281699999999,3.3127582",
      "google_place_id": "ChIJRx_5PTyROxAR5MxSBRDcOB0"
    }
  },
  {
    "id": "112389",
    "name": "3, IFELOJU STREET",
    "registration_area_id": "5855",
    "precise_location": null,
    "abbreviation": "023",
    "units": "023",
    "delimitation": "24/01/09/023",
    "remark": "EXISTING PU",
    "ward_id": "5855",
    "ward_name": "TABON TABON/OKO OBA",
    "local_government_id": "506",
    "local_government_name": "AGEGE",
    "state_id": "24",
    "state_name": "LAGOS",
    "location": {
      "latitude": 6.6353286,
      "longitude": 3.3129058,
      "viewport": {
        "northeast": {
          "lat": 6.636765579892722,
          "lng": 3.314255079892722
        },
        "southwest": {
          "lat": 6.634065920107277,
          "lng": 3.311555420107278
        }
      },
      "formatted_address": "3 Ifeloju St, Agege 102212, Lagos, Nigeria",
      "google_map_url": "https://maps.google.com?q=6.6353286,3.3129058",
      "google_place_id": "ChIJefeqPTyROxARcZJ4dMTl72Y"
    }
  },
  {
    "id": "112390",
    "name": "40, IFELOJU STREET",
    "registration_area_id": "5855",
    "precise_location": null,
    "abbreviation": "024",
    "units": "024",
    "delimitation": "24/01/09/024",
    "remark": "EXISTING PU",
    "ward_id": "5855",
    "ward_name": "TABON TABON/OKO OBA",
    "local_government_id": "506",
    "local_government_name": "AGEGE",
    "state_id": "24",
    "state_name": "LAGOS",
    "location": {
      "latitude": 6.6358115,
      "longitude": 3.3155018,
      "viewport": {
        "northeast": {
          "lat": 6.637091129892722,
          "lng": 3.316840629892722
        },
        "southwest": {
          "lat": 6.634391470107278,
          "lng": 3.314140970107277
        }
      },
      "formatted_address": "40 Ifeloju St, Agege 102212, Lagos, Nigeria",
      "google_map_url": "https://maps.google.com?q=6.6358115,3.3155018",
      "google_place_id": "ChIJ03aUxD6ROxARHhN3Ke0fWmQ"
    }
  },
  {
    "id": "112391",
    "name": "12, SANYAOLU STREET",
    "registration_area_id": "5855",
    "precise_location": null,
    "abbreviation": "025",
    "units": "025",
    "delimitation": "24/01/09/025",
    "remark": "EXISTING PU",
    "ward_id": "5855",
    "ward_name": "TABON TABON/OKO OBA",
    "local_government_id": "506",
    "local_government_name": "AGEGE",
    "state_id": "24",
    "state_name": "LAGOS",
    "location": {
      "latitude": 6.6367677,
      "longitude": 3.3153766,
      "viewport": {
        "northeast": {
          "lat": 6.638199879892722,
          "lng": 3.316717979892722
        },
        "southwest": {
          "lat": 6.635500220107279,
          "lng": 3.314018320107278
        }
      },
      "formatted_address": "12 Sanyaolu St, Agege 102212, Lagos, Nigeria",
      "google_map_url": "https://maps.google.com?q=6.6367677,3.3153766",
      "google_place_id": "ChIJFbIBMzmROxARtZhhPrxNI4Q"
    }
  },
  {
    "id": "112392",
    "name": "35, JAMES-OKIKI STREET",
    "registration_area_id": "5855",
    "precise_location": null,
    "abbreviation": "026",
    "units": "026",
    "delimitation": "24/01/09/026",
    "remark": "EXISTING PU",
    "ward_id": "5855",
    "ward_name": "TABON TABON/OKO OBA",
    "local_government_id": "506",
    "local_government_name": "AGEGE",
    "state_id": "24",
    "state_name": "LAGOS",
    "location": {
      "latitude": 6.6355737,
      "longitude": 3.3178267,
      "viewport": {
        "northeast": {
          "lat": 6.636954229892723,
          "lng": 3.319277079892723
        },
        "southwest": {
          "lat": 6.634254570107279,
          "lng": 3.316577420107278
        }
      },
      "formatted_address": "35 James Okiki St, Agege 102212, Lagos, Nigeria",
      "google_map_url": "https://maps.google.com?q=6.6355737,3.3178267",
      "google_place_id": "ChIJRWzTQz-ROxAR9bNZxM3xx0E"
    }
  },
  {
    "id": "112393",
    "name": "33, JAMES-OKIKE STREET",
    "registration_area_id": "5855",
    "precise_location": null,
    "abbreviation": "027",
    "units": "027",
    "delimitation": "24/01/09/027",
    "remark": "EXISTING PU",
    "ward_id": "5855",
    "ward_name": "TABON TABON/OKO OBA",
    "local_government_id": "506",
    "local_government_name": "AGEGE",
    "state_id": "24",
    "state_name": "LAGOS",
    "location": null
  },
  {
    "id": "112394",
    "name": "13, ADEMOLU STREET",
    "registration_area_id": "5855",
    "precise_location": null,
    "abbreviation": "028",
    "units": "028",
    "delimitation": "24/01/09/028",
    "remark": "EXISTING PU",
    "ward_id": "5855",
    "ward_name": "TABON TABON/OKO OBA",
    "local_government_id": "506",
    "local_government_name": "AGEGE",
    "state_id": "24",
    "state_name": "LAGOS",
    "location": {
      "latitude": 6.6357202,
      "longitude": 3.3174473,
      "viewport": {
        "northeast": {
          "lat": 6.637064679892723,
          "lng": 3.318747229892722
        },
        "southwest": {
          "lat": 6.634365020107279,
          "lng": 3.316047570107278
        }
      },
      "formatted_address": "13 Ademolu St, Agege 102212, Lagos, Nigeria",
      "google_map_url": "https://maps.google.com?q=6.6357202,3.3174473",
      "google_place_id": "ChIJSxdKPz-ROxARcllFuGwDPMg"
    }
  },
  {
    "id": "112395",
    "name": "15, ADEMOLUSTREET",
    "registration_area_id": "5855",
    "precise_location": null,
    "abbreviation": "029",
    "units": "029",
    "delimitation": "24/01/09/029",
    "remark": "EXISTING PU",
    "ward_id": "5855",
    "ward_name": "TABON TABON/OKO OBA",
    "local_government_id": "506",
    "local_government_name": "AGEGE",
    "state_id": "24",
    "state_name": "LAGOS",
    "location": {
      "latitude": 6.630588299999999,
      "longitude": 3.3205259,
      "viewport": {
        "northeast": {
          "lat": 6.631940679892721,
          "lng": 3.321833679892723
        },
        "southwest": {
          "lat": 6.629241020107277,
          "lng": 3.319134020107278
        }
      },
      "formatted_address": "Tabontabon, 3/5 Dahunsi Street, Lagos, Nigeria",
      "google_map_url": "https://maps.google.com?q=6.630588299999999,3.3205259",
      "google_place_id": "ChIJIyRWkGqROxARZ3mqLJul8mY"
    }
  },
  {
    "id": "112396",
    "name": "1, AKINPELU STREET",
    "registration_area_id": "5855",
    "precise_location": null,
    "abbreviation": "030",
    "units": "030",
    "delimitation": "24/01/09/030",
    "remark": "EXISTING PU",
    "ward_id": "5855",
    "ward_name": "TABON TABON/OKO OBA",
    "local_government_id": "506",
    "local_government_name": "AGEGE",
    "state_id": "24",
    "state_name": "LAGOS",
    "location": {
      "latitude": 6.6357699,
      "longitude": 3.313748,
      "viewport": {
        "northeast": {
          "lat": 6.637119729892722,
          "lng": 3.315097829892722
        },
        "southwest": {
          "lat": 6.634420070107278,
          "lng": 3.312398170107278
        }
      },
      "formatted_address": "1 Akinpelu St, Agege 102212, Lagos, Nigeria",
      "google_map_url": "https://maps.google.com?q=6.6357699,3.313748",
      "google_place_id": "EisxIEFraW5wZWx1IFN0LCBBZ2VnZSAxMDIyMTIsIExhZ29zLCBOaWdlcmlhIjASLgoUChIJ_T1PqD6ROxARMcDulsc7-QsQASoUChIJQ7Q_qD6ROxARJ36M3MVLKgU"
    }
  },
  {
    "id": "112397",
    "name": "2, OLADEJO STREET",
    "registration_area_id": "5855",
    "precise_location": null,
    "abbreviation": "031",
    "units": "031",
    "delimitation": "24/01/09/031",
    "remark": "EXISTING PU",
    "ward_id": "5855",
    "ward_name": "TABON TABON/OKO OBA",
    "local_government_id": "506",
    "local_government_name": "AGEGE",
    "state_id": "24",
    "state_name": "LAGOS",
    "location": {
      "latitude": 6.6371297,
      "longitude": 3.3139448,
      "viewport": {
        "northeast": {
          "lat": 6.638505629892722,
          "lng": 3.315293979892722
        },
        "southwest": {
          "lat": 6.635805970107278,
          "lng": 3.312594320107277
        }
      },
      "formatted_address": "2 Oladejo St, Agege 102212, Lagos, Nigeria",
      "google_map_url": "https://maps.google.com?q=6.6371297,3.3139448",
      "google_place_id": "ChIJNROYVjmROxARA52KwU-rdUg"
    }
  },
  {
    "id": "112398",
    "name": "DORCAS-MOROLAHUN/EMMANUEL JUNCTION",
    "registration_area_id": "5855",
    "precise_location": null,
    "abbreviation": "032",
    "units": "032",
    "delimitation": "24/01/09/032",
    "remark": "EXISTING PU",
    "ward_id": "5855",
    "ward_name": "TABON TABON/OKO OBA",
    "local_government_id": "506",
    "local_government_name": "AGEGE",
    "state_id": "24",
    "state_name": "LAGOS",
    "location": {
      "latitude": 6.6380365,
      "longitude": 3.3129029,
      "viewport": {
        "northeast": {
          "lat": 6.639370929892721,
          "lng": 3.314197679892723
        },
        "southwest": {
          "lat": 6.636671270107278,
          "lng": 3.311498020107278
        }
      },
      "formatted_address": "71 Oko-Oba Rd, Agege 102212, Lagos, Nigeria",
      "google_map_url": "https://maps.google.com?q=6.6380365,3.3129029",
      "google_place_id": "ChIJd52RpeuROxARl8q919kP9uY"
    }
  },
  {
    "id": "112399",
    "name": "13, AFUWAPE STREET",
    "registration_area_id": "5855",
    "precise_location": null,
    "abbreviation": "033",
    "units": "033",
    "delimitation": "24/01/09/033",
    "remark": "EXISTING PU",
    "ward_id": "5855",
    "ward_name": "TABON TABON/OKO OBA",
    "local_government_id": "506",
    "local_government_name": "AGEGE",
    "state_id": "24",
    "state_name": "LAGOS",
    "location": {
      "latitude": 6.6358526,
      "longitude": 3.3165116,
      "viewport": {
        "northeast": {
          "lat": 6.637214479892722,
          "lng": 3.317960579892723
        },
        "southwest": {
          "lat": 6.634514820107278,
          "lng": 3.315260920107278
        }
      },
      "formatted_address": "13 Afuwape St, Agege 102212, Lagos, Nigeria",
      "google_map_url": "https://maps.google.com?q=6.6358526,3.3165116",
      "google_place_id": "ChIJ9UaaJj-ROxARhGa3G_KUS68"
    }
  },
  {
    "id": "112400",
    "name": "18, OLADEHINDE STREET",
    "registration_area_id": "5855",
    "precise_location": null,
    "abbreviation": "034",
    "units": "034",
    "delimitation": "24/01/09/034",
    "remark": "EXISTING PU",
    "ward_id": "5855",
    "ward_name": "TABON TABON/OKO OBA",
    "local_government_id": "506",
    "local_government_name": "AGEGE",
    "state_id": "24",
    "state_name": "LAGOS",
    "location": {
      "latitude": 6.5622178,
      "longitude": 3.3313342,
      "viewport": {
        "northeast": {
          "lat": 6.563576529892722,
          "lng": 3.332727579892722
        },
        "southwest": {
          "lat": 6.560876870107278,
          "lng": 3.330027920107277
        }
      },
      "formatted_address": "18 Oladehinde St, Mafoluku Oshodi 102214, Lagos, Nigeria",
      "google_map_url": "https://maps.google.com?q=6.5622178,3.3313342",
      "google_place_id": "ChIJpwRifwOOOxAR9gdodLT7q-o"
    }
  },
  {
    "id": "112401",
    "name": "9, MUSILI STREET",
    "registration_area_id": "5855",
    "precise_location": null,
    "abbreviation": "035",
    "units": "035",
    "delimitation": "24/01/09/035",
    "remark": "EXISTING PU",
    "ward_id": "5855",
    "ward_name": "TABON TABON/OKO OBA",
    "local_government_id": "506",
    "local_government_name": "AGEGE",
    "state_id": "24",
    "state_name": "LAGOS",
    "location": {
      "latitude": 6.6350546,
      "longitude": 3.3133581,
      "viewport": {
        "northeast": {
          "lat": 6.636332779892721,
          "lng": 3.314715629892722
        },
        "southwest": {
          "lat": 6.633633120107278,
          "lng": 3.312015970107277
        }
      },
      "formatted_address": "9 Musili St, Agege 102212, Lagos, Nigeria",
      "google_map_url": "https://maps.google.com?q=6.6350546,3.3133581",
      "google_place_id": "ChIJz4oEJDyROxARBn2-OkJrZFo"
    }
  },
  {
    "id": "112402",
    "name": "11, MUSILI STREET",
    "registration_area_id": "5855",
    "precise_location": null,
    "abbreviation": "036",
    "units": "036",
    "delimitation": "24/01/09/036",
    "remark": "EXISTING PU",
    "ward_id": "5855",
    "ward_name": "TABON TABON/OKO OBA",
    "local_government_id": "506",
    "local_government_name": "AGEGE",
    "state_id": "24",
    "state_name": "LAGOS",
    "location": {
      "latitude": 6.6349809,
      "longitude": 3.3134663,
      "viewport": {
        "northeast": {
          "lat": 6.636303429892722,
          "lng": 3.314819379892723
        },
        "southwest": {
          "lat": 6.633603770107278,
          "lng": 3.312119720107278
        }
      },
      "formatted_address": "11 Musili St, Agege 102212, Lagos, Nigeria",
      "google_map_url": "https://maps.google.com?q=6.6349809,3.3134663",
      "google_place_id": "ChIJjZ-TJjyROxAR5T6wiQQX52E"
    }
  },
  {
    "id": "112403",
    "name": "YOMI-OYENUGA/JOLAOSO STREET",
    "registration_area_id": "5855",
    "precise_location": null,
    "abbreviation": "037",
    "units": "037",
    "delimitation": "24/01/09/037",
    "remark": "EXISTING PU",
    "ward_id": "5855",
    "ward_name": "TABON TABON/OKO OBA",
    "local_government_id": "506",
    "local_government_name": "AGEGE",
    "state_id": "24",
    "state_name": "LAGOS",
    "location": {
      "latitude": 6.6357572,
      "longitude": 3.3159063,
      "viewport": {
        "northeast": {
          "lat": 6.637126279892721,
          "lng": 3.317267329892723
        },
        "southwest": {
          "lat": 6.634426620107277,
          "lng": 3.314567670107278
        }
      },
      "formatted_address": "46 Ifeloju St, Agege 102212, Lagos, Nigeria",
      "google_map_url": "https://maps.google.com?q=6.6357572,3.3159063",
      "google_place_id": "ChIJkT7KEFqROxARwypKk9qmE4c"
    }
  },
  {
    "id": "112404",
    "name": "23, TEMIDIRE STREET",
    "registration_area_id": "5855",
    "precise_location": null,
    "abbreviation": "038",
    "units": "038",
    "delimitation": "24/01/09/038",
    "remark": "EXISTING PU",
    "ward_id": "5855",
    "ward_name": "TABON TABON/OKO OBA",
    "local_government_id": "506",
    "local_government_name": "AGEGE",
    "state_id": "24",
    "state_name": "LAGOS",
    "location": {
      "latitude": 6.6402972,
      "longitude": 3.3147378,
      "viewport": {
        "northeast": {
          "lat": 6.641646879892721,
          "lng": 3.316135729892722
        },
        "southwest": {
          "lat": 6.638947220107277,
          "lng": 3.313436070107278
        }
      },
      "formatted_address": "23 Temidire St, Agege 102212, Lagos, Nigeria",
      "google_map_url": "https://maps.google.com?q=6.6402972,3.3147378",
      "google_place_id": "ChIJWzroljmROxARxzPx54ToxlA"
    }
  },
  {
    "id": "112405",
    "name": "9, ADEBOHUN STREET",
    "registration_area_id": "5855",
    "precise_location": null,
    "abbreviation": "039",
    "units": "039",
    "delimitation": "24/01/09/039",
    "remark": "EXISTING PU",
    "ward_id": "5855",
    "ward_name": "TABON TABON/OKO OBA",
    "local_government_id": "506",
    "local_government_name": "AGEGE",
    "state_id": "24",
    "state_name": "LAGOS",
    "location": {
      "latitude": 6.630588299999999,
      "longitude": 3.3205259,
      "viewport": {
        "northeast": {
          "lat": 6.631940679892721,
          "lng": 3.321833679892723
        },
        "southwest": {
          "lat": 6.629241020107277,
          "lng": 3.319134020107278
        }
      },
      "formatted_address": "Tabontabon, 3/5 Dahunsi Street, Lagos, Nigeria",
      "google_map_url": "https://maps.google.com?q=6.630588299999999,3.3205259",
      "google_place_id": "ChIJIyRWkGqROxARZ3mqLJul8mY"
    }
  },
  {
    "id": "112406",
    "name": "55, LADOJE STREET",
    "registration_area_id": "5855",
    "precise_location": null,
    "abbreviation": "040",
    "units": "040",
    "delimitation": "24/01/09/040",
    "remark": "EXISTING PU",
    "ward_id": "5855",
    "ward_name": "TABON TABON/OKO OBA",
    "local_government_id": "506",
    "local_government_name": "AGEGE",
    "state_id": "24",
    "state_name": "LAGOS",
    "location": {
      "latitude": 6.643502199999999,
      "longitude": 3.309065,
      "viewport": {
        "northeast": {
          "lat": 6.644856929892722,
          "lng": 3.310434479892722
        },
        "southwest": {
          "lat": 6.642157270107278,
          "lng": 3.307734820107278
        }
      },
      "formatted_address": "Labak Estate, Oko-Oba Rd, Agege 102212, Lagos, Nigeria",
      "google_map_url": "https://maps.google.com?q=6.643502199999999,3.309065",
      "google_place_id": "ChIJ-eVEZaOROxARiY-dydzwYg0"
    }
  },
  {
    "id": "112407",
    "name": "16, ISIAKA-OKOSUN STREET",
    "registration_area_id": "5855",
    "precise_location": null,
    "abbreviation": "041",
    "units": "041",
    "delimitation": "24/01/09/041",
    "remark": "EXISTING PU",
    "ward_id": "5855",
    "ward_name": "TABON TABON/OKO OBA",
    "local_government_id": "506",
    "local_government_name": "AGEGE",
    "state_id": "24",
    "state_name": "LAGOS",
    "location": {
      "latitude": 6.6397102,
      "longitude": 3.3153248,
      "viewport": {
        "northeast": {
          "lat": 6.641063079892722,
          "lng": 3.316742679892722
        },
        "southwest": {
          "lat": 6.638363420107278,
          "lng": 3.314043020107277
        }
      },
      "formatted_address": "16 Isiaka St, Agege 102212, Lagos, Nigeria",
      "google_map_url": "https://maps.google.com?q=6.6397102,3.3153248",
      "google_place_id": "ChIJD0appjmROxARlZ9MH99OaPI"
    }
  },
  {
    "id": "112408",
    "name": "45, ESUOLA STREET",
    "registration_area_id": "5855",
    "precise_location": null,
    "abbreviation": "042",
    "units": "042",
    "delimitation": "24/01/09/042",
    "remark": "EXISTING PU",
    "ward_id": "5855",
    "ward_name": "TABON TABON/OKO OBA",
    "local_government_id": "506",
    "local_government_name": "AGEGE",
    "state_id": "24",
    "state_name": "LAGOS",
    "location": {
      "latitude": 6.6409878,
      "longitude": 3.3145972,
      "viewport": {
        "northeast": {
          "lat": 6.642256279892722,
          "lng": 3.315936729892722
        },
        "southwest": {
          "lat": 6.639556620107278,
          "lng": 3.313237070107277
        }
      },
      "formatted_address": "45 Esuola St, Agege 102212, Lagos, Nigeria",
      "google_map_url": "https://maps.google.com?q=6.6409878,3.3145972",
      "google_place_id": "Eio0NSBFc3VvbGEgU3QsIEFnZWdlIDEwMjIxMiwgTGFnb3MsIE5pZ2VyaWEiMBIuChQKEgkb-cLyOZE7EBGHfyd6uygjExAtKhQKEgkxFz7zOZE7EBECUvdbk-85Xg"
    }
  },
  {
    "id": "112409",
    "name": "18, MABAYOJE STREET",
    "registration_area_id": "5855",
    "precise_location": null,
    "abbreviation": "043",
    "units": "043",
    "delimitation": "24/01/09/043",
    "remark": "EXISTING PU",
    "ward_id": "5855",
    "ward_name": "TABON TABON/OKO OBA",
    "local_government_id": "506",
    "local_government_name": "AGEGE",
    "state_id": "24",
    "state_name": "LAGOS",
    "location": {
      "latitude": 6.6385497,
      "longitude": 3.3141944,
      "viewport": {
        "northeast": {
          "lat": 6.639899529892721,
          "lng": 3.315544229892723
        },
        "southwest": {
          "lat": 6.637199870107278,
          "lng": 3.312844570107278
        }
      },
      "formatted_address": "18 Mabayoje St, Agege 102212, Lagos, Nigeria",
      "google_map_url": "https://maps.google.com?q=6.6385497,3.3141944",
      "google_place_id": "EiwxOCBNYWJheW9qZSBTdCwgQWdlZ2UgMTAyMjEyLCBMYWdvcywgTmlnZXJpYSIwEi4KFAoSCXvPTmQ5kTsQEbDBZyZ0aHMXEBIqFAoSCWNYhWU5kTsQER4GgNUPM61l"
    }
  },
  {
    "id": "112410",
    "name": "15, LADIPO STREET",
    "registration_area_id": "5855",
    "precise_location": null,
    "abbreviation": "044",
    "units": "044",
    "delimitation": "24/01/09/044",
    "remark": "EXISTING PU",
    "ward_id": "5855",
    "ward_name": "TABON TABON/OKO OBA",
    "local_government_id": "506",
    "local_government_name": "AGEGE",
    "state_id": "24",
    "state_name": "LAGOS",
    "location": {
      "latitude": 6.6146122,
      "longitude": 3.3436491,
      "viewport": {
        "northeast": {
          "lat": 6.61608427989272,
          "lng": 3.345011729892722
        },
        "southwest": {
          "lat": 6.613384620107277,
          "lng": 3.342312070107277
        }
      },
      "formatted_address": "15 Ladipo Oluwole St, Ogba 101233, Ikeja, Nigeria",
      "google_map_url": "https://maps.google.com?q=6.6146122,3.3436491",
      "google_place_id": "EjExNSBMYWRpcG8gT2x1d29sZSBTdCwgT2diYSAxMDEyMzMsIElrZWphLCBOaWdlcmlhIjASLgoUChIJsXe4-NOTOxARWa8hzB7tHfoQDyoUChIJ6-qN0NWTOxAR9uyH-Jkc0_k"
    }
  },
  {
    "id": "112411",
    "name": "1, ALAFIA STREET",
    "registration_area_id": "5855",
    "precise_location": null,
    "abbreviation": "045",
    "units": "045",
    "delimitation": "24/01/09/045",
    "remark": "EXISTING PU",
    "ward_id": "5855",
    "ward_name": "TABON TABON/OKO OBA",
    "local_government_id": "506",
    "local_government_name": "AGEGE",
    "state_id": "24",
    "state_name": "LAGOS",
    "location": {
      "latitude": 6.640347999999999,
      "longitude": 3.3158618,
      "viewport": {
        "northeast": {
          "lat": 6.641709329892722,
          "lng": 3.317294579892722
        },
        "southwest": {
          "lat": 6.639009670107278,
          "lng": 3.314594920107278
        }
      },
      "formatted_address": "1 Alafia St, Agege 102212, Lagos, Nigeria",
      "google_map_url": "https://maps.google.com?q=6.640347999999999,3.3158618",
      "google_place_id": "EikxIEFsYWZpYSBTdCwgQWdlZ2UgMTAyMjEyLCBMYWdvcywgTmlnZXJpYSIwEi4KFAoSCcneV7I5kTsQEUtyR0rCzmDKEAEqFAoSCcveV7I5kTsQEYvnCDoLH7oI"
    }
  },
  {
    "id": "112412",
    "name": "29 OKO-OBA ROAD",
    "registration_area_id": "5855",
    "precise_location": null,
    "abbreviation": "046",
    "units": "046",
    "delimitation": "24/01/09/046",
    "remark": "NEW PU",
    "ward_id": "5855",
    "ward_name": "TABON TABON/OKO OBA",
    "local_government_id": "506",
    "local_government_name": "AGEGE",
    "state_id": "24",
    "state_name": "LAGOS",
    "location": {
      "latitude": 6.6348325,
      "longitude": 3.3122765,
      "viewport": {
        "northeast": {
          "lat": 6.636245979892722,
          "lng": 3.313537529892722
        },
        "southwest": {
          "lat": 6.633546320107278,
          "lng": 3.310837870107278
        }
      },
      "formatted_address": "29 Oko-Oba Rd, Agege 102212, Lagos, Nigeria",
      "google_map_url": "https://maps.google.com?q=6.6348325,3.3122765",
      "google_place_id": "ChIJ-0c4RjyROxARPOJM0Q8Mm7U"
    }
  },
  {
    "id": "112413",
    "name": "41 DORCAS MOROLAHUN",
    "registration_area_id": "5855",
    "precise_location": null,
    "abbreviation": "047",
    "units": "047",
    "delimitation": "24/01/09/047",
    "remark": "NEW PU",
    "ward_id": "5855",
    "ward_name": "TABON TABON/OKO OBA",
    "local_government_id": "506",
    "local_government_name": "AGEGE",
    "state_id": "24",
    "state_name": "LAGOS",
    "location": {
      "latitude": 6.638069799999999,
      "longitude": 3.3133631,
      "viewport": {
        "northeast": {
          "lat": 6.639375679892722,
          "lng": 3.314710779892723
        },
        "southwest": {
          "lat": 6.636676020107278,
          "lng": 3.312011120107278
        }
      },
      "formatted_address": "41 Dorcas Morolahun St, Agege 102212, Lagos, Nigeria",
      "google_map_url": "https://maps.google.com?q=6.638069799999999,3.3133631",
      "google_place_id": "ChIJL2tQ5zuROxARNQ40uK-s6sg"
    }
  },
  {
    "id": "112414",
    "name": "19 POWERLINE",
    "registration_area_id": "5855",
    "precise_location": null,
    "abbreviation": "048",
    "units": "048",
    "delimitation": "24/01/09/048",
    "remark": "NEW PU",
    "ward_id": "5855",
    "ward_name": "TABON TABON/OKO OBA",
    "local_government_id": "506",
    "local_government_name": "AGEGE",
    "state_id": "24",
    "state_name": "LAGOS",
    "location": {
      "latitude": 6.6344705,
      "longitude": 3.3144352,
      "viewport": {
        "northeast": {
          "lat": 6.635680779892723,
          "lng": 3.315785029892722
        },
        "southwest": {
          "lat": 6.632981120107279,
          "lng": 3.313085370107277
        }
      },
      "formatted_address": "19 Powerline Rd, Agege 102212, Lagos, Nigeria",
      "google_map_url": "https://maps.google.com?q=6.6344705,3.3144352",
      "google_place_id": "ChIJb5Y5jz6ROxARv7QozoJA5RY"
    }
  },
  {
    "id": "112415",
    "name": "13 BAALE STREET",
    "registration_area_id": "5855",
    "precise_location": null,
    "abbreviation": "049",
    "units": "049",
    "delimitation": "24/01/09/049",
    "remark": "NEW PU",
    "ward_id": "5855",
    "ward_name": "TABON TABON/OKO OBA",
    "local_government_id": "506",
    "local_government_name": "AGEGE",
    "state_id": "24",
    "state_name": "LAGOS",
    "location": {
      "latitude": 6.6463535,
      "longitude": 3.3612985,
      "viewport": {
        "northeast": {
          "lat": 6.647797279892721,
          "lng": 3.362646479892722
        },
        "southwest": {
          "lat": 6.645097620107277,
          "lng": 3.359946820107278
        }
      },
      "formatted_address": "13 Baale St, Ojodu 101233, Ojodu, Nigeria",
      "google_map_url": "https://maps.google.com?q=6.6463535,3.3612985",
      "google_place_id": "ChIJ0yHGiIyTOxARlfRdkPThve0"
    }
  },
  {
    "id": "112416",
    "name": "WILLIAMS ESTATE",
    "registration_area_id": "5855",
    "precise_location": null,
    "abbreviation": "050",
    "units": "050",
    "delimitation": "24/01/09/050",
    "remark": "NEW PU",
    "ward_id": "5855",
    "ward_name": "TABON TABON/OKO OBA",
    "local_government_id": "506",
    "local_government_name": "AGEGE",
    "state_id": "24",
    "state_name": "LAGOS",
    "location": {
      "latitude": 6.634516000000001,
      "longitude": 3.3187433,
      "viewport": {
        "northeast": {
          "lat": 6.635865829892722,
          "lng": 3.320093129892722
        },
        "southwest": {
          "lat": 6.633166170107279,
          "lng": 3.317393470107278
        }
      },
      "formatted_address": "Williams Est, Agege 102212, Lagos, Nigeria",
      "google_map_url": "https://maps.google.com?q=6.634516000000001,3.3187433",
      "google_place_id": "ChIJZ1ZLjUCROxAR21FrLemHZkE"
    }
  },
  {
    "id": "112417",
    "name": "10 OWOLEWA STR",
    "registration_area_id": "5855",
    "precise_location": null,
    "abbreviation": "051",
    "units": "051",
    "delimitation": "24/01/09/051",
    "remark": "NEW PU",
    "ward_id": "5855",
    "ward_name": "TABON TABON/OKO OBA",
    "local_government_id": "506",
    "local_government_name": "AGEGE",
    "state_id": "24",
    "state_name": "LAGOS",
    "location": {
      "latitude": 6.632376799999999,
      "longitude": 3.3180193,
      "viewport": {
        "northeast": {
          "lat": 6.633770779892721,
          "lng": 3.319381479892722
        },
        "southwest": {
          "lat": 6.631071120107277,
          "lng": 3.316681820107278
        }
      },
      "formatted_address": "10 Owolewa St, Agege 102212, Lagos, Nigeria",
      "google_map_url": "https://maps.google.com?q=6.632376799999999,3.3180193",
      "google_place_id": "ChIJL0d37j-ROxARVV9YrVvd1CE"
    }
  },
  {
    "id": "112418",
    "name": "14 ORILE ROAD",
    "registration_area_id": "5855",
    "precise_location": null,
    "abbreviation": "052",
    "units": "052",
    "delimitation": "24/01/09/052",
    "remark": "NEW PU",
    "ward_id": "5855",
    "ward_name": "TABON TABON/OKO OBA",
    "local_government_id": "506",
    "local_government_name": "AGEGE",
    "state_id": "24",
    "state_name": "LAGOS",
    "location": {
      "latitude": 6.631291,
      "longitude": 3.318334,
      "viewport": {
        "northeast": {
          "lat": 6.632578429892723,
          "lng": 3.319693979892722
        },
        "southwest": {
          "lat": 6.629878770107279,
          "lng": 3.316994320107278
        }
      },
      "formatted_address": "14 Orile Rd, Agege 102212, Lagos, Nigeria",
      "google_map_url": "https://maps.google.com?q=6.631291,3.318334",
      "google_place_id": "ChIJ2Us_VhWROxARl51D54X4mi8"
    }
  },
  {
    "id": "112419",
    "name": "72 ORILE ROAD",
    "registration_area_id": "5855",
    "precise_location": null,
    "abbreviation": "053",
    "units": "053",
    "delimitation": "24/01/09/053",
    "remark": "NEW PU",
    "ward_id": "5855",
    "ward_name": "TABON TABON/OKO OBA",
    "local_government_id": "506",
    "local_government_name": "AGEGE",
    "state_id": "24",
    "state_name": "LAGOS",
    "location": {
      "latitude": 6.631653999999999,
      "longitude": 3.3138891,
      "viewport": {
        "northeast": {
          "lat": 6.632927429892722,
          "lng": 3.315225679892722
        },
        "southwest": {
          "lat": 6.630227770107278,
          "lng": 3.312526020107278
        }
      },
      "formatted_address": "72 Orile Rd, Agege 102212, Lagos, Nigeria",
      "google_map_url": "https://maps.google.com?q=6.631653999999999,3.3138891",
      "google_place_id": "ChIJ8zDgAD6ROxAR6pSIME-dLOU"
    }
  },
  {
    "id": "112420",
    "name": "IFELOJU / OSHODI STREET JUNCTION",
    "registration_area_id": "5855",
    "precise_location": null,
    "abbreviation": "054",
    "units": "054",
    "delimitation": "24/01/09/054",
    "remark": "NEW PU",
    "ward_id": "5855",
    "ward_name": "TABON TABON/OKO OBA",
    "local_government_id": "506",
    "local_government_name": "AGEGE",
    "state_id": "24",
    "state_name": "LAGOS",
    "location": {
      "latitude": 6.6355036,
      "longitude": 3.3130236,
      "viewport": {
        "northeast": {
          "lat": 6.636853429892722,
          "lng": 3.314373429892722
        },
        "southwest": {
          "lat": 6.634153770107278,
          "lng": 3.311673770107277
        }
      },
      "formatted_address": "Oshodi St & Ifeloju St, Agege 102212, Lagos, Nigeria",
      "google_map_url": "https://maps.google.com?q=6.6355036,3.3130236",
      "google_place_id": "EjRPc2hvZGkgU3QgJiBJZmVsb2p1IFN0LCBBZ2VnZSAxMDIyMTIsIEFnZWdlLCBOaWdlcmlhImYiZAoUChIJ6wLGFzyROxARR7DFfr4mqooSFAoSCesCxhc8kTsQEUewxX6-JqqKGhQKEgnFQukFPJE7EBE8S5lDOHzqnxoUChIJ751QvD6ROxARQ-6lQ0PqCjoiCg1cf_QDFfyG-QE"
    }
  },
  {
    "id": "112421",
    "name": "39 JAMES OKIKI STR",
    "registration_area_id": "5855",
    "precise_location": null,
    "abbreviation": "055",
    "units": "055",
    "delimitation": "24/01/09/055",
    "remark": "NEW PU",
    "ward_id": "5855",
    "ward_name": "TABON TABON/OKO OBA",
    "local_government_id": "506",
    "local_government_name": "AGEGE",
    "state_id": "24",
    "state_name": "LAGOS",
    "location": {
      "latitude": 6.635459399999999,
      "longitude": 3.3178971,
      "viewport": {
        "northeast": {
          "lat": 6.636835029892721,
          "lng": 3.319331479892722
        },
        "southwest": {
          "lat": 6.634135370107277,
          "lng": 3.316631820107277
        }
      },
      "formatted_address": "39 James Okiki St, Agege 102212, Lagos, Nigeria",
      "google_map_url": "https://maps.google.com?q=6.635459399999999,3.3178971",
      "google_place_id": "Ei8zOSBKYW1lcyBPa2lraSBTdCwgQWdlZ2UgMTAyMjEyLCBMYWdvcywgTmlnZXJpYSIwEi4KFAoSCQmhA0M_kTsQEbLaDglskiVcECcqFAoSCYVrsjU_kTsQEZT9zmlEAkRd"
    }
  },
  {
    "id": "112422",
    "name": "17 JAMES OKIKI STR",
    "registration_area_id": "5855",
    "precise_location": null,
    "abbreviation": "056",
    "units": "056",
    "delimitation": "24/01/09/056",
    "remark": "NEW PU",
    "ward_id": "5855",
    "ward_name": "TABON TABON/OKO OBA",
    "local_government_id": "506",
    "local_government_name": "AGEGE",
    "state_id": "24",
    "state_name": "LAGOS",
    "location": {
      "latitude": 6.6369105,
      "longitude": 3.31751,
      "viewport": {
        "northeast": {
          "lat": 6.638277579892722,
          "lng": 3.318951429892723
        },
        "southwest": {
          "lat": 6.635577920107278,
          "lng": 3.316251770107278
        }
      },
      "formatted_address": "17 James Okiki St, Agege 102212, Lagos, Nigeria",
      "google_map_url": "https://maps.google.com?q=6.6369105,3.31751",
      "google_place_id": "ChIJZyWCtTiROxARE7gDXXZNH84"
    }
  },
  {
    "id": "112423",
    "name": "6 OLADEJO STREET",
    "registration_area_id": "5855",
    "precise_location": null,
    "abbreviation": "057",
    "units": "057",
    "delimitation": "24/01/09/057",
    "remark": "NEW PU",
    "ward_id": "5855",
    "ward_name": "TABON TABON/OKO OBA",
    "local_government_id": "506",
    "local_government_name": "AGEGE",
    "state_id": "24",
    "state_name": "LAGOS",
    "location": {
      "latitude": 6.637068699999999,
      "longitude": 3.3135112,
      "viewport": {
        "northeast": {
          "lat": 6.638488829892721,
          "lng": 3.314873229892722
        },
        "southwest": {
          "lat": 6.635789170107278,
          "lng": 3.312173570107277
        }
      },
      "formatted_address": "6 Oladejo St, Agege 102212, Lagos, Nigeria",
      "google_map_url": "https://maps.google.com?q=6.637068699999999,3.3135112",
      "google_place_id": "Eio2IE9sYWRlam8gU3QsIEFnZWdlIDEwMjIxMiwgTGFnb3MsIE5pZ2VyaWEiMBIuChQKEgktoTtWOZE7EBG9SUOerRncrRAGKhQKEgnNzRpROZE7EBE3HnSfbQFxiw"
    }
  },
  {
    "id": "112424",
    "name": "12 EMMANUEL ADEKANBI STR",
    "registration_area_id": "5855",
    "precise_location": null,
    "abbreviation": "058",
    "units": "058",
    "delimitation": "24/01/09/058",
    "remark": "NEW PU",
    "ward_id": "5855",
    "ward_name": "TABON TABON/OKO OBA",
    "local_government_id": "506",
    "local_government_name": "AGEGE",
    "state_id": "24",
    "state_name": "LAGOS",
    "location": {
      "latitude": 6.637385,
      "longitude": 3.3170752,
      "viewport": {
        "northeast": {
          "lat": 6.638697229892722,
          "lng": 3.318337079892722
        },
        "southwest": {
          "lat": 6.635997570107278,
          "lng": 3.315637420107278
        }
      },
      "formatted_address": "12 Emmanuel St, Agege 102212, Lagos, Nigeria",
      "google_map_url": "https://maps.google.com?q=6.637385,3.3170752",
      "google_place_id": "ChIJ8c5fzziROxARJljFuEW8-Vs"
    }
  },
  {
    "id": "112425",
    "name": "45 MUSILIU STR",
    "registration_area_id": "5855",
    "precise_location": null,
    "abbreviation": "059",
    "units": "059",
    "delimitation": "24/01/09/059",
    "remark": "NEW PU",
    "ward_id": "5855",
    "ward_name": "TABON TABON/OKO OBA",
    "local_government_id": "506",
    "local_government_name": "AGEGE",
    "state_id": "24",
    "state_name": "LAGOS",
    "location": null
  },
  {
    "id": "112426",
    "name": "6 YOMI OYENUGA  STR",
    "registration_area_id": "5855",
    "precise_location": null,
    "abbreviation": "060",
    "units": "060",
    "delimitation": "24/01/09/060",
    "remark": "NEW PU",
    "ward_id": "5855",
    "ward_name": "TABON TABON/OKO OBA",
    "local_government_id": "506",
    "local_government_name": "AGEGE",
    "state_id": "24",
    "state_name": "LAGOS",
    "location": {
      "latitude": 6.6389777,
      "longitude": 3.3133633,
      "viewport": {
        "northeast": {
          "lat": 6.640333379892722,
          "lng": 3.314755229892722
        },
        "southwest": {
          "lat": 6.637633720107278,
          "lng": 3.312055570107277
        }
      },
      "formatted_address": "6 Yomi Oyenuga St, Agege 102212, Lagos, Nigeria",
      "google_map_url": "https://maps.google.com?q=6.6389777,3.3133633",
      "google_place_id": "ChIJQ_4iLTqROxAROfBUyBU34rc"
    }
  },
  {
    "id": "112427",
    "name": "19 LADOJE STR",
    "registration_area_id": "5855",
    "precise_location": null,
    "abbreviation": "061",
    "units": "061",
    "delimitation": "24/01/09/061",
    "remark": "NEW PU",
    "ward_id": "5855",
    "ward_name": "TABON TABON/OKO OBA",
    "local_government_id": "506",
    "local_government_name": "AGEGE",
    "state_id": "24",
    "state_name": "LAGOS",
    "location": {
      "latitude": 6.647214099999999,
      "longitude": 3.3090711,
      "viewport": {
        "northeast": {
          "lat": 6.648540629892722,
          "lng": 3.310428779892722
        },
        "southwest": {
          "lat": 6.645840970107278,
          "lng": 3.307729120107277
        }
      },
      "formatted_address": "J8W5+RQ2 Ladoje Primary School, Agege 102212, Lagos, Nigeria",
      "google_map_url": "https://maps.google.com?q=6.647214099999999,3.3090711",
      "google_place_id": "ChIJMYVp-TGROxARD_PU-_uqBYw"
    }
  },
  {
    "id": "112428",
    "name": "2, LADOJE STR",
    "registration_area_id": "5855",
    "precise_location": null,
    "abbreviation": "062",
    "units": "062",
    "delimitation": "24/01/09/062",
    "remark": "NEW PU",
    "ward_id": "5855",
    "ward_name": "TABON TABON/OKO OBA",
    "local_government_id": "506",
    "local_government_name": "AGEGE",
    "state_id": "24",
    "state_name": "LAGOS",
    "location": {
      "latitude": 6.647153899999999,
      "longitude": 3.3096221,
      "viewport": {
        "northeast": {
          "lat": 6.648459079892722,
          "lng": 3.310970279892723
        },
        "southwest": {
          "lat": 6.645759420107278,
          "lng": 3.308270620107278
        }
      },
      "formatted_address": "J8W5+VR9, Alh Akanbi St, Agege 102212, Lagos, Nigeria",
      "google_map_url": "https://maps.google.com?q=6.647153899999999,3.3096221",
      "google_place_id": "ChIJB9JX8TGROxARKlV2bFnIECo"
    }
  },
  {
    "id": "112429",
    "name": "30, ISIAKA OKOSUN STREET",
    "registration_area_id": "5855",
    "precise_location": null,
    "abbreviation": "063",
    "units": "063",
    "delimitation": "24/01/09/063",
    "remark": "NEW PU",
    "ward_id": "5855",
    "ward_name": "TABON TABON/OKO OBA",
    "local_government_id": "506",
    "local_government_name": "AGEGE",
    "state_id": "24",
    "state_name": "LAGOS",
    "location": {
      "latitude": 6.640544999999999,
      "longitude": 3.3151675,
      "viewport": {
        "northeast": {
          "lat": 6.641909929892722,
          "lng": 3.316583379892722
        },
        "southwest": {
          "lat": 6.639210270107278,
          "lng": 3.313883720107277
        }
      },
      "formatted_address": "30 Isiaka St, Agege 102212, Lagos, Nigeria",
      "google_map_url": "https://maps.google.com?q=6.640544999999999,3.3151675",
      "google_place_id": "ChIJB3v6vjmROxARQcQzU54u17w"
    }
  },
  {
    "id": "112430",
    "name": "2 LADIPO STREET",
    "registration_area_id": "5855",
    "precise_location": null,
    "abbreviation": "064",
    "units": "064",
    "delimitation": "24/01/09/064",
    "remark": "NEW PU",
    "ward_id": "5855",
    "ward_name": "TABON TABON/OKO OBA",
    "local_government_id": "506",
    "local_government_name": "AGEGE",
    "state_id": "24",
    "state_name": "LAGOS",
    "location": {
      "latitude": 6.6148306,
      "longitude": 3.3393152,
      "viewport": {
        "northeast": {
          "lat": 6.616220879892722,
          "lng": 3.340632729892722
        },
        "southwest": {
          "lat": 6.613521220107278,
          "lng": 3.337933070107277
        }
      },
      "formatted_address": "2 Ladipo Oluwole St, Oba Akran 101233, Ikeja, Nigeria",
      "google_map_url": "https://maps.google.com?q=6.6148306,3.3393152",
      "google_place_id": "ChIJOXT32tOTOxARF7jcCy7XCGM"
    }
  }
]