[
  {
    "id": "20195",
    "name": "BULANNA  PRIMARY SCHOOL I",
    "registration_area_id": "1135",
    "precise_location": null,
    "abbreviation": "001",
    "units": "001",
    "delimitation": "05/07/06/001",
    "remark": "EXISTING PU",
    "ward_id": "1135",
    "ward_name": "TUMBI",
    "local_government_id": "97",
    "local_government_name": "GAMAWA",
    "state_id": "5",
    "state_name": "BAUCHI",
    "location": {
      "latitude": 10.3080123,
      "longitude": 9.836243399999999,
      "viewport": {
        "northeast": {
          "lat": 10.30912817989272,
          "lng": 9.837651679892721
        },
        "southwest": {
          "lat": 10.30642852010728,
          "lng": 9.834952020107277
        }
      },
      "formatted_address": "Nassarawa Road, 740102, Bauchi, Nigeria",
      "google_map_url": "https://maps.google.com?q=10.3080123,9.836243399999999",
      "google_place_id": "ChIJv5HSPmrXVBARIQtsUWdkhbQ"
    }
  },
  {
    "id": "20196",
    "name": "BULANNA PRIMARY SCHOOL II",
    "registration_area_id": "1135",
    "precise_location": null,
    "abbreviation": "002",
    "units": "002",
    "delimitation": "05/07/06/002",
    "remark": "EXISTING PU",
    "ward_id": "1135",
    "ward_name": "TUMBI",
    "local_government_id": "97",
    "local_government_name": "GAMAWA",
    "state_id": "5",
    "state_name": "BAUCHI",
    "location": {
      "latitude": 10.3059711,
      "longitude": 9.840288500000002,
      "viewport": {
        "northeast": {
          "lat": 10.30721507989272,
          "lng": 9.841407179892721
        },
        "southwest": {
          "lat": 10.30451542010728,
          "lng": 9.838707520107276
        }
      },
      "formatted_address": "2 Palace Road, 740102, Bauchi, Nigeria",
      "google_map_url": "https://maps.google.com?q=10.3059711,9.840288500000002",
      "google_place_id": "ChIJ426iZpjXVBARMcuuzkEs-pE"
    }
  },
  {
    "id": "20197",
    "name": "GARIN JAURO IDAU,  G. VILLAGE",
    "registration_area_id": "1135",
    "precise_location": null,
    "abbreviation": "003",
    "units": "003",
    "delimitation": "05/07/06/003",
    "remark": "EXISTING PU",
    "ward_id": "1135",
    "ward_name": "TUMBI",
    "local_government_id": "97",
    "local_government_name": "GAMAWA",
    "state_id": "5",
    "state_name": "BAUCHI",
    "location": {
      "latitude": 10.3059711,
      "longitude": 9.840288500000002,
      "viewport": {
        "northeast": {
          "lat": 10.30721507989272,
          "lng": 9.841407179892721
        },
        "southwest": {
          "lat": 10.30451542010728,
          "lng": 9.838707520107276
        }
      },
      "formatted_address": "Odobodu Street, 740102, Bauchi, Nigeria",
      "google_map_url": "https://maps.google.com?q=10.3059711,9.840288500000002",
      "google_place_id": "ChIJR58gl-vXVBARROkaoTdYPwk"
    }
  },
  {
    "id": "20198",
    "name": "DOLERI,DOLERI VILLAGE",
    "registration_area_id": "1135",
    "precise_location": null,
    "abbreviation": "004",
    "units": "004",
    "delimitation": "05/07/06/004",
    "remark": "EXISTING PU",
    "ward_id": "1135",
    "ward_name": "TUMBI",
    "local_government_id": "97",
    "local_government_name": "GAMAWA",
    "state_id": "5",
    "state_name": "BAUCHI",
    "location": null
  },
  {
    "id": "20199",
    "name": "WABU, WABU VILLAGE",
    "registration_area_id": "1135",
    "precise_location": null,
    "abbreviation": "005",
    "units": "005",
    "delimitation": "05/07/06/005",
    "remark": "EXISTING PU",
    "ward_id": "1135",
    "ward_name": "TUMBI",
    "local_government_id": "97",
    "local_government_name": "GAMAWA",
    "state_id": "5",
    "state_name": "BAUCHI",
    "location": {
      "latitude": 12.1328487,
      "longitude": 10.5328719,
      "viewport": {
        "northeast": {
          "lat": 12.13421097989272,
          "lng": 10.53419507989272
        },
        "southwest": {
          "lat": 12.13151132010728,
          "lng": 10.53149542010728
        }
      },
      "formatted_address": "4GMM+44Q, udubo road, 752106, Gamawa, Nigeria",
      "google_map_url": "https://maps.google.com?q=12.1328487,10.5328719",
      "google_place_id": "ChIJGQa_e_fjqRERNLa3W-A_9Ag"
    }
  },
  {
    "id": "20200",
    "name": "DOGON MARKE, DOGON MARKE VILLAGE",
    "registration_area_id": "1135",
    "precise_location": null,
    "abbreviation": "006",
    "units": "006",
    "delimitation": "05/07/06/006",
    "remark": "EXISTING PU",
    "ward_id": "1135",
    "ward_name": "TUMBI",
    "local_government_id": "97",
    "local_government_name": "GAMAWA",
    "state_id": "5",
    "state_name": "BAUCHI",
    "location": null
  },
  {
    "id": "20201",
    "name": "YABAL,  PRIMARY SCHOOL I",
    "registration_area_id": "1135",
    "precise_location": null,
    "abbreviation": "007",
    "units": "007",
    "delimitation": "05/07/06/007",
    "remark": "EXISTING PU",
    "ward_id": "1135",
    "ward_name": "TUMBI",
    "local_government_id": "97",
    "local_government_name": "GAMAWA",
    "state_id": "5",
    "state_name": "BAUCHI",
    "location": {
      "latitude": 10.3104602,
      "longitude": 9.835901500000002,
      "viewport": {
        "northeast": {
          "lat": 10.31166212989272,
          "lng": 9.837076079892721
        },
        "southwest": {
          "lat": 10.30896247010728,
          "lng": 9.834376420107278
        }
      },
      "formatted_address": "8R6P+59J, 740102, Bauchi, Nigeria",
      "google_map_url": "https://maps.google.com?q=10.3104602,9.835901500000002",
      "google_place_id": "ChIJaUZ9vmrXVBARRtMxHmTrC-4"
    }
  },
  {
    "id": "20202",
    "name": "YABAL,  PRIMARY SCHOOL II",
    "registration_area_id": "1135",
    "precise_location": null,
    "abbreviation": "008",
    "units": "008",
    "delimitation": "05/07/06/008",
    "remark": "EXISTING PU",
    "ward_id": "1135",
    "ward_name": "TUMBI",
    "local_government_id": "97",
    "local_government_name": "GAMAWA",
    "state_id": "5",
    "state_name": "BAUCHI",
    "location": {
      "latitude": 10.3167256,
      "longitude": 9.850540299999999,
      "viewport": {
        "northeast": {
          "lat": 10.31801697989272,
          "lng": 9.851899379892723
        },
        "southwest": {
          "lat": 10.31531732010728,
          "lng": 9.84919972010728
        }
      },
      "formatted_address": "8V82+M6V Alis Amdala Hotel, behind Ibb Square, 740102, Bauchi, Nigeria",
      "google_map_url": "https://maps.google.com?q=10.3167256,9.850540299999999",
      "google_place_id": "ChIJYWAZ5onXVBARe2QrSua8-JI"
    }
  },
  {
    "id": "20203",
    "name": "KIRIKASOSUWA, PRIMARY SCHOOL",
    "registration_area_id": "1135",
    "precise_location": null,
    "abbreviation": "009",
    "units": "009",
    "delimitation": "05/07/06/009",
    "remark": "EXISTING PU",
    "ward_id": "1135",
    "ward_name": "TUMBI",
    "local_government_id": "97",
    "local_government_name": "GAMAWA",
    "state_id": "5",
    "state_name": "BAUCHI",
    "location": {
      "latitude": 10.3131991,
      "longitude": 9.8254878,
      "viewport": {
        "northeast": {
          "lat": 10.31437592989272,
          "lng": 9.826858679892723
        },
        "southwest": {
          "lat": 10.31167627010728,
          "lng": 9.82415902010728
        }
      },
      "formatted_address": "8R7G+75X, Mohammed Bello, Kirfi Road, Bauchi, Nigeria",
      "google_map_url": "https://maps.google.com?q=10.3131991,9.8254878",
      "google_place_id": "ChIJQxXjWTjXVBARjhMWulMBi8g"
    }
  },
  {
    "id": "20204",
    "name": "KIRIKASOSUWA, PRIMARY SCHOOL II",
    "registration_area_id": "1135",
    "precise_location": null,
    "abbreviation": "010",
    "units": "010",
    "delimitation": "05/07/06/010",
    "remark": "EXISTING PU",
    "ward_id": "1135",
    "ward_name": "TUMBI",
    "local_government_id": "97",
    "local_government_name": "GAMAWA",
    "state_id": "5",
    "state_name": "BAUCHI",
    "location": {
      "latitude": 10.3080123,
      "longitude": 9.836243399999999,
      "viewport": {
        "northeast": {
          "lat": 10.30912817989272,
          "lng": 9.837651679892721
        },
        "southwest": {
          "lat": 10.30642852010728,
          "lng": 9.834952020107277
        }
      },
      "formatted_address": "Nassarawa Road, 740102, Bauchi, Nigeria",
      "google_map_url": "https://maps.google.com?q=10.3080123,9.836243399999999",
      "google_place_id": "ChIJv5HSPmrXVBARIQtsUWdkhbQ"
    }
  },
  {
    "id": "20205",
    "name": "TUMBI,  PRIMARY SACHOOL I",
    "registration_area_id": "1135",
    "precise_location": null,
    "abbreviation": "011",
    "units": "011",
    "delimitation": "05/07/06/011",
    "remark": "EXISTING PU",
    "ward_id": "1135",
    "ward_name": "TUMBI",
    "local_government_id": "97",
    "local_government_name": "GAMAWA",
    "state_id": "5",
    "state_name": "BAUCHI",
    "location": {
      "latitude": 12.2641034,
      "longitude": 10.5884439,
      "viewport": {
        "northeast": {
          "lat": 12.26548882989272,
          "lng": 10.58976187989272
        },
        "southwest": {
          "lat": 12.26278917010728,
          "lng": 10.58706222010728
        }
      },
      "formatted_address": "7H7Q+J9W, 752106, Bonamari, Nigeria",
      "google_map_url": "https://maps.google.com?q=12.2641034,10.5884439",
      "google_place_id": "ChIJxR0h_LrfqRERcgGGFXy6zHE"
    }
  },
  {
    "id": "20206",
    "name": "TUMBI,  PRIMARY SACHOOL II",
    "registration_area_id": "1135",
    "precise_location": null,
    "abbreviation": "012",
    "units": "012",
    "delimitation": "05/07/06/012",
    "remark": "EXISTING PU",
    "ward_id": "1135",
    "ward_name": "TUMBI",
    "local_government_id": "97",
    "local_government_name": "GAMAWA",
    "state_id": "5",
    "state_name": "BAUCHI",
    "location": {
      "latitude": 12.2641034,
      "longitude": 10.5884439,
      "viewport": {
        "northeast": {
          "lat": 12.26548882989272,
          "lng": 10.58976187989272
        },
        "southwest": {
          "lat": 12.26278917010728,
          "lng": 10.58706222010728
        }
      },
      "formatted_address": "7H7Q+J9W, 752106, Bonamari, Nigeria",
      "google_map_url": "https://maps.google.com?q=12.2641034,10.5884439",
      "google_place_id": "ChIJxR0h_LrfqRERcgGGFXy6zHE"
    }
  },
  {
    "id": "20207",
    "name": "TUMBI,  PRIMARY SACHOOL III",
    "registration_area_id": "1135",
    "precise_location": null,
    "abbreviation": "013",
    "units": "013",
    "delimitation": "05/07/06/013",
    "remark": "EXISTING PU",
    "ward_id": "1135",
    "ward_name": "TUMBI",
    "local_government_id": "97",
    "local_government_name": "GAMAWA",
    "state_id": "5",
    "state_name": "BAUCHI",
    "location": {
      "latitude": 12.2641034,
      "longitude": 10.5884439,
      "viewport": {
        "northeast": {
          "lat": 12.26548882989272,
          "lng": 10.58976187989272
        },
        "southwest": {
          "lat": 12.26278917010728,
          "lng": 10.58706222010728
        }
      },
      "formatted_address": "7H7Q+J9W, 752106, Bonamari, Nigeria",
      "google_map_url": "https://maps.google.com?q=12.2641034,10.5884439",
      "google_place_id": "ChIJxR0h_LrfqRERcgGGFXy6zHE"
    }
  },
  {
    "id": "20208",
    "name": "BONA MARI, BONA MARI VILLAGE",
    "registration_area_id": "1135",
    "precise_location": null,
    "abbreviation": "014",
    "units": "014",
    "delimitation": "05/07/06/014",
    "remark": "EXISTING PU",
    "ward_id": "1135",
    "ward_name": "TUMBI",
    "local_government_id": "97",
    "local_government_name": "GAMAWA",
    "state_id": "5",
    "state_name": "BAUCHI",
    "location": {
      "latitude": 12.2651952,
      "longitude": 10.5872857,
      "viewport": {
        "northeast": {
          "lat": 12.267424,
          "lng": 10.590491
        },
        "southwest": {
          "lat": 12.263258,
          "lng": 10.5857691
        }
      },
      "formatted_address": "752106, Bonamari, Nigeria",
      "google_map_url": "https://maps.google.com?q=12.2651952,10.5872857",
      "google_place_id": "ChIJtes_KrDfqRERmjgTi6rX3aQ"
    }
  },
  {
    "id": "20209",
    "name": "BONA MARI, GARIN JUMBA VILLAGE",
    "registration_area_id": "1135",
    "precise_location": null,
    "abbreviation": "015",
    "units": "015",
    "delimitation": "05/07/06/015",
    "remark": "EXISTING PU",
    "ward_id": "1135",
    "ward_name": "TUMBI",
    "local_government_id": "97",
    "local_government_name": "GAMAWA",
    "state_id": "5",
    "state_name": "BAUCHI",
    "location": {
      "latitude": 10.3059711,
      "longitude": 9.840288500000002,
      "viewport": {
        "northeast": {
          "lat": 10.30721507989272,
          "lng": 9.841407179892721
        },
        "southwest": {
          "lat": 10.30451542010728,
          "lng": 9.838707520107276
        }
      },
      "formatted_address": "Odobodu Street, 740102, Bauchi, Nigeria",
      "google_map_url": "https://maps.google.com?q=10.3059711,9.840288500000002",
      "google_place_id": "ChIJR58gl-vXVBARROkaoTdYPwk"
    }
  },
  {
    "id": "20210",
    "name": "BACCHAL,  BACCHAL VILLAGE",
    "registration_area_id": "1135",
    "precise_location": null,
    "abbreviation": "016",
    "units": "016",
    "delimitation": "05/07/06/016",
    "remark": "EXISTING PU",
    "ward_id": "1135",
    "ward_name": "TUMBI",
    "local_government_id": "97",
    "local_government_name": "GAMAWA",
    "state_id": "5",
    "state_name": "BAUCHI",
    "location": null
  },
  {
    "id": "20211",
    "name": "KADIKADI A PRIMARY SCHOOL",
    "registration_area_id": "1135",
    "precise_location": null,
    "abbreviation": "017",
    "units": "017",
    "delimitation": "05/07/06/017",
    "remark": "EXISTING PU",
    "ward_id": "1135",
    "ward_name": "TUMBI",
    "local_government_id": "97",
    "local_government_name": "GAMAWA",
    "state_id": "5",
    "state_name": "BAUCHI",
    "location": null
  },
  {
    "id": "20212",
    "name": "GIBIYA,  GIBIYA VILLAGE",
    "registration_area_id": "1135",
    "precise_location": null,
    "abbreviation": "018",
    "units": "018",
    "delimitation": "05/07/06/018",
    "remark": "EXISTING PU",
    "ward_id": "1135",
    "ward_name": "TUMBI",
    "local_government_id": "97",
    "local_government_name": "GAMAWA",
    "state_id": "5",
    "state_name": "BAUCHI",
    "location": {
      "latitude": 12.1328487,
      "longitude": 10.5328719,
      "viewport": {
        "northeast": {
          "lat": 12.13421097989272,
          "lng": 10.53419507989272
        },
        "southwest": {
          "lat": 12.13151132010728,
          "lng": 10.53149542010728
        }
      },
      "formatted_address": "4GMM+44Q, udubo road, 752106, Gamawa, Nigeria",
      "google_map_url": "https://maps.google.com?q=12.1328487,10.5328719",
      "google_place_id": "ChIJGQa_e_fjqRERNLa3W-A_9Ag"
    }
  },
  {
    "id": "20213",
    "name": "TUMBI",
    "registration_area_id": "1135",
    "precise_location": null,
    "abbreviation": "019",
    "units": "019",
    "delimitation": "05/07/06/019",
    "remark": "NEW PU",
    "ward_id": "1135",
    "ward_name": "TUMBI",
    "local_government_id": "97",
    "local_government_name": "GAMAWA",
    "state_id": "5",
    "state_name": "BAUCHI",
    "location": {
      "latitude": 12.2883663,
      "longitude": 10.608395,
      "viewport": {
        "northeast": {
          "lat": 12.3614301,
          "lng": 10.7158926
        },
        "southwest": {
          "lat": 12.2197408,
          "lng": 10.4966827
        }
      },
      "formatted_address": "Tumbi, 752106, Nigeria",
      "google_map_url": "https://maps.google.com?q=12.2883663,10.608395",
      "google_place_id": "ChIJy-VVpW_fqRERI0W1sw2atyw"
    }
  }
]