[
  {
    "id": "65260",
    "name": "COMMUNITY PRIMARY SCHOOL UMUAPU I",
    "registration_area_id": "3558",
    "precise_location": null,
    "abbreviation": "001",
    "units": "001",
    "delimitation": "16/18/12/001",
    "remark": "EXISTING PU",
    "ward_id": "3558",
    "ward_name": "UMUAPU",
    "local_government_id": "310",
    "local_government_name": "OHAJI/EGBEMA (MMAHU-EGBEMA)",
    "state_id": "16",
    "state_name": "IMO",
    "location": {
      "latitude": 5.261988400000001,
      "longitude": 6.867266799999999,
      "viewport": {
        "northeast": {
          "lat": 5.2957021,
          "lng": 6.91947
        },
        "southwest": {
          "lat": 5.2195258,
          "lng": 6.845438499999999
        }
      },
      "formatted_address": "Umuapu, Nigeria",
      "google_map_url": "https://maps.google.com?q=5.261988400000001,6.867266799999999",
      "google_place_id": "ChIJa9R1vCZvQhARfg2GCBMrSuk"
    }
  },
  {
    "id": "65261",
    "name": "PRIMARY SCHOOL UMUAPU I",
    "registration_area_id": "3558",
    "precise_location": null,
    "abbreviation": "002",
    "units": "002",
    "delimitation": "16/18/12/002",
    "remark": "EXISTING PU",
    "ward_id": "3558",
    "ward_name": "UMUAPU",
    "local_government_id": "310",
    "local_government_name": "OHAJI/EGBEMA (MMAHU-EGBEMA)",
    "state_id": "16",
    "state_name": "IMO",
    "location": {
      "latitude": 5.261988400000001,
      "longitude": 6.867266799999999,
      "viewport": {
        "northeast": {
          "lat": 5.2957021,
          "lng": 6.91947
        },
        "southwest": {
          "lat": 5.2195258,
          "lng": 6.845438499999999
        }
      },
      "formatted_address": "Umuapu, Nigeria",
      "google_map_url": "https://maps.google.com?q=5.261988400000001,6.867266799999999",
      "google_place_id": "ChIJa9R1vCZvQhARfg2GCBMrSuk"
    }
  },
  {
    "id": "65262",
    "name": "PRIMARY SCHOOL UMUAPU II",
    "registration_area_id": "3558",
    "precise_location": null,
    "abbreviation": "003",
    "units": "003",
    "delimitation": "16/18/12/003",
    "remark": "EXISTING PU",
    "ward_id": "3558",
    "ward_name": "UMUAPU",
    "local_government_id": "310",
    "local_government_name": "OHAJI/EGBEMA (MMAHU-EGBEMA)",
    "state_id": "16",
    "state_name": "IMO",
    "location": {
      "latitude": 5.261988400000001,
      "longitude": 6.867266799999999,
      "viewport": {
        "northeast": {
          "lat": 5.2957021,
          "lng": 6.91947
        },
        "southwest": {
          "lat": 5.2195258,
          "lng": 6.845438499999999
        }
      },
      "formatted_address": "Umuapu, Nigeria",
      "google_map_url": "https://maps.google.com?q=5.261988400000001,6.867266799999999",
      "google_place_id": "ChIJa9R1vCZvQhARfg2GCBMrSuk"
    }
  },
  {
    "id": "65263",
    "name": "COMMUNITY SCHOOL UMUAPU I",
    "registration_area_id": "3558",
    "precise_location": null,
    "abbreviation": "004",
    "units": "004",
    "delimitation": "16/18/12/004",
    "remark": "EXISTING PU",
    "ward_id": "3558",
    "ward_name": "UMUAPU",
    "local_government_id": "310",
    "local_government_name": "OHAJI/EGBEMA (MMAHU-EGBEMA)",
    "state_id": "16",
    "state_name": "IMO",
    "location": {
      "latitude": 5.261988400000001,
      "longitude": 6.867266799999999,
      "viewport": {
        "northeast": {
          "lat": 5.2957021,
          "lng": 6.91947
        },
        "southwest": {
          "lat": 5.2195258,
          "lng": 6.845438499999999
        }
      },
      "formatted_address": "Umuapu, Nigeria",
      "google_map_url": "https://maps.google.com?q=5.261988400000001,6.867266799999999",
      "google_place_id": "ChIJa9R1vCZvQhARfg2GCBMrSuk"
    }
  },
  {
    "id": "65264",
    "name": "COMMUNITY SCHOOL UMUAPU II",
    "registration_area_id": "3558",
    "precise_location": null,
    "abbreviation": "005",
    "units": "005",
    "delimitation": "16/18/12/005",
    "remark": "EXISTING PU",
    "ward_id": "3558",
    "ward_name": "UMUAPU",
    "local_government_id": "310",
    "local_government_name": "OHAJI/EGBEMA (MMAHU-EGBEMA)",
    "state_id": "16",
    "state_name": "IMO",
    "location": {
      "latitude": 5.261988400000001,
      "longitude": 6.867266799999999,
      "viewport": {
        "northeast": {
          "lat": 5.2957021,
          "lng": 6.91947
        },
        "southwest": {
          "lat": 5.2195258,
          "lng": 6.845438499999999
        }
      },
      "formatted_address": "Umuapu, Nigeria",
      "google_map_url": "https://maps.google.com?q=5.261988400000001,6.867266799999999",
      "google_place_id": "ChIJa9R1vCZvQhARfg2GCBMrSuk"
    }
  },
  {
    "id": "65265",
    "name": "COMMUNITY SCHOOL UMUAPUIII",
    "registration_area_id": "3558",
    "precise_location": null,
    "abbreviation": "006",
    "units": "006",
    "delimitation": "16/18/12/006",
    "remark": "EXISTING PU",
    "ward_id": "3558",
    "ward_name": "UMUAPU",
    "local_government_id": "310",
    "local_government_name": "OHAJI/EGBEMA (MMAHU-EGBEMA)",
    "state_id": "16",
    "state_name": "IMO",
    "location": {
      "latitude": 5.261988400000001,
      "longitude": 6.867266799999999,
      "viewport": {
        "northeast": {
          "lat": 5.2957021,
          "lng": 6.91947
        },
        "southwest": {
          "lat": 5.2195258,
          "lng": 6.845438499999999
        }
      },
      "formatted_address": "Umuapu, Nigeria",
      "google_map_url": "https://maps.google.com?q=5.261988400000001,6.867266799999999",
      "google_place_id": "ChIJa9R1vCZvQhARfg2GCBMrSuk"
    }
  },
  {
    "id": "65266",
    "name": "TOWN SCHOOL IHIE I",
    "registration_area_id": "3558",
    "precise_location": null,
    "abbreviation": "007",
    "units": "007",
    "delimitation": "16/18/12/007",
    "remark": "EXISTING PU",
    "ward_id": "3558",
    "ward_name": "UMUAPU",
    "local_government_id": "310",
    "local_government_name": "OHAJI/EGBEMA (MMAHU-EGBEMA)",
    "state_id": "16",
    "state_name": "IMO",
    "location": {
      "latitude": 5.3601201,
      "longitude": 6.9159341,
      "viewport": {
        "northeast": {
          "lat": 5.361732329892722,
          "lng": 6.917171129892721
        },
        "southwest": {
          "lat": 5.359032670107278,
          "lng": 6.914471470107277
        }
      },
      "formatted_address": "9W68+29V, off umuoloo Abakuru road Umukanne, local, government area, Owerri, Nigeria",
      "google_map_url": "https://maps.google.com?q=5.3601201,6.9159341",
      "google_place_id": "ChIJMQbXCsJDQhARt1zZZkE4Ej0"
    }
  },
  {
    "id": "65267",
    "name": "TOWN SCHOOL IHIE II",
    "registration_area_id": "3558",
    "precise_location": null,
    "abbreviation": "008",
    "units": "008",
    "delimitation": "16/18/12/008",
    "remark": "EXISTING PU",
    "ward_id": "3558",
    "ward_name": "UMUAPU",
    "local_government_id": "310",
    "local_government_name": "OHAJI/EGBEMA (MMAHU-EGBEMA)",
    "state_id": "16",
    "state_name": "IMO",
    "location": {
      "latitude": 5.3601201,
      "longitude": 6.9159341,
      "viewport": {
        "northeast": {
          "lat": 5.361732329892722,
          "lng": 6.917171129892721
        },
        "southwest": {
          "lat": 5.359032670107278,
          "lng": 6.914471470107277
        }
      },
      "formatted_address": "9W68+29V, off umuoloo Abakuru road Umukanne, local, government area, Owerri, Nigeria",
      "google_map_url": "https://maps.google.com?q=5.3601201,6.9159341",
      "google_place_id": "ChIJMQbXCsJDQhARt1zZZkE4Ej0"
    }
  },
  {
    "id": "65268",
    "name": "IHIE PRIMARY SCHOOL",
    "registration_area_id": "3558",
    "precise_location": null,
    "abbreviation": "009",
    "units": "009",
    "delimitation": "16/18/12/009",
    "remark": "EXISTING PU",
    "ward_id": "3558",
    "ward_name": "UMUAPU",
    "local_government_id": "310",
    "local_government_name": "OHAJI/EGBEMA (MMAHU-EGBEMA)",
    "state_id": "16",
    "state_name": "IMO",
    "location": {
      "latitude": 5.3190105,
      "longitude": 6.8233829,
      "viewport": {
        "northeast": {
          "lat": 5.320454479892722,
          "lng": 6.824943879892722
        },
        "southwest": {
          "lat": 5.317754820107278,
          "lng": 6.822244220107278
        }
      },
      "formatted_address": "8R9F+J92, 464112, Opete, Nigeria",
      "google_map_url": "https://maps.google.com?q=5.3190105,6.8233829",
      "google_place_id": "ChIJnR5hK_5rQhARIAEGclIIqqg"
    }
  },
  {
    "id": "65269",
    "name": "IHIE VILLAGE SQUARE",
    "registration_area_id": "3558",
    "precise_location": null,
    "abbreviation": "010",
    "units": "010",
    "delimitation": "16/18/12/010",
    "remark": "EXISTING PU",
    "ward_id": "3558",
    "ward_name": "UMUAPU",
    "local_government_id": "310",
    "local_government_name": "OHAJI/EGBEMA (MMAHU-EGBEMA)",
    "state_id": "16",
    "state_name": "IMO",
    "location": {
      "latitude": 5.3137921,
      "longitude": 6.877992600000001,
      "viewport": {
        "northeast": {
          "lat": 5.625424,
          "lng": 6.9977087
        },
        "southwest": {
          "lat": 5.2201379,
          "lng": 6.6383424
        }
      },
      "formatted_address": "Ohaji/Egbema, Nigeria",
      "google_map_url": "https://maps.google.com?q=5.3137921,6.877992600000001",
      "google_place_id": "ChIJq9wgREFBQhAR-ojcjm7Vidk"
    }
  },
  {
    "id": "65270",
    "name": "COMMUNITY PRIMARY SCHOOL UMUAPU II",
    "registration_area_id": "3558",
    "precise_location": null,
    "abbreviation": "011",
    "units": "011",
    "delimitation": "16/18/12/011",
    "remark": "EXISTING PU",
    "ward_id": "3558",
    "ward_name": "UMUAPU",
    "local_government_id": "310",
    "local_government_name": "OHAJI/EGBEMA (MMAHU-EGBEMA)",
    "state_id": "16",
    "state_name": "IMO",
    "location": {
      "latitude": 5.261988400000001,
      "longitude": 6.867266799999999,
      "viewport": {
        "northeast": {
          "lat": 5.2957021,
          "lng": 6.91947
        },
        "southwest": {
          "lat": 5.2195258,
          "lng": 6.845438499999999
        }
      },
      "formatted_address": "Umuapu, Nigeria",
      "google_map_url": "https://maps.google.com?q=5.261988400000001,6.867266799999999",
      "google_place_id": "ChIJa9R1vCZvQhARfg2GCBMrSuk"
    }
  },
  {
    "id": "65271",
    "name": "UMUODOKEHI WOMEN HALL",
    "registration_area_id": "3558",
    "precise_location": null,
    "abbreviation": "012",
    "units": "012",
    "delimitation": "16/18/12/012",
    "remark": "NEW PU",
    "ward_id": "3558",
    "ward_name": "UMUAPU",
    "local_government_id": "310",
    "local_government_name": "OHAJI/EGBEMA (MMAHU-EGBEMA)",
    "state_id": "16",
    "state_name": "IMO",
    "location": {
      "latitude": 5.261988400000001,
      "longitude": 6.867266799999999,
      "viewport": {
        "northeast": {
          "lat": 5.2957021,
          "lng": 6.91947
        },
        "southwest": {
          "lat": 5.2195258,
          "lng": 6.845438499999999
        }
      },
      "formatted_address": "Umuapu, Nigeria",
      "google_map_url": "https://maps.google.com?q=5.261988400000001,6.867266799999999",
      "google_place_id": "ChIJa9R1vCZvQhARfg2GCBMrSuk"
    }
  },
  {
    "id": "65272",
    "name": "HEALTH CENTER AKANU",
    "registration_area_id": "3558",
    "precise_location": null,
    "abbreviation": "013",
    "units": "013",
    "delimitation": "16/18/12/013",
    "remark": "NEW PU",
    "ward_id": "3558",
    "ward_name": "UMUAPU",
    "local_government_id": "310",
    "local_government_name": "OHAJI/EGBEMA (MMAHU-EGBEMA)",
    "state_id": "16",
    "state_name": "IMO",
    "location": {
      "latitude": 5.4399997,
      "longitude": 6.910988499999999,
      "viewport": {
        "northeast": {
          "lat": 5.4424561,
          "lng": 6.912434029892721
        },
        "southwest": {
          "lat": 5.439180899999998,
          "lng": 6.909734370107278
        }
      },
      "formatted_address": "CWQ6+X9X, Unnamed Road, 464114, Obosima, Nigeria",
      "google_map_url": "https://maps.google.com?q=5.4399997,6.910988499999999",
      "google_place_id": "ChIJvyI9iltFQhAR2ZdOVpe9Weg"
    }
  }
]