[
  {
    "id": "35763",
    "name": "BADU LAWANTI",
    "registration_area_id": "1949",
    "precise_location": null,
    "abbreviation": "001",
    "units": "001",
    "delimitation": "08/26/02/001",
    "remark": "EXISTING PU",
    "ward_id": "1949",
    "ward_name": "BADU",
    "local_government_id": "167",
    "local_government_name": "NGANZAI",
    "state_id": "8",
    "state_name": "BORNO",
    "location": {
      "latitude": 12.5555075,
      "longitude": 13.1381738,
      "viewport": {
        "northeast": {
          "lat": 12.558258,
          "lng": 13.1407691
        },
        "southwest": {
          "lat": 12.5538129,
          "lng": 13.137158
        }
      },
      "formatted_address": "612103, Sabsabuwa Lawanti, Nigeria",
      "google_map_url": "https://maps.google.com?q=12.5555075,13.1381738",
      "google_place_id": "ChIJ1aXc0SQfBRERCAjd6my_Xks"
    }
  },
  {
    "id": "35764",
    "name": "BADU PRI. SCH.",
    "registration_area_id": "1949",
    "precise_location": null,
    "abbreviation": "002",
    "units": "002",
    "delimitation": "08/26/02/002",
    "remark": "EXISTING PU",
    "ward_id": "1949",
    "ward_name": "BADU",
    "local_government_id": "167",
    "local_government_name": "NGANZAI",
    "state_id": "8",
    "state_name": "BORNO",
    "location": {
      "latitude": 12.5411976,
      "longitude": 13.2828524,
      "viewport": {
        "northeast": {
          "lat": 12.54249012989272,
          "lng": 13.28428172989272
        },
        "southwest": {
          "lat": 12.53979047010728,
          "lng": 13.28158207010728
        }
      },
      "formatted_address": "Torowa Primary School, 612103, Torowa, Nigeria",
      "google_map_url": "https://maps.google.com?q=12.5411976,13.2828524",
      "google_place_id": "ChIJLQL9p7gmBRER7YaLt8jdCPA"
    }
  },
  {
    "id": "35765",
    "name": "BADU MARKET",
    "registration_area_id": "1949",
    "precise_location": null,
    "abbreviation": "003",
    "units": "003",
    "delimitation": "08/26/02/003",
    "remark": "EXISTING PU",
    "ward_id": "1949",
    "ward_name": "BADU",
    "local_government_id": "167",
    "local_government_name": "NGANZAI",
    "state_id": "8",
    "state_name": "BORNO",
    "location": {
      "latitude": 11.8516589,
      "longitude": 13.1730533,
      "viewport": {
        "northeast": {
          "lat": 11.85285162989272,
          "lng": 13.17433537989272
        },
        "southwest": {
          "lat": 11.85015197010728,
          "lng": 13.17163572010728
        }
      },
      "formatted_address": "V52F+M67, Gamboru 600282, Maiduguri, Nigeria",
      "google_map_url": "https://maps.google.com?q=11.8516589,13.1730533",
      "google_place_id": "ChIJkeIqZZyfBBERtEnDxcGeytU"
    }
  },
  {
    "id": "35766",
    "name": "GONI YETCHARI I",
    "registration_area_id": "1949",
    "precise_location": null,
    "abbreviation": "004",
    "units": "004",
    "delimitation": "08/26/02/004",
    "remark": "EXISTING PU",
    "ward_id": "1949",
    "ward_name": "BADU",
    "local_government_id": "167",
    "local_government_name": "NGANZAI",
    "state_id": "8",
    "state_name": "BORNO",
    "location": {
      "latitude": 11.8470382,
      "longitude": 13.149646,
      "viewport": {
        "northeast": {
          "lat": 11.84812472989272,
          "lng": 13.15109947989272
        },
        "southwest": {
          "lat": 11.84542507010728,
          "lng": 13.14839982010728
        }
      },
      "formatted_address": "R4WX+RV6, Mafoni 600282, Maiduguri, Nigeria",
      "google_map_url": "https://maps.google.com?q=11.8470382,13.149646",
      "google_place_id": "ChIJ4Z5fCeWfBBER-fjLvDtxohY"
    }
  },
  {
    "id": "35767",
    "name": "GONI YETCHARI II",
    "registration_area_id": "1949",
    "precise_location": null,
    "abbreviation": "005",
    "units": "005",
    "delimitation": "08/26/02/005",
    "remark": "EXISTING PU",
    "ward_id": "1949",
    "ward_name": "BADU",
    "local_government_id": "167",
    "local_government_name": "NGANZAI",
    "state_id": "8",
    "state_name": "BORNO",
    "location": {
      "latitude": 11.8470382,
      "longitude": 13.149646,
      "viewport": {
        "northeast": {
          "lat": 11.84812472989272,
          "lng": 13.15109947989272
        },
        "southwest": {
          "lat": 11.84542507010728,
          "lng": 13.14839982010728
        }
      },
      "formatted_address": "R4WX+RV6, Mafoni 600282, Maiduguri, Nigeria",
      "google_map_url": "https://maps.google.com?q=11.8470382,13.149646",
      "google_place_id": "ChIJ4Z5fCeWfBBER-fjLvDtxohY"
    }
  },
  {
    "id": "35768",
    "name": "MALLAM KYARIRI I",
    "registration_area_id": "1949",
    "precise_location": null,
    "abbreviation": "006",
    "units": "006",
    "delimitation": "08/26/02/006",
    "remark": "EXISTING PU",
    "ward_id": "1949",
    "ward_name": "BADU",
    "local_government_id": "167",
    "local_government_name": "NGANZAI",
    "state_id": "8",
    "state_name": "BORNO",
    "location": null
  },
  {
    "id": "35769",
    "name": "MALLAM KYARIRI II",
    "registration_area_id": "1949",
    "precise_location": null,
    "abbreviation": "007",
    "units": "007",
    "delimitation": "08/26/02/007",
    "remark": "EXISTING PU",
    "ward_id": "1949",
    "ward_name": "BADU",
    "local_government_id": "167",
    "local_government_name": "NGANZAI",
    "state_id": "8",
    "state_name": "BORNO",
    "location": null
  },
  {
    "id": "35770",
    "name": "ZA'A BORE HOLE I",
    "registration_area_id": "1949",
    "precise_location": null,
    "abbreviation": "008",
    "units": "008",
    "delimitation": "08/26/02/008",
    "remark": "EXISTING PU",
    "ward_id": "1949",
    "ward_name": "BADU",
    "local_government_id": "167",
    "local_government_name": "NGANZAI",
    "state_id": "8",
    "state_name": "BORNO",
    "location": null
  },
  {
    "id": "35771",
    "name": "ZA'A BORE HOLE II",
    "registration_area_id": "1949",
    "precise_location": null,
    "abbreviation": "009",
    "units": "009",
    "delimitation": "08/26/02/009",
    "remark": "EXISTING PU",
    "ward_id": "1949",
    "ward_name": "BADU",
    "local_government_id": "167",
    "local_government_name": "NGANZAI",
    "state_id": "8",
    "state_name": "BORNO",
    "location": null
  },
  {
    "id": "35772",
    "name": "ZA'A BORE HOLE III",
    "registration_area_id": "1949",
    "precise_location": null,
    "abbreviation": "010",
    "units": "010",
    "delimitation": "08/26/02/010",
    "remark": "EXISTING PU",
    "ward_id": "1949",
    "ward_name": "BADU",
    "local_government_id": "167",
    "local_government_name": "NGANZAI",
    "state_id": "8",
    "state_name": "BORNO",
    "location": null
  }
]