[
  {
    "id": "15789",
    "name": "EKWO CIVIC CENTRE I",
    "registration_area_id": "928",
    "precise_location": null,
    "abbreviation": "001",
    "units": "001",
    "delimitation": "04/13/10/001",
    "remark": "EXISTING PU",
    "ward_id": "928",
    "ward_name": "ENUGWU UKWU  II",
    "local_government_id": "82",
    "local_government_name": "NJIKOKA",
    "state_id": "4",
    "state_name": "ANAMBRA",
    "location": {
      "latitude": 6.169777000000001,
      "longitude": 7.007472600000001,
      "viewport": {
        "northeast": {
          "lat": 6.171037729892722,
          "lng": 7.008864929892722
        },
        "southwest": {
          "lat": 6.168338070107279,
          "lng": 7.006165270107278
        }
      },
      "formatted_address": "5294+WX9, 421106, Enugwu Ukwu, Nigeria",
      "google_map_url": "https://maps.google.com?q=6.169777000000001,7.007472600000001",
      "google_place_id": "ChIJB8lnKaCcQxARoKyEhwyYgA8"
    }
  },
  {
    "id": "15790",
    "name": "EKWO CIVIC CENTRE II",
    "registration_area_id": "928",
    "precise_location": null,
    "abbreviation": "002",
    "units": "002",
    "delimitation": "04/13/10/002",
    "remark": "EXISTING PU",
    "ward_id": "928",
    "ward_name": "ENUGWU UKWU  II",
    "local_government_id": "82",
    "local_government_name": "NJIKOKA",
    "state_id": "4",
    "state_name": "ANAMBRA",
    "location": {
      "latitude": 6.169777000000001,
      "longitude": 7.007472600000001,
      "viewport": {
        "northeast": {
          "lat": 6.171037729892722,
          "lng": 7.008864929892722
        },
        "southwest": {
          "lat": 6.168338070107279,
          "lng": 7.006165270107278
        }
      },
      "formatted_address": "5294+WX9, 421106, Enugwu Ukwu, Nigeria",
      "google_map_url": "https://maps.google.com?q=6.169777000000001,7.007472600000001",
      "google_place_id": "ChIJB8lnKaCcQxARoKyEhwyYgA8"
    }
  },
  {
    "id": "15791",
    "name": "URUEKWO P/S I",
    "registration_area_id": "928",
    "precise_location": null,
    "abbreviation": "003",
    "units": "003",
    "delimitation": "04/13/10/003",
    "remark": "EXISTING PU",
    "ward_id": "928",
    "ward_name": "ENUGWU UKWU  II",
    "local_government_id": "82",
    "local_government_name": "NJIKOKA",
    "state_id": "4",
    "state_name": "ANAMBRA",
    "location": {
      "latitude": 6.1719594,
      "longitude": 7.0303542,
      "viewport": {
        "northeast": {
          "lat": 6.1741559,
          "lng": 7.03438
        },
        "southwest": {
          "lat": 6.170201899999999,
          "lng": 7.025951
        }
      },
      "formatted_address": "Enugwu Ukwu, Nigeria",
      "google_map_url": "https://maps.google.com?q=6.1719594,7.0303542",
      "google_place_id": "ChIJBfWpoaacQxAR8qoUK0NonXQ"
    }
  },
  {
    "id": "15792",
    "name": "URUEKWO P/S II",
    "registration_area_id": "928",
    "precise_location": null,
    "abbreviation": "004",
    "units": "004",
    "delimitation": "04/13/10/004",
    "remark": "EXISTING PU",
    "ward_id": "928",
    "ward_name": "ENUGWU UKWU  II",
    "local_government_id": "82",
    "local_government_name": "NJIKOKA",
    "state_id": "4",
    "state_name": "ANAMBRA",
    "location": {
      "latitude": 6.1809144,
      "longitude": 7.018066999999999,
      "viewport": {
        "northeast": {
          "lat": 6.182243129892722,
          "lng": 7.019401179892721
        },
        "southwest": {
          "lat": 6.179543470107278,
          "lng": 7.016701520107278
        }
      },
      "formatted_address": "52J9+968, 421103, Enugwu Ukwu, Nigeria",
      "google_map_url": "https://maps.google.com?q=6.1809144,7.018066999999999",
      "google_place_id": "ChIJUbUbXqScQxAREH_nZgpcGSk"
    }
  },
  {
    "id": "15793",
    "name": "ADAGBE ABOMINI P/S I",
    "registration_area_id": "928",
    "precise_location": null,
    "abbreviation": "005",
    "units": "005",
    "delimitation": "04/13/10/005",
    "remark": "EXISTING PU",
    "ward_id": "928",
    "ward_name": "ENUGWU UKWU  II",
    "local_government_id": "82",
    "local_government_name": "NJIKOKA",
    "state_id": "4",
    "state_name": "ANAMBRA",
    "location": {
      "latitude": 6.163592200000001,
      "longitude": 7.0109335,
      "viewport": {
        "northeast": {
          "lat": 6.164906929892721,
          "lng": 7.012294179892722
        },
        "southwest": {
          "lat": 6.162207270107277,
          "lng": 7.009594520107278
        }
      },
      "formatted_address": "5276+99X, 420106, Enugwu Ukwu, Nigeria",
      "google_map_url": "https://maps.google.com?q=6.163592200000001,7.0109335",
      "google_place_id": "ChIJg_7UsXudQxARlPTHMR2f5bc"
    }
  },
  {
    "id": "15794",
    "name": "ADAGBE ABOMINI P/S II",
    "registration_area_id": "928",
    "precise_location": null,
    "abbreviation": "006",
    "units": "006",
    "delimitation": "04/13/10/006",
    "remark": "EXISTING PU",
    "ward_id": "928",
    "ward_name": "ENUGWU UKWU  II",
    "local_government_id": "82",
    "local_government_name": "NJIKOKA",
    "state_id": "4",
    "state_name": "ANAMBRA",
    "location": {
      "latitude": 6.163592200000001,
      "longitude": 7.0109335,
      "viewport": {
        "northeast": {
          "lat": 6.164906929892721,
          "lng": 7.012294179892722
        },
        "southwest": {
          "lat": 6.162207270107277,
          "lng": 7.009594520107278
        }
      },
      "formatted_address": "5276+99X, 420106, Enugwu Ukwu, Nigeria",
      "google_map_url": "https://maps.google.com?q=6.163592200000001,7.0109335",
      "google_place_id": "ChIJg_7UsXudQxARlPTHMR2f5bc"
    }
  },
  {
    "id": "15795",
    "name": "EZI EZENTA HALL",
    "registration_area_id": "928",
    "precise_location": null,
    "abbreviation": "007",
    "units": "007",
    "delimitation": "04/13/10/007",
    "remark": "EXISTING PU",
    "ward_id": "928",
    "ward_name": "ENUGWU UKWU  II",
    "local_government_id": "82",
    "local_government_name": "NJIKOKA",
    "state_id": "4",
    "state_name": "ANAMBRA",
    "location": {
      "latitude": 6.1755606,
      "longitude": 7.0106286,
      "viewport": {
        "northeast": {
          "lat": 6.176927179892722,
          "lng": 7.012006479892723
        },
        "southwest": {
          "lat": 6.174227520107278,
          "lng": 7.009306820107279
        }
      },
      "formatted_address": "52G6+66H, Uruogbo Village, Enugwu Ukwu Njikoka L.G, Nofia, Nigeria",
      "google_map_url": "https://maps.google.com?q=6.1755606,7.0106286",
      "google_place_id": "ChIJMRpGy6acQxARhxEbsT0ct5s"
    }
  },
  {
    "id": "15796",
    "name": "EDUPUTA HALL",
    "registration_area_id": "928",
    "precise_location": null,
    "abbreviation": "008",
    "units": "008",
    "delimitation": "04/13/10/008",
    "remark": "EXISTING PU",
    "ward_id": "928",
    "ward_name": "ENUGWU UKWU  II",
    "local_government_id": "82",
    "local_government_name": "NJIKOKA",
    "state_id": "4",
    "state_name": "ANAMBRA",
    "location": {
      "latitude": 6.1755606,
      "longitude": 7.0106286,
      "viewport": {
        "northeast": {
          "lat": 6.176927179892722,
          "lng": 7.012006479892723
        },
        "southwest": {
          "lat": 6.174227520107278,
          "lng": 7.009306820107279
        }
      },
      "formatted_address": "52G6+66H, Uruogbo Village, Enugwu Ukwu Njikoka L.G, Nofia, Nigeria",
      "google_map_url": "https://maps.google.com?q=6.1755606,7.0106286",
      "google_place_id": "ChIJMRpGy6acQxARhxEbsT0ct5s"
    }
  },
  {
    "id": "15797",
    "name": "OBEAGU URUEKWO HALL",
    "registration_area_id": "928",
    "precise_location": null,
    "abbreviation": "009",
    "units": "009",
    "delimitation": "04/13/10/009",
    "remark": "EXISTING PU",
    "ward_id": "928",
    "ward_name": "ENUGWU UKWU  II",
    "local_government_id": "82",
    "local_government_name": "NJIKOKA",
    "state_id": "4",
    "state_name": "ANAMBRA",
    "location": {
      "latitude": 6.1703531,
      "longitude": 7.0005245,
      "viewport": {
        "northeast": {
          "lat": 6.171656129892722,
          "lng": 7.001835929892722
        },
        "southwest": {
          "lat": 6.168956470107278,
          "lng": 6.999136270107278
        }
      },
      "formatted_address": "52C2+46R, Unnamed Road, 421106, Enugwu Ukwu, Nigeria",
      "google_map_url": "https://maps.google.com?q=6.1703531,7.0005245",
      "google_place_id": "ChIJB5ExfwibQxARkI7xBms-9z8"
    }
  },
  {
    "id": "15798",
    "name": "URUEKWO HALL",
    "registration_area_id": "928",
    "precise_location": null,
    "abbreviation": "010",
    "units": "010",
    "delimitation": "04/13/10/010",
    "remark": "EXISTING PU",
    "ward_id": "928",
    "ward_name": "ENUGWU UKWU  II",
    "local_government_id": "82",
    "local_government_name": "NJIKOKA",
    "state_id": "4",
    "state_name": "ANAMBRA",
    "location": {
      "latitude": 6.1703531,
      "longitude": 7.0005245,
      "viewport": {
        "northeast": {
          "lat": 6.171656129892722,
          "lng": 7.001835929892722
        },
        "southwest": {
          "lat": 6.168956470107278,
          "lng": 6.999136270107278
        }
      },
      "formatted_address": "52C2+46R, Unnamed Road, 421106, Enugwu Ukwu, Nigeria",
      "google_map_url": "https://maps.google.com?q=6.1703531,7.0005245",
      "google_place_id": "ChIJB5ExfwibQxARkI7xBms-9z8"
    }
  },
  {
    "id": "15799",
    "name": "UMUOJI VILLAGE SQUARE",
    "registration_area_id": "928",
    "precise_location": null,
    "abbreviation": "011",
    "units": "011",
    "delimitation": "04/13/10/011",
    "remark": "EXISTING PU",
    "ward_id": "928",
    "ward_name": "ENUGWU UKWU  II",
    "local_government_id": "82",
    "local_government_name": "NJIKOKA",
    "state_id": "4",
    "state_name": "ANAMBRA",
    "location": {
      "latitude": 6.1755606,
      "longitude": 7.0106286,
      "viewport": {
        "northeast": {
          "lat": 6.176927179892722,
          "lng": 7.012006479892723
        },
        "southwest": {
          "lat": 6.174227520107278,
          "lng": 7.009306820107279
        }
      },
      "formatted_address": "52G6+66H, Uruogbo Village, Enugwu Ukwu Njikoka L.G, Nofia, Nigeria",
      "google_map_url": "https://maps.google.com?q=6.1755606,7.0106286",
      "google_place_id": "ChIJMRpGy6acQxARhxEbsT0ct5s"
    }
  },
  {
    "id": "15800",
    "name": "EBE-UKWA",
    "registration_area_id": "928",
    "precise_location": null,
    "abbreviation": "012",
    "units": "012",
    "delimitation": "04/13/10/012",
    "remark": "NEW PU",
    "ward_id": "928",
    "ward_name": "ENUGWU UKWU  II",
    "local_government_id": "82",
    "local_government_name": "NJIKOKA",
    "state_id": "4",
    "state_name": "ANAMBRA",
    "location": {
      "latitude": 6.163592200000001,
      "longitude": 7.0109335,
      "viewport": {
        "northeast": {
          "lat": 6.164906929892721,
          "lng": 7.012294179892722
        },
        "southwest": {
          "lat": 6.162207270107277,
          "lng": 7.009594520107278
        }
      },
      "formatted_address": "5276+99X, 420106, Enugwu Ukwu, Nigeria",
      "google_map_url": "https://maps.google.com?q=6.163592200000001,7.0109335",
      "google_place_id": "ChIJg_7UsXudQxARlPTHMR2f5bc"
    }
  },
  {
    "id": "15801",
    "name": "EBE-NGENE URU-EKWO SQAURE",
    "registration_area_id": "928",
    "precise_location": null,
    "abbreviation": "013",
    "units": "013",
    "delimitation": "04/13/10/013",
    "remark": "NEW PU",
    "ward_id": "928",
    "ward_name": "ENUGWU UKWU  II",
    "local_government_id": "82",
    "local_government_name": "NJIKOKA",
    "state_id": "4",
    "state_name": "ANAMBRA",
    "location": {
      "latitude": 6.173441299999999,
      "longitude": 7.014468099999999,
      "viewport": {
        "northeast": {
          "lat": 6.174910779892722,
          "lng": 7.015504529892722
        },
        "southwest": {
          "lat": 6.172211120107278,
          "lng": 7.012804870107278
        }
      },
      "formatted_address": "52F7+9QG, 421106, Enugwu Ukwu, Nigeria",
      "google_map_url": "https://maps.google.com?q=6.173441299999999,7.014468099999999",
      "google_place_id": "ChIJT45or6OcQxAR5lLMTOmeTiM"
    }
  },
  {
    "id": "15802",
    "name": "UMUEGWELUKA HALL",
    "registration_area_id": "928",
    "precise_location": null,
    "abbreviation": "014",
    "units": "014",
    "delimitation": "04/13/10/014",
    "remark": "NEW PU",
    "ward_id": "928",
    "ward_name": "ENUGWU UKWU  II",
    "local_government_id": "82",
    "local_government_name": "NJIKOKA",
    "state_id": "4",
    "state_name": "ANAMBRA",
    "location": {
      "latitude": 6.1755606,
      "longitude": 7.0106286,
      "viewport": {
        "northeast": {
          "lat": 6.176927179892722,
          "lng": 7.012006479892723
        },
        "southwest": {
          "lat": 6.174227520107278,
          "lng": 7.009306820107279
        }
      },
      "formatted_address": "52G6+66H, Uruogbo Village, Enugwu Ukwu Njikoka L.G, Nofia, Nigeria",
      "google_map_url": "https://maps.google.com?q=6.1755606,7.0106286",
      "google_place_id": "ChIJMRpGy6acQxARhxEbsT0ct5s"
    }
  }
]