[
  {
    "id": "64283",
    "name": "EZIALA NGURU VILL. NGURU",
    "registration_area_id": "3488",
    "precise_location": null,
    "abbreviation": "001",
    "units": "001",
    "delimitation": "16/12/06/001",
    "remark": "EXISTING PU",
    "ward_id": "3488",
    "ward_name": "NGURU/UMUOWA",
    "local_government_id": "304",
    "local_government_name": "NGOR OKPALA (UMUNEKE)",
    "state_id": "16",
    "state_name": "IMO",
    "location": {
      "latitude": 5.4192355,
      "longitude": 7.1989496,
      "viewport": {
        "northeast": {
          "lat": 5.500770150000052,
          "lng": 7.226308950000001
        },
        "southwest": {
          "lat": 5.338651949999949,
          "lng": 7.173618749999998
        }
      },
      "formatted_address": "Eziala Rd, Nigeria",
      "google_map_url": "https://maps.google.com?q=5.4192355,7.1989496",
      "google_place_id": "EhJFemlhbGEgUmQsIE5pZ2VyaWEiLiosChQKEgnj-dUBRPFCEBG9YOeOzDPooBIUChIJef5NFh6LQhAR2BGCMoeKcqE"
    }
  },
  {
    "id": "64284",
    "name": "DEV. PRI. SCH. EGBELU NGURU",
    "registration_area_id": "3488",
    "precise_location": null,
    "abbreviation": "002",
    "units": "002",
    "delimitation": "16/12/06/002",
    "remark": "EXISTING PU",
    "ward_id": "3488",
    "ward_name": "NGURU/UMUOWA",
    "local_government_id": "304",
    "local_government_name": "NGOR OKPALA (UMUNEKE)",
    "state_id": "16",
    "state_name": "IMO",
    "location": {
      "latitude": 5.343499599999999,
      "longitude": 7.1509053,
      "viewport": {
        "northeast": {
          "lat": 5.344849279892722,
          "lng": 7.152231079892722
        },
        "southwest": {
          "lat": 5.342149620107278,
          "lng": 7.149531420107278
        }
      },
      "formatted_address": "85V2+98, 460132, Umu Ewere, Nigeria",
      "google_map_url": "https://maps.google.com?q=5.343499599999999,7.1509053",
      "google_place_id": "ChIJJfbdTI6LQhARmyrOFIPJpao"
    }
  },
  {
    "id": "64285",
    "name": "COMM. SCH. UMUOWA I",
    "registration_area_id": "3488",
    "precise_location": null,
    "abbreviation": "003",
    "units": "003",
    "delimitation": "16/12/06/003",
    "remark": "EXISTING PU",
    "ward_id": "3488",
    "ward_name": "NGURU/UMUOWA",
    "local_government_id": "304",
    "local_government_name": "NGOR OKPALA (UMUNEKE)",
    "state_id": "16",
    "state_name": "IMO",
    "location": {
      "latitude": 5.3834737,
      "longitude": 7.1467072,
      "viewport": {
        "northeast": {
          "lat": 5.4062351,
          "lng": 7.171727199999999
        },
        "southwest": {
          "lat": 5.3512247,
          "lng": 7.1058134
        }
      },
      "formatted_address": "Nguru/Umuowa, Nigeria",
      "google_map_url": "https://maps.google.com?q=5.3834737,7.1467072",
      "google_place_id": "ChIJaWl60-P0QhARCXNjuJt8-JY"
    }
  },
  {
    "id": "64286",
    "name": "TOWN SCHOOL NGURU",
    "registration_area_id": "3488",
    "precise_location": null,
    "abbreviation": "004",
    "units": "004",
    "delimitation": "16/12/06/004",
    "remark": "EXISTING PU",
    "ward_id": "3488",
    "ward_name": "NGURU/UMUOWA",
    "local_government_id": "304",
    "local_government_name": "NGOR OKPALA (UMUNEKE)",
    "state_id": "16",
    "state_name": "IMO",
    "location": {
      "latitude": 5.343499599999999,
      "longitude": 7.1509053,
      "viewport": {
        "northeast": {
          "lat": 5.344849279892722,
          "lng": 7.152231079892722
        },
        "southwest": {
          "lat": 5.342149620107278,
          "lng": 7.149531420107278
        }
      },
      "formatted_address": "85V2+98, 460132, Umu Ewere, Nigeria",
      "google_map_url": "https://maps.google.com?q=5.343499599999999,7.1509053",
      "google_place_id": "ChIJJfbdTI6LQhARmyrOFIPJpao"
    }
  },
  {
    "id": "64287",
    "name": "CIVIC CENTRE UMUAGA NGURU",
    "registration_area_id": "3488",
    "precise_location": null,
    "abbreviation": "005",
    "units": "005",
    "delimitation": "16/12/06/005",
    "remark": "EXISTING PU",
    "ward_id": "3488",
    "ward_name": "NGURU/UMUOWA",
    "local_government_id": "304",
    "local_government_name": "NGOR OKPALA (UMUNEKE)",
    "state_id": "16",
    "state_name": "IMO",
    "location": {
      "latitude": 5.3358305,
      "longitude": 7.1498621,
      "viewport": {
        "northeast": {
          "lat": 5.337149679892721,
          "lng": 7.151204579892721
        },
        "southwest": {
          "lat": 5.334450020107277,
          "lng": 7.148504920107277
        }
      },
      "formatted_address": "84PX+8WQ, Unnamed Road, 460132, Umuneke, Nigeria",
      "google_map_url": "https://maps.google.com?q=5.3358305,7.1498621",
      "google_place_id": "ChIJK-0hMhKLQhARxXLD4e3bhDA"
    }
  },
  {
    "id": "64288",
    "name": "CENTRAL SCHOOL UMUOWA",
    "registration_area_id": "3488",
    "precise_location": null,
    "abbreviation": "006",
    "units": "006",
    "delimitation": "16/12/06/006",
    "remark": "EXISTING PU",
    "ward_id": "3488",
    "ward_name": "NGURU/UMUOWA",
    "local_government_id": "304",
    "local_government_name": "NGOR OKPALA (UMUNEKE)",
    "state_id": "16",
    "state_name": "IMO",
    "location": {
      "latitude": 5.406860099999999,
      "longitude": 7.204058700000001,
      "viewport": {
        "northeast": {
          "lat": 5.408392879892722,
          "lng": 7.205364129892721
        },
        "southwest": {
          "lat": 5.405693220107278,
          "lng": 7.202664470107277
        }
      },
      "formatted_address": "C643+PJV, 473119, Umu Iago, Nigeria",
      "google_map_url": "https://maps.google.com?q=5.406860099999999,7.204058700000001",
      "google_place_id": "ChIJ1w19RLzzQhAR9haja1YnuCE"
    }
  },
  {
    "id": "64289",
    "name": "COMM. SCH. UMUOWA II",
    "registration_area_id": "3488",
    "precise_location": null,
    "abbreviation": "007",
    "units": "007",
    "delimitation": "16/12/06/007",
    "remark": "EXISTING PU",
    "ward_id": "3488",
    "ward_name": "NGURU/UMUOWA",
    "local_government_id": "304",
    "local_government_name": "NGOR OKPALA (UMUNEKE)",
    "state_id": "16",
    "state_name": "IMO",
    "location": {
      "latitude": 5.3834737,
      "longitude": 7.1467072,
      "viewport": {
        "northeast": {
          "lat": 5.4062351,
          "lng": 7.171727199999999
        },
        "southwest": {
          "lat": 5.3512247,
          "lng": 7.1058134
        }
      },
      "formatted_address": "Nguru/Umuowa, Nigeria",
      "google_map_url": "https://maps.google.com?q=5.3834737,7.1467072",
      "google_place_id": "ChIJaWl60-P0QhARCXNjuJt8-JY"
    }
  },
  {
    "id": "64290",
    "name": "UMUOWA VILL. HALL",
    "registration_area_id": "3488",
    "precise_location": null,
    "abbreviation": "008",
    "units": "008",
    "delimitation": "16/12/06/008",
    "remark": "EXISTING PU",
    "ward_id": "3488",
    "ward_name": "NGURU/UMUOWA",
    "local_government_id": "304",
    "local_government_name": "NGOR OKPALA (UMUNEKE)",
    "state_id": "16",
    "state_name": "IMO",
    "location": {
      "latitude": 5.3834737,
      "longitude": 7.1467072,
      "viewport": {
        "northeast": {
          "lat": 5.4062351,
          "lng": 7.171727199999999
        },
        "southwest": {
          "lat": 5.3512247,
          "lng": 7.1058134
        }
      },
      "formatted_address": "Nguru/Umuowa, Nigeria",
      "google_map_url": "https://maps.google.com?q=5.3834737,7.1467072",
      "google_place_id": "ChIJaWl60-P0QhARCXNjuJt8-JY"
    }
  },
  {
    "id": "64291",
    "name": "UMUOWA MARKET SQUARE",
    "registration_area_id": "3488",
    "precise_location": null,
    "abbreviation": "009",
    "units": "009",
    "delimitation": "16/12/06/009",
    "remark": "EXISTING PU",
    "ward_id": "3488",
    "ward_name": "NGURU/UMUOWA",
    "local_government_id": "304",
    "local_government_name": "NGOR OKPALA (UMUNEKE)",
    "state_id": "16",
    "state_name": "IMO",
    "location": {
      "latitude": 5.3834737,
      "longitude": 7.1467072,
      "viewport": {
        "northeast": {
          "lat": 5.4062351,
          "lng": 7.171727199999999
        },
        "southwest": {
          "lat": 5.3512247,
          "lng": 7.1058134
        }
      },
      "formatted_address": "Nguru/Umuowa, Nigeria",
      "google_map_url": "https://maps.google.com?q=5.3834737,7.1467072",
      "google_place_id": "ChIJaWl60-P0QhARCXNjuJt8-JY"
    }
  },
  {
    "id": "64292",
    "name": "AMAIBO NGURU VILL. SQ.",
    "registration_area_id": "3488",
    "precise_location": null,
    "abbreviation": "010",
    "units": "010",
    "delimitation": "16/12/06/010",
    "remark": "EXISTING PU",
    "ward_id": "3488",
    "ward_name": "NGURU/UMUOWA",
    "local_government_id": "304",
    "local_government_name": "NGOR OKPALA (UMUNEKE)",
    "state_id": "16",
    "state_name": "IMO",
    "location": {
      "latitude": 5.3744877,
      "longitude": 7.1372838,
      "viewport": {
        "northeast": {
          "lat": 5.391035,
          "lng": 7.145491
        },
        "southwest": {
          "lat": 5.3549239,
          "lng": 7.1199349
        }
      },
      "formatted_address": "Nguru, Nigeria",
      "google_map_url": "https://maps.google.com?q=5.3744877,7.1372838",
      "google_place_id": "ChIJazlNJeD0QhARatlO3d-yV4g"
    }
  },
  {
    "id": "64293",
    "name": "COMM. SCHOOL UMUOWA III",
    "registration_area_id": "3488",
    "precise_location": null,
    "abbreviation": "011",
    "units": "011",
    "delimitation": "16/12/06/011",
    "remark": "EXISTING PU",
    "ward_id": "3488",
    "ward_name": "NGURU/UMUOWA",
    "local_government_id": "304",
    "local_government_name": "NGOR OKPALA (UMUNEKE)",
    "state_id": "16",
    "state_name": "IMO",
    "location": {
      "latitude": 5.3834737,
      "longitude": 7.1467072,
      "viewport": {
        "northeast": {
          "lat": 5.4062351,
          "lng": 7.171727199999999
        },
        "southwest": {
          "lat": 5.3512247,
          "lng": 7.1058134
        }
      },
      "formatted_address": "Nguru/Umuowa, Nigeria",
      "google_map_url": "https://maps.google.com?q=5.3834737,7.1467072",
      "google_place_id": "ChIJaWl60-P0QhARCXNjuJt8-JY"
    }
  },
  {
    "id": "64294",
    "name": "EGBELU NGURU MEMORIAL CIVIC HALL",
    "registration_area_id": "3488",
    "precise_location": null,
    "abbreviation": "012",
    "units": "012",
    "delimitation": "16/12/06/012",
    "remark": "NEW PU",
    "ward_id": "3488",
    "ward_name": "NGURU/UMUOWA",
    "local_government_id": "304",
    "local_government_name": "NGOR OKPALA (UMUNEKE)",
    "state_id": "16",
    "state_name": "IMO",
    "location": {
      "latitude": 5.343499599999999,
      "longitude": 7.1509053,
      "viewport": {
        "northeast": {
          "lat": 5.344849279892722,
          "lng": 7.152231079892722
        },
        "southwest": {
          "lat": 5.342149620107278,
          "lng": 7.149531420107278
        }
      },
      "formatted_address": "85V2+98, 460132, Umu Ewere, Nigeria",
      "google_map_url": "https://maps.google.com?q=5.343499599999999,7.1509053",
      "google_place_id": "ChIJJfbdTI6LQhARmyrOFIPJpao"
    }
  },
  {
    "id": "64295",
    "name": "AHIA FOUR MKT. SQ. UMUAGA NGURU",
    "registration_area_id": "3488",
    "precise_location": null,
    "abbreviation": "013",
    "units": "013",
    "delimitation": "16/12/06/013",
    "remark": "NEW PU",
    "ward_id": "3488",
    "ward_name": "NGURU/UMUOWA",
    "local_government_id": "304",
    "local_government_name": "NGOR OKPALA (UMUNEKE)",
    "state_id": "16",
    "state_name": "IMO",
    "location": {
      "latitude": 5.2948952,
      "longitude": 7.250864899999999,
      "viewport": {
        "northeast": {
          "lat": 5.295597879892722,
          "lng": 7.252474829892721
        },
        "southwest": {
          "lat": 5.292898220107278,
          "lng": 7.249775170107277
        }
      },
      "formatted_address": "77V2+X85, 460120, Eziama, Nigeria",
      "google_map_url": "https://maps.google.com?q=5.2948952,7.250864899999999",
      "google_place_id": "ChIJsy29bpGNQhARPj65e3HG9HY"
    }
  },
  {
    "id": "64296",
    "name": "COMMUNITY COMP. SEC. SCH. UMUOWA",
    "registration_area_id": "3488",
    "precise_location": null,
    "abbreviation": "014",
    "units": "014",
    "delimitation": "16/12/06/014",
    "remark": "NEW PU",
    "ward_id": "3488",
    "ward_name": "NGURU/UMUOWA",
    "local_government_id": "304",
    "local_government_name": "NGOR OKPALA (UMUNEKE)",
    "state_id": "16",
    "state_name": "IMO",
    "location": {
      "latitude": 5.3385111,
      "longitude": 7.1489919,
      "viewport": {
        "northeast": {
          "lat": 5.339885329892723,
          "lng": 7.150260479892721
        },
        "southwest": {
          "lat": 5.337185670107279,
          "lng": 7.147560820107278
        }
      },
      "formatted_address": "opposite customary court umuneke ngor, Ngor Okpala St, Owerri, Nigeria",
      "google_map_url": "https://maps.google.com?q=5.3385111,7.1489919",
      "google_place_id": "ChIJ2RDyvpaLQhARy923nxIh8dA"
    }
  },
  {
    "id": "64297",
    "name": "AMAIBO CIVIC HALL",
    "registration_area_id": "3488",
    "precise_location": null,
    "abbreviation": "015",
    "units": "015",
    "delimitation": "16/12/06/015",
    "remark": "NEW PU",
    "ward_id": "3488",
    "ward_name": "NGURU/UMUOWA",
    "local_government_id": "304",
    "local_government_name": "NGOR OKPALA (UMUNEKE)",
    "state_id": "16",
    "state_name": "IMO",
    "location": {
      "latitude": 5.2948952,
      "longitude": 7.250864899999999,
      "viewport": {
        "northeast": {
          "lat": 5.295597879892722,
          "lng": 7.252474829892721
        },
        "southwest": {
          "lat": 5.292898220107278,
          "lng": 7.249775170107277
        }
      },
      "formatted_address": "77V2+X85, 460120, Eziama, Nigeria",
      "google_map_url": "https://maps.google.com?q=5.2948952,7.250864899999999",
      "google_place_id": "ChIJsy29bpGNQhARPj65e3HG9HY"
    }
  }
]