[
  {
    "id": "67744",
    "name": "PRI. SCH. BUJI",
    "registration_area_id": "3701",
    "precise_location": null,
    "abbreviation": "001",
    "units": "001",
    "delimitation": "17/05/02/001",
    "remark": "EXISTING PU",
    "ward_id": "3701",
    "ward_name": "BUJI",
    "local_government_id": "324",
    "local_government_name": "BUJI",
    "state_id": "17",
    "state_name": "JIGAWA",
    "location": {
      "latitude": 11.5199442,
      "longitude": 9.669138199999999,
      "viewport": {
        "northeast": {
          "lat": 11.52129947989272,
          "lng": 9.670486629892721
        },
        "southwest": {
          "lat": 11.51859982010728,
          "lng": 9.667786970107278
        }
      },
      "formatted_address": "GM99+XMC, 721103, Chakwama, Nigeria",
      "google_map_url": "https://maps.google.com?q=11.5199442,9.669138199999999",
      "google_place_id": "ChIJ97d18fK4qxER2I7MZd3ZETs"
    }
  },
  {
    "id": "67745",
    "name": "PRI. SCH. BUJI AREWA",
    "registration_area_id": "3701",
    "precise_location": null,
    "abbreviation": "002",
    "units": "002",
    "delimitation": "17/05/02/002",
    "remark": "EXISTING PU",
    "ward_id": "3701",
    "ward_name": "BUJI",
    "local_government_id": "324",
    "local_government_name": "BUJI",
    "state_id": "17",
    "state_name": "JIGAWA",
    "location": {
      "latitude": 11.5384339,
      "longitude": 9.7644907,
      "viewport": {
        "northeast": {
          "lat": 11.53955402989272,
          "lng": 9.766107679892722
        },
        "southwest": {
          "lat": 11.53685437010728,
          "lng": 9.763408020107278
        }
      },
      "formatted_address": "GQQ7+9QH, 751108, Gantsa, Nigeria",
      "google_map_url": "https://maps.google.com?q=11.5384339,9.7644907",
      "google_place_id": "ChIJYwxGUNS3qxER5zbA5ggyGqw"
    }
  },
  {
    "id": "67746",
    "name": "PRI. SCH. CHAKWAMA",
    "registration_area_id": "3701",
    "precise_location": null,
    "abbreviation": "003",
    "units": "003",
    "delimitation": "17/05/02/003",
    "remark": "EXISTING PU",
    "ward_id": "3701",
    "ward_name": "BUJI",
    "local_government_id": "324",
    "local_government_name": "BUJI",
    "state_id": "17",
    "state_name": "JIGAWA",
    "location": {
      "latitude": 11.5593992,
      "longitude": 9.6664266,
      "viewport": {
        "northeast": {
          "lat": 11.56061452989272,
          "lng": 9.667643629892723
        },
        "southwest": {
          "lat": 11.55791487010728,
          "lng": 9.664943970107279
        }
      },
      "formatted_address": "HM58+QHV, 721103, Chakwama, Nigeria",
      "google_map_url": "https://maps.google.com?q=11.5593992,9.6664266",
      "google_place_id": "ChIJ94GxMG7HqxERGvEP_BSP71Q"
    }
  },
  {
    "id": "67747",
    "name": "K/GIDAN MAI-UNGUWA KAFIN-ALHAJI",
    "registration_area_id": "3701",
    "precise_location": null,
    "abbreviation": "004",
    "units": "004",
    "delimitation": "17/05/02/004",
    "remark": "EXISTING PU",
    "ward_id": "3701",
    "ward_name": "BUJI",
    "local_government_id": "324",
    "local_government_name": "BUJI",
    "state_id": "17",
    "state_name": "JIGAWA",
    "location": null
  },
  {
    "id": "67748",
    "name": "K/GIDAN MAI-UNGUWA JIGAWAR TSAGE",
    "registration_area_id": "3701",
    "precise_location": null,
    "abbreviation": "005",
    "units": "005",
    "delimitation": "17/05/02/005",
    "remark": "EXISTING PU",
    "ward_id": "3701",
    "ward_name": "BUJI",
    "local_government_id": "324",
    "local_government_name": "BUJI",
    "state_id": "17",
    "state_name": "JIGAWA",
    "location": null
  },
  {
    "id": "67749",
    "name": "K/GIDAN MAI-UNGUWA BALANGORI",
    "registration_area_id": "3701",
    "precise_location": null,
    "abbreviation": "006",
    "units": "006",
    "delimitation": "17/05/02/006",
    "remark": "EXISTING PU",
    "ward_id": "3701",
    "ward_name": "BUJI",
    "local_government_id": "324",
    "local_government_name": "BUJI",
    "state_id": "17",
    "state_name": "JIGAWA",
    "location": null
  },
  {
    "id": "67750",
    "name": "PRY SCH BUJI YAMMA",
    "registration_area_id": "3701",
    "precise_location": null,
    "abbreviation": "007",
    "units": "007",
    "delimitation": "17/05/02/007",
    "remark": "EXISTING PU",
    "ward_id": "3701",
    "ward_name": "BUJI",
    "local_government_id": "324",
    "local_government_name": "BUJI",
    "state_id": "17",
    "state_name": "JIGAWA",
    "location": {
      "latitude": 11.837425,
      "longitude": 9.232916999999999,
      "viewport": {
        "northeast": {
          "lat": 11.838292,
          "lng": 9.234753229892723
        },
        "southwest": {
          "lat": 11.834824,
          "lng": 9.23205357010728
        }
      },
      "formatted_address": "R6PM+X57, 720221, Duru, Nigeria",
      "google_map_url": "https://maps.google.com?q=11.837425,9.232916999999999",
      "google_place_id": "ChIJyy6rySn_qxERTDByIBAmvn8"
    }
  },
  {
    "id": "67751",
    "name": "JUNIOR SEC. SCH. BUJI",
    "registration_area_id": "3701",
    "precise_location": null,
    "abbreviation": "008",
    "units": "008",
    "delimitation": "17/05/02/008",
    "remark": "NEW PU",
    "ward_id": "3701",
    "ward_name": "BUJI",
    "local_government_id": "324",
    "local_government_name": "BUJI",
    "state_id": "17",
    "state_name": "JIGAWA",
    "location": {
      "latitude": 11.432436,
      "longitude": 9.655295299999999,
      "viewport": {
        "northeast": {
          "lat": 11.43405257989272,
          "lng": 9.656525629892721
        },
        "southwest": {
          "lat": 11.43135292010728,
          "lng": 9.653825970107277
        }
      },
      "formatted_address": "CMJ4+X4F, 751108, Wurnu, Nigeria",
      "google_map_url": "https://maps.google.com?q=11.432436,9.655295299999999",
      "google_place_id": "ChIJcy2JTpW7qxERskqR3bW2PeU"
    }
  },
  {
    "id": "67752",
    "name": "BHC CHAKWAMA",
    "registration_area_id": "3701",
    "precise_location": null,
    "abbreviation": "009",
    "units": "009",
    "delimitation": "17/05/02/009",
    "remark": "NEW PU",
    "ward_id": "3701",
    "ward_name": "BUJI",
    "local_government_id": "324",
    "local_government_name": "BUJI",
    "state_id": "17",
    "state_name": "JIGAWA",
    "location": {
      "latitude": 11.5601258,
      "longitude": 9.6660339,
      "viewport": {
        "northeast": {
          "lat": 11.56145757989272,
          "lng": 9.66724562989272
        },
        "southwest": {
          "lat": 11.55875792010728,
          "lng": 9.664545970107277
        }
      },
      "formatted_address": "HM68+3C3, 721103, Chakwama, Nigeria",
      "google_map_url": "https://maps.google.com?q=11.5601258,9.6660339",
      "google_place_id": "ChIJ-a6COd_HqxERnQ9TIfb_g8Q"
    }
  },
  {
    "id": "67753",
    "name": "CHAKWAMA YAMMA ISILAMIYA SCH.",
    "registration_area_id": "3701",
    "precise_location": null,
    "abbreviation": "010",
    "units": "010",
    "delimitation": "17/05/02/010",
    "remark": "NEW PU",
    "ward_id": "3701",
    "ward_name": "BUJI",
    "local_government_id": "324",
    "local_government_name": "BUJI",
    "state_id": "17",
    "state_name": "JIGAWA",
    "location": {
      "latitude": 11.432436,
      "longitude": 9.655295299999999,
      "viewport": {
        "northeast": {
          "lat": 11.43405257989272,
          "lng": 9.656525629892721
        },
        "southwest": {
          "lat": 11.43135292010728,
          "lng": 9.653825970107277
        }
      },
      "formatted_address": "CMJ4+X4F, 751108, Wurnu, Nigeria",
      "google_map_url": "https://maps.google.com?q=11.432436,9.655295299999999",
      "google_place_id": "ChIJcy2JTpW7qxERskqR3bW2PeU"
    }
  }
]