[
  {
    "id": "59778",
    "name": "LOYEL, LOYEL PRI. SCH. I",
    "registration_area_id": "3252",
    "precise_location": null,
    "abbreviation": "001",
    "units": "001",
    "delimitation": "15/02/07/001",
    "remark": "EXISTING PU",
    "ward_id": "3252",
    "ward_name": "MWONA",
    "local_government_id": "283",
    "local_government_name": "BALANGA",
    "state_id": "15",
    "state_name": "GOMBE",
    "location": {
      "latitude": 10.2797523,
      "longitude": 11.1793378,
      "viewport": {
        "northeast": {
          "lat": 10.28114742989272,
          "lng": 11.18065647989272
        },
        "southwest": {
          "lat": 10.27844777010728,
          "lng": 11.17795682010728
        }
      },
      "formatted_address": "Bolari Quarters, State Low Cost Rd, 760251, Gombe, Nigeria",
      "google_map_url": "https://maps.google.com?q=10.2797523,11.1793378",
      "google_place_id": "ChIJKX3V_2XQ_xARmyJpjXqYgyY"
    }
  },
  {
    "id": "59779",
    "name": "LOYEL, LOYEL PRI. SCH. II",
    "registration_area_id": "3252",
    "precise_location": null,
    "abbreviation": "002",
    "units": "002",
    "delimitation": "15/02/07/002",
    "remark": "EXISTING PU",
    "ward_id": "3252",
    "ward_name": "MWONA",
    "local_government_id": "283",
    "local_government_name": "BALANGA",
    "state_id": "15",
    "state_name": "GOMBE",
    "location": {
      "latitude": 9.9450725,
      "longitude": 11.5930268,
      "viewport": {
        "northeast": {
          "lat": 9.946865829892722,
          "lng": 11.59455652989272
        },
        "southwest": {
          "lat": 9.944166170107279,
          "lng": 11.59185687010728
        }
      },
      "formatted_address": "WHWV+26C, 761105, Galengo, Nigeria",
      "google_map_url": "https://maps.google.com?q=9.9450725,11.5930268",
      "google_place_id": "ChIJvXOkR0FF_hAR2qJv11KAM40"
    }
  },
  {
    "id": "59780",
    "name": "JUBLANG  I, MWONA PRI. SCH.",
    "registration_area_id": "3252",
    "precise_location": null,
    "abbreviation": "003",
    "units": "003",
    "delimitation": "15/02/07/003",
    "remark": "EXISTING PU",
    "ward_id": "3252",
    "ward_name": "MWONA",
    "local_government_id": "283",
    "local_government_name": "BALANGA",
    "state_id": "15",
    "state_name": "GOMBE",
    "location": {
      "latitude": 9.9450725,
      "longitude": 11.5930268,
      "viewport": {
        "northeast": {
          "lat": 9.946865829892722,
          "lng": 11.59455652989272
        },
        "southwest": {
          "lat": 9.944166170107279,
          "lng": 11.59185687010728
        }
      },
      "formatted_address": "WHWV+26C, 761105, Galengo, Nigeria",
      "google_map_url": "https://maps.google.com?q=9.9450725,11.5930268",
      "google_place_id": "ChIJvXOkR0FF_hAR2qJv11KAM40"
    }
  },
  {
    "id": "59781",
    "name": "JUBLANG  II, MWONA PRI. SCH.",
    "registration_area_id": "3252",
    "precise_location": null,
    "abbreviation": "004",
    "units": "004",
    "delimitation": "15/02/07/004",
    "remark": "EXISTING PU",
    "ward_id": "3252",
    "ward_name": "MWONA",
    "local_government_id": "283",
    "local_government_name": "BALANGA",
    "state_id": "15",
    "state_name": "GOMBE",
    "location": {
      "latitude": 9.9450725,
      "longitude": 11.5930268,
      "viewport": {
        "northeast": {
          "lat": 9.946865829892722,
          "lng": 11.59455652989272
        },
        "southwest": {
          "lat": 9.944166170107279,
          "lng": 11.59185687010728
        }
      },
      "formatted_address": "WHWV+26C, 761105, Galengo, Nigeria",
      "google_map_url": "https://maps.google.com?q=9.9450725,11.5930268",
      "google_place_id": "ChIJvXOkR0FF_hAR2qJv11KAM40"
    }
  },
  {
    "id": "59782",
    "name": "BARE, BARE PRI. SCH.",
    "registration_area_id": "3252",
    "precise_location": null,
    "abbreviation": "005",
    "units": "005",
    "delimitation": "15/02/07/005",
    "remark": "EXISTING PU",
    "ward_id": "3252",
    "ward_name": "MWONA",
    "local_government_id": "283",
    "local_government_name": "BALANGA",
    "state_id": "15",
    "state_name": "GOMBE",
    "location": {
      "latitude": 10.2126626,
      "longitude": 11.3846018,
      "viewport": {
        "northeast": {
          "lat": 10.21404042989272,
          "lng": 11.38601617989272
        },
        "southwest": {
          "lat": 10.21134077010728,
          "lng": 11.38331652010728
        }
      },
      "formatted_address": "697M+3RF, 761121, Deba Habe, Nigeria",
      "google_map_url": "https://maps.google.com?q=10.2126626,11.3846018",
      "google_place_id": "ChIJS0J4Yysz_hARNbupwizXtLo"
    }
  },
  {
    "id": "59783",
    "name": "DUNGAJE, DANGAJE  PRI. SCH.",
    "registration_area_id": "3252",
    "precise_location": null,
    "abbreviation": "006",
    "units": "006",
    "delimitation": "15/02/07/006",
    "remark": "EXISTING PU",
    "ward_id": "3252",
    "ward_name": "MWONA",
    "local_government_id": "283",
    "local_government_name": "BALANGA",
    "state_id": "15",
    "state_name": "GOMBE",
    "location": {
      "latitude": 10.3001756,
      "longitude": 11.1702351,
      "viewport": {
        "northeast": {
          "lat": 10.30140642989272,
          "lng": 11.17154482989272
        },
        "southwest": {
          "lat": 10.29870677010728,
          "lng": 11.16884517010728
        }
      },
      "formatted_address": "852C+33H, 760253, Gombe, Nigeria",
      "google_map_url": "https://maps.google.com?q=10.3001756,11.1702351",
      "google_place_id": "ChIJ18K0AcbR_xARgtXx_FIyNWE"
    }
  },
  {
    "id": "59784",
    "name": "DUNGAJE, K. DAUKADI",
    "registration_area_id": "3252",
    "precise_location": null,
    "abbreviation": "007",
    "units": "007",
    "delimitation": "15/02/07/007",
    "remark": "EXISTING PU",
    "ward_id": "3252",
    "ward_name": "MWONA",
    "local_government_id": "283",
    "local_government_name": "BALANGA",
    "state_id": "15",
    "state_name": "GOMBE",
    "location": {
      "latitude": 10.3211931,
      "longitude": 11.481479,
      "viewport": {
        "northeast": {
          "lat": 10.32254292989272,
          "lng": 11.48282882989272
        },
        "southwest": {
          "lat": 10.31984327010728,
          "lng": 11.48012917010728
        }
      },
      "formatted_address": "8FCJ+FHH, 761121, Nigeria",
      "google_map_url": "https://maps.google.com?q=10.3211931,11.481479",
      "google_place_id": "ChIJizCa3Sov_hARsDXXGp4Bwto"
    }
  },
  {
    "id": "59785",
    "name": "FITILAI, FITILAI PRI. SCH.",
    "registration_area_id": "3252",
    "precise_location": null,
    "abbreviation": "008",
    "units": "008",
    "delimitation": "15/02/07/008",
    "remark": "EXISTING PU",
    "ward_id": "3252",
    "ward_name": "MWONA",
    "local_government_id": "283",
    "local_government_name": "BALANGA",
    "state_id": "15",
    "state_name": "GOMBE",
    "location": {
      "latitude": 10.1769575,
      "longitude": 12.8561082,
      "viewport": {
        "northeast": {
          "lat": 10.17864577989272,
          "lng": 12.85743297989272
        },
        "southwest": {
          "lat": 10.17594612010728,
          "lng": 12.85473332010728
        }
      },
      "formatted_address": "5VG4+QCQ, 650108, Fulani, Nigeria",
      "google_map_url": "https://maps.google.com?q=10.1769575,12.8561082",
      "google_place_id": "ChIJ3xNOQXl3_RARclK7RUUp-k0"
    }
  },
  {
    "id": "59786",
    "name": "KUTARE, KUTARE PRI. SCH.",
    "registration_area_id": "3252",
    "precise_location": null,
    "abbreviation": "009",
    "units": "009",
    "delimitation": "15/02/07/009",
    "remark": "EXISTING PU",
    "ward_id": "3252",
    "ward_name": "MWONA",
    "local_government_id": "283",
    "local_government_name": "BALANGA",
    "state_id": "15",
    "state_name": "GOMBE",
    "location": {
      "latitude": 43.6392682,
      "longitude": -79.5489458,
      "viewport": {
        "northeast": {
          "lat": 43.64060682989273,
          "lng": -79.54749332010728
        },
        "southwest": {
          "lat": 43.63790717010728,
          "lng": -79.55019297989273
        }
      },
      "formatted_address": "3962 Bloor St W, Toronto, ON M9B 1M3, Canada",
      "google_map_url": "https://maps.google.com?q=43.6392682,-79.5489458",
      "google_place_id": "ChIJw5MvGmg3K4gRyhDYJVRMv6k"
    }
  },
  {
    "id": "59787",
    "name": "BULAR, BULA PRI. SCH.",
    "registration_area_id": "3252",
    "precise_location": null,
    "abbreviation": "010",
    "units": "010",
    "delimitation": "15/02/07/010",
    "remark": "EXISTING PU",
    "ward_id": "3252",
    "ward_name": "MWONA",
    "local_government_id": "283",
    "local_government_name": "BALANGA",
    "state_id": "15",
    "state_name": "GOMBE",
    "location": {
      "latitude": 10.3714883,
      "longitude": 10.9874345,
      "viewport": {
        "northeast": {
          "lat": 10.37288477989272,
          "lng": 10.98855042989272
        },
        "southwest": {
          "lat": 10.37018512010728,
          "lng": 10.98585077010728
        }
      },
      "formatted_address": "9XCP+HXV, 760102, Wurisato, Nigeria",
      "google_map_url": "https://maps.google.com?q=10.3714883,10.9874345",
      "google_place_id": "ChIJi26OyyXe_xARDl9HyuvlbM4"
    }
  },
  {
    "id": "59788",
    "name": "LAKUM, LAKUM PRI. SCH.",
    "registration_area_id": "3252",
    "precise_location": null,
    "abbreviation": "011",
    "units": "011",
    "delimitation": "15/02/07/011",
    "remark": "EXISTING PU",
    "ward_id": "3252",
    "ward_name": "MWONA",
    "local_government_id": "283",
    "local_government_name": "BALANGA",
    "state_id": "15",
    "state_name": "GOMBE",
    "location": {
      "latitude": 10.3036119,
      "longitude": 11.1899996,
      "viewport": {
        "northeast": {
          "lat": 10.30492157989272,
          "lng": 11.19134302989272
        },
        "southwest": {
          "lat": 10.30222192010728,
          "lng": 11.18864337010728
        }
      },
      "formatted_address": "853Q+CXX, 760253, Gombe, Nigeria",
      "google_map_url": "https://maps.google.com?q=10.3036119,11.1899996",
      "google_place_id": "ChIJ59B5KuzQ_xARF3D3wBliB9I"
    }
  },
  {
    "id": "59789",
    "name": "KWARGE, KWARGE PRI. SCH. I",
    "registration_area_id": "3252",
    "precise_location": null,
    "abbreviation": "012",
    "units": "012",
    "delimitation": "15/02/07/012",
    "remark": "EXISTING PU",
    "ward_id": "3252",
    "ward_name": "MWONA",
    "local_government_id": "283",
    "local_government_name": "BALANGA",
    "state_id": "15",
    "state_name": "GOMBE",
    "location": {
      "latitude": 10.2797523,
      "longitude": 11.1793378,
      "viewport": {
        "northeast": {
          "lat": 10.28114742989272,
          "lng": 11.18065647989272
        },
        "southwest": {
          "lat": 10.27844777010728,
          "lng": 11.17795682010728
        }
      },
      "formatted_address": "Bolari Quarters, State Low Cost Rd, 760251, Gombe, Nigeria",
      "google_map_url": "https://maps.google.com?q=10.2797523,11.1793378",
      "google_place_id": "ChIJKX3V_2XQ_xARmyJpjXqYgyY"
    }
  },
  {
    "id": "59790",
    "name": "KWARGE, KWARGE PRI. SCH. II",
    "registration_area_id": "3252",
    "precise_location": null,
    "abbreviation": "013",
    "units": "013",
    "delimitation": "15/02/07/013",
    "remark": "EXISTING PU",
    "ward_id": "3252",
    "ward_name": "MWONA",
    "local_government_id": "283",
    "local_government_name": "BALANGA",
    "state_id": "15",
    "state_name": "GOMBE",
    "location": {
      "latitude": 9.9450725,
      "longitude": 11.5930268,
      "viewport": {
        "northeast": {
          "lat": 9.946865829892722,
          "lng": 11.59455652989272
        },
        "southwest": {
          "lat": 9.944166170107279,
          "lng": 11.59185687010728
        }
      },
      "formatted_address": "WHWV+26C, 761105, Galengo, Nigeria",
      "google_map_url": "https://maps.google.com?q=9.9450725,11.5930268",
      "google_place_id": "ChIJvXOkR0FF_hAR2qJv11KAM40"
    }
  },
  {
    "id": "59791",
    "name": "TASHAN KWANI, KWANI TASHA",
    "registration_area_id": "3252",
    "precise_location": null,
    "abbreviation": "014",
    "units": "014",
    "delimitation": "15/02/07/014",
    "remark": "EXISTING PU",
    "ward_id": "3252",
    "ward_name": "MWONA",
    "local_government_id": "283",
    "local_government_name": "BALANGA",
    "state_id": "15",
    "state_name": "GOMBE",
    "location": null
  },
  {
    "id": "59792",
    "name": "SILON, SILON K. MAI UNG.",
    "registration_area_id": "3252",
    "precise_location": null,
    "abbreviation": "015",
    "units": "015",
    "delimitation": "15/02/07/015",
    "remark": "EXISTING PU",
    "ward_id": "3252",
    "ward_name": "MWONA",
    "local_government_id": "283",
    "local_government_name": "BALANGA",
    "state_id": "15",
    "state_name": "GOMBE",
    "location": null
  },
  {
    "id": "59793",
    "name": "SILON, SILON K. MAI UNG.",
    "registration_area_id": "3252",
    "precise_location": null,
    "abbreviation": "016",
    "units": "016",
    "delimitation": "15/02/07/016",
    "remark": "EXISTING PU",
    "ward_id": "3252",
    "ward_name": "MWONA",
    "local_government_id": "283",
    "local_government_name": "BALANGA",
    "state_id": "15",
    "state_name": "GOMBE",
    "location": null
  },
  {
    "id": "59794",
    "name": "FUMUR, K. MAI UNG. TOMA",
    "registration_area_id": "3252",
    "precise_location": null,
    "abbreviation": "017",
    "units": "017",
    "delimitation": "15/02/07/017",
    "remark": "EXISTING PU",
    "ward_id": "3252",
    "ward_name": "MWONA",
    "local_government_id": "283",
    "local_government_name": "BALANGA",
    "state_id": "15",
    "state_name": "GOMBE",
    "location": {
      "latitude": 10.3042948,
      "longitude": 11.172793,
      "viewport": {
        "northeast": {
          "lat": 10.30544982989272,
          "lng": 11.17432297989272
        },
        "southwest": {
          "lat": 10.30275017010728,
          "lng": 11.17162332010728
        }
      },
      "formatted_address": "853F+P47 Gombe State University, 760253, Gombe, Nigeria",
      "google_map_url": "https://maps.google.com?q=10.3042948,11.172793",
      "google_place_id": "ChIJZdb3_JDQ_xAR2teAtUSwrNU"
    }
  },
  {
    "id": "59795",
    "name": "KUTARE PRI SCH",
    "registration_area_id": "3252",
    "precise_location": null,
    "abbreviation": "018",
    "units": "018",
    "delimitation": "15/02/07/018",
    "remark": "NEW PU",
    "ward_id": "3252",
    "ward_name": "MWONA",
    "local_government_id": "283",
    "local_government_name": "BALANGA",
    "state_id": "15",
    "state_name": "GOMBE",
    "location": null
  },
  {
    "id": "59796",
    "name": "FITILAI MARKET",
    "registration_area_id": "3252",
    "precise_location": null,
    "abbreviation": "019",
    "units": "019",
    "delimitation": "15/02/07/019",
    "remark": "NEW PU",
    "ward_id": "3252",
    "ward_name": "MWONA",
    "local_government_id": "283",
    "local_government_name": "BALANGA",
    "state_id": "15",
    "state_name": "GOMBE",
    "location": {
      "latitude": 10.2764886,
      "longitude": 11.2829266,
      "viewport": {
        "northeast": {
          "lat": 10.27783582989272,
          "lng": 11.28428412989272
        },
        "southwest": {
          "lat": 10.27513617010728,
          "lng": 11.28158447010728
        }
      },
      "formatted_address": "77GM+H5V, 761102, Gombe, Nigeria",
      "google_map_url": "https://maps.google.com?q=10.2764886,11.2829266",
      "google_place_id": "ChIJfQBnck_S_xARN8LMw8zKD60"
    }
  },
  {
    "id": "59797",
    "name": "KWARGE MATERNITY",
    "registration_area_id": "3252",
    "precise_location": null,
    "abbreviation": "020",
    "units": "020",
    "delimitation": "15/02/07/020",
    "remark": "NEW PU",
    "ward_id": "3252",
    "ward_name": "MWONA",
    "local_government_id": "283",
    "local_government_name": "BALANGA",
    "state_id": "15",
    "state_name": "GOMBE",
    "location": {
      "latitude": 9.9450725,
      "longitude": 11.5930268,
      "viewport": {
        "northeast": {
          "lat": 9.946865829892722,
          "lng": 11.59455652989272
        },
        "southwest": {
          "lat": 9.944166170107279,
          "lng": 11.59185687010728
        }
      },
      "formatted_address": "WHWV+26C, 761105, Galengo, Nigeria",
      "google_map_url": "https://maps.google.com?q=9.9450725,11.5930268",
      "google_place_id": "ChIJvXOkR0FF_hAR2qJv11KAM40"
    }
  },
  {
    "id": "59798",
    "name": "BAKIN KASUWA",
    "registration_area_id": "3252",
    "precise_location": null,
    "abbreviation": "021",
    "units": "021",
    "delimitation": "15/02/07/021",
    "remark": "NEW PU",
    "ward_id": "3252",
    "ward_name": "MWONA",
    "local_government_id": "283",
    "local_government_name": "BALANGA",
    "state_id": "15",
    "state_name": "GOMBE",
    "location": {
      "latitude": 10.158117,
      "longitude": 11.445463,
      "viewport": {
        "northeast": {
          "lat": 10.15947437989272,
          "lng": 11.44686927989272
        },
        "southwest": {
          "lat": 10.15677472010728,
          "lng": 11.44416962010728
        }
      },
      "formatted_address": "5C5W+65W, 761113, Lano, Nigeria",
      "google_map_url": "https://maps.google.com?q=10.158117,11.445463",
      "google_place_id": "ChIJrzI2Apgx_hARHImvI_ADQpQ"
    }
  },
  {
    "id": "59799",
    "name": "LOJAH PRI SCH",
    "registration_area_id": "3252",
    "precise_location": null,
    "abbreviation": "022",
    "units": "022",
    "delimitation": "15/02/07/022",
    "remark": "NEW PU",
    "ward_id": "3252",
    "ward_name": "MWONA",
    "local_government_id": "283",
    "local_government_name": "BALANGA",
    "state_id": "15",
    "state_name": "GOMBE",
    "location": {
      "latitude": 9.676064,
      "longitude": 11.593465,
      "viewport": {
        "northeast": {
          "lat": 9.677409029892722,
          "lng": 11.59485027989272
        },
        "southwest": {
          "lat": 9.674709370107278,
          "lng": 11.59215062010728
        }
      },
      "formatted_address": "MHGV+C9G, 761115, Mona, Nigeria",
      "google_map_url": "https://maps.google.com?q=9.676064,11.593465",
      "google_place_id": "ChIJHxQY-Wn2_hAR59D6o3PoqQQ"
    }
  }
]