[
  {
    "id": "45986",
    "name": "NEW LAYOUT PRIMARY SCHOOL I",
    "registration_area_id": "2484",
    "precise_location": null,
    "abbreviation": "001",
    "units": "001",
    "delimitation": "11/04/13/001",
    "remark": "EXISTING PU",
    "ward_id": "2484",
    "ward_name": "URBAN NEW LAYOUT",
    "local_government_id": "215",
    "local_government_name": "EBONYI",
    "state_id": "11",
    "state_name": "EBONYI",
    "location": null
  },
  {
    "id": "45987",
    "name": "NEW LAYOUT PRIMARY SCHOOL II",
    "registration_area_id": "2484",
    "precise_location": null,
    "abbreviation": "002",
    "units": "002",
    "delimitation": "11/04/13/002",
    "remark": "EXISTING PU",
    "ward_id": "2484",
    "ward_name": "URBAN NEW LAYOUT",
    "local_government_id": "215",
    "local_government_name": "EBONYI",
    "state_id": "11",
    "state_name": "EBONYI",
    "location": {
      "latitude": 6.317550400000001,
      "longitude": 8.1163134,
      "viewport": {
        "northeast": {
          "lat": 6.318905379892722,
          "lng": 8.117647829892721
        },
        "southwest": {
          "lat": 6.316205720107278,
          "lng": 8.114948170107278
        }
      },
      "formatted_address": "8498+2G8, Azuiyi Udene 480101, Abakaliki, Nigeria",
      "google_map_url": "https://maps.google.com?q=6.317550400000001,8.1163134",
      "google_place_id": "ChIJR7QaVnmhXBARiMh3nKtL1p8"
    }
  },
  {
    "id": "45988",
    "name": "NEW LAYOUT PRIMARY SCHOOL III",
    "registration_area_id": "2484",
    "precise_location": null,
    "abbreviation": "003",
    "units": "003",
    "delimitation": "11/04/13/003",
    "remark": "EXISTING PU",
    "ward_id": "2484",
    "ward_name": "URBAN NEW LAYOUT",
    "local_government_id": "215",
    "local_government_name": "EBONYI",
    "state_id": "11",
    "state_name": "EBONYI",
    "location": {
      "latitude": 6.317550400000001,
      "longitude": 8.1163134,
      "viewport": {
        "northeast": {
          "lat": 6.318905379892722,
          "lng": 8.117647829892721
        },
        "southwest": {
          "lat": 6.316205720107278,
          "lng": 8.114948170107278
        }
      },
      "formatted_address": "8498+2G8, Azuiyi Udene 480101, Abakaliki, Nigeria",
      "google_map_url": "https://maps.google.com?q=6.317550400000001,8.1163134",
      "google_place_id": "ChIJR7QaVnmhXBARiMh3nKtL1p8"
    }
  },
  {
    "id": "45989",
    "name": "NEW LAYOUT PRIMARY SCHOOL IV",
    "registration_area_id": "2484",
    "precise_location": null,
    "abbreviation": "004",
    "units": "004",
    "delimitation": "11/04/13/004",
    "remark": "EXISTING PU",
    "ward_id": "2484",
    "ward_name": "URBAN NEW LAYOUT",
    "local_government_id": "215",
    "local_government_name": "EBONYI",
    "state_id": "11",
    "state_name": "EBONYI",
    "location": {
      "latitude": 6.317550400000001,
      "longitude": 8.1163134,
      "viewport": {
        "northeast": {
          "lat": 6.318905379892722,
          "lng": 8.117647829892721
        },
        "southwest": {
          "lat": 6.316205720107278,
          "lng": 8.114948170107278
        }
      },
      "formatted_address": "8498+2G8, Azuiyi Udene 480101, Abakaliki, Nigeria",
      "google_map_url": "https://maps.google.com?q=6.317550400000001,8.1163134",
      "google_place_id": "ChIJR7QaVnmhXBARiMh3nKtL1p8"
    }
  },
  {
    "id": "45990",
    "name": "NUT PREMISES",
    "registration_area_id": "2484",
    "precise_location": null,
    "abbreviation": "005",
    "units": "005",
    "delimitation": "11/04/13/005",
    "remark": "EXISTING PU",
    "ward_id": "2484",
    "ward_name": "URBAN NEW LAYOUT",
    "local_government_id": "215",
    "local_government_name": "EBONYI",
    "state_id": "11",
    "state_name": "EBONYI",
    "location": {
      "latitude": 6.3257309,
      "longitude": 8.116031,
      "viewport": {
        "northeast": {
          "lat": 6.327076679892722,
          "lng": 8.117345679892722
        },
        "southwest": {
          "lat": 6.324377020107278,
          "lng": 8.114646020107278
        }
      },
      "formatted_address": "1 AWOLOWO STREET, Water Works Rd, 480213, Abakaliki, Nigeria",
      "google_map_url": "https://maps.google.com?q=6.3257309,8.116031",
      "google_place_id": "ChIJw9Rc-6ehXBAR6DnKoKgVd88"
    }
  },
  {
    "id": "45991",
    "name": "VET. CENTRE",
    "registration_area_id": "2484",
    "precise_location": null,
    "abbreviation": "006",
    "units": "006",
    "delimitation": "11/04/13/006",
    "remark": "EXISTING PU",
    "ward_id": "2484",
    "ward_name": "URBAN NEW LAYOUT",
    "local_government_id": "215",
    "local_government_name": "EBONYI",
    "state_id": "11",
    "state_name": "EBONYI",
    "location": {
      "latitude": 43.4544428,
      "longitude": -80.546824,
      "viewport": {
        "northeast": {
          "lat": 43.45595957989273,
          "lng": -80.54550112010728
        },
        "southwest": {
          "lat": 43.45325992010728,
          "lng": -80.54820077989271
        }
      },
      "formatted_address": "355 Erb St W, Waterloo, ON N2L 1W4, Canada",
      "google_map_url": "https://maps.google.com?q=43.4544428,-80.546824",
      "google_place_id": "ChIJpSqkAZ_2K4gRV8qOsOek3SQ"
    }
  },
  {
    "id": "45992",
    "name": "GUNNING ROAD/WATER WORKS",
    "registration_area_id": "2484",
    "precise_location": null,
    "abbreviation": "007",
    "units": "007",
    "delimitation": "11/04/13/007",
    "remark": "EXISTING PU",
    "ward_id": "2484",
    "ward_name": "URBAN NEW LAYOUT",
    "local_government_id": "215",
    "local_government_name": "EBONYI",
    "state_id": "11",
    "state_name": "EBONYI",
    "location": {
      "latitude": 6.3280541,
      "longitude": 8.1096769,
      "viewport": {
        "northeast": {
          "lat": 6.329324679892722,
          "lng": 8.110982229892722
        },
        "southwest": {
          "lat": 6.326625020107278,
          "lng": 8.108282570107278
        }
      },
      "formatted_address": "Town Planning Rd, 480106, Abakaliki, Nigeria",
      "google_map_url": "https://maps.google.com?q=6.3280541,8.1096769",
      "google_place_id": "ChIJ1ZDfe2ugXBARwQGbL0Lj_OQ"
    }
  },
  {
    "id": "45993",
    "name": "OKPAUGWU PRIMARY SCHOOL",
    "registration_area_id": "2484",
    "precise_location": null,
    "abbreviation": "008",
    "units": "008",
    "delimitation": "11/04/13/008",
    "remark": "EXISTING PU",
    "ward_id": "2484",
    "ward_name": "URBAN NEW LAYOUT",
    "local_government_id": "215",
    "local_government_name": "EBONYI",
    "state_id": "11",
    "state_name": "EBONYI",
    "location": {
      "latitude": 6.330954699999999,
      "longitude": 8.1148463,
      "viewport": {
        "northeast": {
          "lat": 6.332338779892722,
          "lng": 8.116235429892722
        },
        "southwest": {
          "lat": 6.329639120107278,
          "lng": 8.113535770107278
        }
      },
      "formatted_address": "84J7+9V9, 480106, Abakaliki, Nigeria",
      "google_map_url": "https://maps.google.com?q=6.330954699999999,8.1148463",
      "google_place_id": "ChIJDbT-SNihXBARTcVLXgFr8mY"
    }
  },
  {
    "id": "45994",
    "name": "CHILD WELFARE",
    "registration_area_id": "2484",
    "precise_location": null,
    "abbreviation": "009",
    "units": "009",
    "delimitation": "11/04/13/009",
    "remark": "EXISTING PU",
    "ward_id": "2484",
    "ward_name": "URBAN NEW LAYOUT",
    "local_government_id": "215",
    "local_government_name": "EBONYI",
    "state_id": "11",
    "state_name": "EBONYI",
    "location": {
      "latitude": 6.309921,
      "longitude": 8.110279199999999,
      "viewport": {
        "northeast": {
          "lat": 6.311227229892722,
          "lng": 8.111565629892723
        },
        "southwest": {
          "lat": 6.308527570107278,
          "lng": 8.10886597010728
        }
      },
      "formatted_address": "8456+X46, Convent Rd, 480101, Abakaliki, Nigeria",
      "google_map_url": "https://maps.google.com?q=6.309921,8.110279199999999",
      "google_place_id": "ChIJRcsdQ2GhXBARGK2fu5so12w"
    }
  },
  {
    "id": "45995",
    "name": "AGULU HALL",
    "registration_area_id": "2484",
    "precise_location": null,
    "abbreviation": "010",
    "units": "010",
    "delimitation": "11/04/13/010",
    "remark": "NEW PU",
    "ward_id": "2484",
    "ward_name": "URBAN NEW LAYOUT",
    "local_government_id": "215",
    "local_government_name": "EBONYI",
    "state_id": "11",
    "state_name": "EBONYI",
    "location": {
      "latitude": 6.1269874,
      "longitude": 7.0284106,
      "viewport": {
        "northeast": {
          "lat": 6.128034079892721,
          "lng": 7.030428779892723
        },
        "southwest": {
          "lat": 6.125334420107277,
          "lng": 7.027729120107279
        }
      },
      "formatted_address": "Along, Awka - Okigwe Rd, Agulu, Nigeria",
      "google_map_url": "https://maps.google.com?q=6.1269874,7.0284106",
      "google_place_id": "ChIJe735pISdQxARLdCsTKqF1JA"
    }
  },
  {
    "id": "45996",
    "name": "AGUIRONSI  STREET/ UKWU FRUIT",
    "registration_area_id": "2484",
    "precise_location": null,
    "abbreviation": "011",
    "units": "011",
    "delimitation": "11/04/13/011",
    "remark": "NEW PU",
    "ward_id": "2484",
    "ward_name": "URBAN NEW LAYOUT",
    "local_government_id": "215",
    "local_government_name": "EBONYI",
    "state_id": "11",
    "state_name": "EBONYI",
    "location": {
      "latitude": 6.3210221,
      "longitude": 8.1149725,
      "viewport": {
        "northeast": {
          "lat": 6.322381829892722,
          "lng": 8.116290579892722
        },
        "southwest": {
          "lat": 6.319682170107278,
          "lng": 8.113590920107278
        }
      },
      "formatted_address": "No. 4 Aguiyi Ironsi Street, off Water Works Rd, 480242, Abakaliki, Nigeria",
      "google_map_url": "https://maps.google.com?q=6.3210221,8.1149725",
      "google_place_id": "ChIJRWQkI0GhXBAR8ojEw4ZEDvI"
    }
  },
  {
    "id": "45997",
    "name": "AGUIRONSI  II",
    "registration_area_id": "2484",
    "precise_location": null,
    "abbreviation": "012",
    "units": "012",
    "delimitation": "11/04/13/012",
    "remark": "NEW PU",
    "ward_id": "2484",
    "ward_name": "URBAN NEW LAYOUT",
    "local_government_id": "215",
    "local_government_name": "EBONYI",
    "state_id": "11",
    "state_name": "EBONYI",
    "location": {
      "latitude": 6.3257309,
      "longitude": 8.116031,
      "viewport": {
        "northeast": {
          "lat": 6.327076679892722,
          "lng": 8.117345679892722
        },
        "southwest": {
          "lat": 6.324377020107278,
          "lng": 8.114646020107278
        }
      },
      "formatted_address": "1 AWOLOWO STREET, Water Works Rd, 480213, Abakaliki, Nigeria",
      "google_map_url": "https://maps.google.com?q=6.3257309,8.116031",
      "google_place_id": "ChIJw9Rc-6ehXBAR6DnKoKgVd88"
    }
  },
  {
    "id": "45998",
    "name": "EJIOFOR II",
    "registration_area_id": "2484",
    "precise_location": null,
    "abbreviation": "013",
    "units": "013",
    "delimitation": "11/04/13/013",
    "remark": "NEW PU",
    "ward_id": "2484",
    "ward_name": "URBAN NEW LAYOUT",
    "local_government_id": "215",
    "local_government_name": "EBONYI",
    "state_id": "11",
    "state_name": "EBONYI",
    "location": {
      "latitude": 6.3309243,
      "longitude": 8.1147418,
      "viewport": {
        "northeast": {
          "lat": 6.3382573,
          "lng": 8.1194451
        },
        "southwest": {
          "lat": 6.3246103,
          "lng": 8.1071794
        }
      },
      "formatted_address": "Urban New Layout, Abakaliki, Nigeria",
      "google_map_url": "https://maps.google.com?q=6.3309243,8.1147418",
      "google_place_id": "ChIJUXae3RKgXBARv9_C4Z7boUQ"
    }
  },
  {
    "id": "45999",
    "name": "EJIOFOR  III",
    "registration_area_id": "2484",
    "precise_location": null,
    "abbreviation": "014",
    "units": "014",
    "delimitation": "11/04/13/014",
    "remark": "NEW PU",
    "ward_id": "2484",
    "ward_name": "URBAN NEW LAYOUT",
    "local_government_id": "215",
    "local_government_name": "EBONYI",
    "state_id": "11",
    "state_name": "EBONYI",
    "location": {
      "latitude": 6.3309243,
      "longitude": 8.1147418,
      "viewport": {
        "northeast": {
          "lat": 6.3382573,
          "lng": 8.1194451
        },
        "southwest": {
          "lat": 6.3246103,
          "lng": 8.1071794
        }
      },
      "formatted_address": "Urban New Layout, Abakaliki, Nigeria",
      "google_map_url": "https://maps.google.com?q=6.3309243,8.1147418",
      "google_place_id": "ChIJUXae3RKgXBARv9_C4Z7boUQ"
    }
  },
  {
    "id": "46000",
    "name": "UKWU FRUIT/ WATCHMAN II",
    "registration_area_id": "2484",
    "precise_location": null,
    "abbreviation": "015",
    "units": "015",
    "delimitation": "11/04/13/015",
    "remark": "NEW PU",
    "ward_id": "2484",
    "ward_name": "URBAN NEW LAYOUT",
    "local_government_id": "215",
    "local_government_name": "EBONYI",
    "state_id": "11",
    "state_name": "EBONYI",
    "location": {
      "latitude": 6.307194,
      "longitude": 8.100914999999999,
      "viewport": {
        "northeast": {
          "lat": 6.308543529892722,
          "lng": 8.102265579892721
        },
        "southwest": {
          "lat": 6.305843870107278,
          "lng": 8.099565920107278
        }
      },
      "formatted_address": "8442+V9F, Abakaliki - Ugep Rd, Ntezi Abba 482103, Abakaliki, Nigeria",
      "google_map_url": "https://maps.google.com?q=6.307194,8.100914999999999",
      "google_place_id": "ChIJ9WseAVKgXBARBgpYztVxFPw"
    }
  },
  {
    "id": "46001",
    "name": "BESIDES WATCHMAN",
    "registration_area_id": "2484",
    "precise_location": null,
    "abbreviation": "016",
    "units": "016",
    "delimitation": "11/04/13/016",
    "remark": "NEW PU",
    "ward_id": "2484",
    "ward_name": "URBAN NEW LAYOUT",
    "local_government_id": "215",
    "local_government_name": "EBONYI",
    "state_id": "11",
    "state_name": "EBONYI",
    "location": {
      "latitude": 6.3999003,
      "longitude": 7.967949899999999,
      "viewport": {
        "northeast": {
          "lat": 6.401137979892721,
          "lng": 7.969300579892722
        },
        "southwest": {
          "lat": 6.398438320107277,
          "lng": 7.966600920107278
        }
      },
      "formatted_address": "9XX9+X5G, 481101, Ezamgbo, Nigeria",
      "google_map_url": "https://maps.google.com?q=6.3999003,7.967949899999999",
      "google_place_id": "ChIJmwV21CVZWxARfQLl1C2CvcE"
    }
  },
  {
    "id": "46002",
    "name": "CHRIST EMBASSY FRONT",
    "registration_area_id": "2484",
    "precise_location": null,
    "abbreviation": "017",
    "units": "017",
    "delimitation": "11/04/13/017",
    "remark": "NEW PU",
    "ward_id": "2484",
    "ward_name": "URBAN NEW LAYOUT",
    "local_government_id": "215",
    "local_government_name": "EBONYI",
    "state_id": "11",
    "state_name": "EBONYI",
    "location": {
      "latitude": 6.3276564,
      "longitude": 8.1142938,
      "viewport": {
        "northeast": {
          "lat": 6.328920429892722,
          "lng": 8.115654579892723
        },
        "southwest": {
          "lat": 6.326220770107279,
          "lng": 8.11295492010728
        }
      },
      "formatted_address": "84H7+3PF, 480106, Abakaliki, Nigeria",
      "google_map_url": "https://maps.google.com?q=6.3276564,8.1142938",
      "google_place_id": "ChIJ9xKIKfWhXBARQc7bTRQFYZs"
    }
  },
  {
    "id": "46003",
    "name": "LOW COST/ OKPAUGWU",
    "registration_area_id": "2484",
    "precise_location": null,
    "abbreviation": "018",
    "units": "018",
    "delimitation": "11/04/13/018",
    "remark": "NEW PU",
    "ward_id": "2484",
    "ward_name": "URBAN NEW LAYOUT",
    "local_government_id": "215",
    "local_government_name": "EBONYI",
    "state_id": "11",
    "state_name": "EBONYI",
    "location": {
      "latitude": 6.330954699999999,
      "longitude": 8.1148463,
      "viewport": {
        "northeast": {
          "lat": 6.332338779892722,
          "lng": 8.116235429892722
        },
        "southwest": {
          "lat": 6.329639120107278,
          "lng": 8.113535770107278
        }
      },
      "formatted_address": "84J7+9V9, 480106, Abakaliki, Nigeria",
      "google_map_url": "https://maps.google.com?q=6.330954699999999,8.1148463",
      "google_place_id": "ChIJDbT-SNihXBARTcVLXgFr8mY"
    }
  },
  {
    "id": "46004",
    "name": "VET. CENTER II",
    "registration_area_id": "2484",
    "precise_location": null,
    "abbreviation": "019",
    "units": "019",
    "delimitation": "11/04/13/019",
    "remark": "NEW PU",
    "ward_id": "2484",
    "ward_name": "URBAN NEW LAYOUT",
    "local_government_id": "215",
    "local_government_name": "EBONYI",
    "state_id": "11",
    "state_name": "EBONYI",
    "location": {
      "latitude": 6.3240535,
      "longitude": 8.1119151,
      "viewport": {
        "northeast": {
          "lat": 6.325437179892722,
          "lng": 8.113306479892723
        },
        "southwest": {
          "lat": 6.322737520107278,
          "lng": 8.110606820107279
        }
      },
      "formatted_address": "5 Gunning Rd, MGBADA 480106, STR, Nigeria",
      "google_map_url": "https://maps.google.com?q=6.3240535,8.1119151",
      "google_place_id": "ChIJo6bHwUehXBARrSHmS_E55Dk"
    }
  },
  {
    "id": "46005",
    "name": "OKPAUGWU PRI. SCH. II",
    "registration_area_id": "2484",
    "precise_location": null,
    "abbreviation": "020",
    "units": "020",
    "delimitation": "11/04/13/020",
    "remark": "NEW PU",
    "ward_id": "2484",
    "ward_name": "URBAN NEW LAYOUT",
    "local_government_id": "215",
    "local_government_name": "EBONYI",
    "state_id": "11",
    "state_name": "EBONYI",
    "location": {
      "latitude": 6.330954699999999,
      "longitude": 8.1148463,
      "viewport": {
        "northeast": {
          "lat": 6.332338779892722,
          "lng": 8.116235429892722
        },
        "southwest": {
          "lat": 6.329639120107278,
          "lng": 8.113535770107278
        }
      },
      "formatted_address": "84J7+9V9, 480106, Abakaliki, Nigeria",
      "google_map_url": "https://maps.google.com?q=6.330954699999999,8.1148463",
      "google_place_id": "ChIJDbT-SNihXBARTcVLXgFr8mY"
    }
  },
  {
    "id": "46006",
    "name": "CHID WELLFARE II",
    "registration_area_id": "2484",
    "precise_location": null,
    "abbreviation": "021",
    "units": "021",
    "delimitation": "11/04/13/021",
    "remark": "NEW PU",
    "ward_id": "2484",
    "ward_name": "URBAN NEW LAYOUT",
    "local_government_id": "215",
    "local_government_name": "EBONYI",
    "state_id": "11",
    "state_name": "EBONYI",
    "location": {
      "latitude": 6.3282121,
      "longitude": 8.0979109,
      "viewport": {
        "northeast": {
          "lat": 6.329530329892723,
          "lng": 8.099210679892723
        },
        "southwest": {
          "lat": 6.326830670107279,
          "lng": 8.096511020107279
        }
      },
      "formatted_address": "Local Government Secretariat, Abakaliki 480106, Abakaliki, Nigeria",
      "google_map_url": "https://maps.google.com?q=6.3282121,8.0979109",
      "google_place_id": "ChIJqeS2Xm6hXBARECp5hn-7zfI"
    }
  }
]