[
  {
    "id": "70060",
    "name": "ABALAGO  CIKIN GARI PRI. SCH.",
    "registration_area_id": "3850",
    "precise_location": null,
    "abbreviation": "001",
    "units": "001",
    "delimitation": "17/19/01/001",
    "remark": "EXISTING PU",
    "ward_id": "3850",
    "ward_name": "ABALAGO",
    "local_government_id": "338",
    "local_government_name": "KIYAWA",
    "state_id": "17",
    "state_name": "JIGAWA",
    "location": {
      "latitude": 11.8561792,
      "longitude": 9.475665099999999,
      "viewport": {
        "northeast": {
          "lat": 11.85711977989272,
          "lng": 9.477189629892722
        },
        "southwest": {
          "lat": 11.85442012010728,
          "lng": 9.474489970107278
        }
      },
      "formatted_address": "VF4G+F7F, 720102, Chiromawa, Nigeria",
      "google_map_url": "https://maps.google.com?q=11.8561792,9.475665099999999",
      "google_place_id": "ChIJF7IOiHLhqxERmos83rqgu90"
    }
  },
  {
    "id": "70061",
    "name": "DISPENSARY/UNGUWAR BARDE",
    "registration_area_id": "3850",
    "precise_location": null,
    "abbreviation": "002",
    "units": "002",
    "delimitation": "17/19/01/002",
    "remark": "EXISTING PU",
    "ward_id": "3850",
    "ward_name": "ABALAGO",
    "local_government_id": "338",
    "local_government_name": "KIYAWA",
    "state_id": "17",
    "state_name": "JIGAWA",
    "location": {
      "latitude": 12.4505851,
      "longitude": 10.0404225,
      "viewport": {
        "northeast": {
          "lat": 12.45195212989272,
          "lng": 10.04183082989272
        },
        "southwest": {
          "lat": 12.44925247010728,
          "lng": 10.03913117010728
        }
      },
      "formatted_address": "10 Maje Rd, 731211, Hadejia, Nigeria",
      "google_map_url": "https://maps.google.com?q=12.4505851,10.0404225",
      "google_place_id": "ChIJ-1okSVaxqRERApezdz3s5Rg"
    }
  },
  {
    "id": "70062",
    "name": "GIDAN ADUWA",
    "registration_area_id": "3850",
    "precise_location": null,
    "abbreviation": "003",
    "units": "003",
    "delimitation": "17/19/01/003",
    "remark": "EXISTING PU",
    "ward_id": "3850",
    "ward_name": "ABALAGO",
    "local_government_id": "338",
    "local_government_name": "KIYAWA",
    "state_id": "17",
    "state_name": "JIGAWA",
    "location": {
      "latitude": 12.2077858,
      "longitude": 9.647011599999999,
      "viewport": {
        "northeast": {
          "lat": 12.2096461,
          "lng": 9.652434999999999
        },
        "southwest": {
          "lat": 12.2063129,
          "lng": 9.6460461
        }
      },
      "formatted_address": "720105, Gidan Tohuwa, Nigeria",
      "google_map_url": "https://maps.google.com?q=12.2077858,9.647011599999999",
      "google_place_id": "ChIJf0zI4W5sqRERzlZ8Q7-ueUY"
    }
  },
  {
    "id": "70063",
    "name": "BAREBARI",
    "registration_area_id": "3850",
    "precise_location": null,
    "abbreviation": "004",
    "units": "004",
    "delimitation": "17/19/01/004",
    "remark": "EXISTING PU",
    "ward_id": "3850",
    "ward_name": "ABALAGO",
    "local_government_id": "338",
    "local_government_name": "KIYAWA",
    "state_id": "17",
    "state_name": "JIGAWA",
    "location": {
      "latitude": 11.6329509,
      "longitude": 9.338164299999999,
      "viewport": {
        "northeast": {
          "lat": 11.63411012989272,
          "lng": 9.339574529892722
        },
        "southwest": {
          "lat": 11.63141047010728,
          "lng": 9.336874870107279
        }
      },
      "formatted_address": "J8MQ+57M, 720101, Kude, Nigeria",
      "google_map_url": "https://maps.google.com?q=11.6329509,9.338164299999999",
      "google_place_id": "ChIJf5PNFDvyqxERtmjbIMmf3js"
    }
  },
  {
    "id": "70064",
    "name": "DEBI/YALWA",
    "registration_area_id": "3850",
    "precise_location": null,
    "abbreviation": "005",
    "units": "005",
    "delimitation": "17/19/01/005",
    "remark": "EXISTING PU",
    "ward_id": "3850",
    "ward_name": "ABALAGO",
    "local_government_id": "338",
    "local_government_name": "KIYAWA",
    "state_id": "17",
    "state_name": "JIGAWA",
    "location": {
      "latitude": 12.7180378,
      "longitude": 7.844954899999999,
      "viewport": {
        "northeast": {
          "lat": 12.771166,
          "lng": 7.877108499999999
        },
        "southwest": {
          "lat": 12.6733623,
          "lng": 7.8191476
        }
      },
      "formatted_address": "Jibawa, 822105, Nigeria",
      "google_map_url": "https://maps.google.com?q=12.7180378,7.844954899999999",
      "google_place_id": "ChIJ95swc-3UrxERVxw2GkAzgcs"
    }
  },
  {
    "id": "70065",
    "name": "FIYA CIKIN GARI PRI. SCH.",
    "registration_area_id": "3850",
    "precise_location": null,
    "abbreviation": "006",
    "units": "006",
    "delimitation": "17/19/01/006",
    "remark": "EXISTING PU",
    "ward_id": "3850",
    "ward_name": "ABALAGO",
    "local_government_id": "338",
    "local_government_name": "KIYAWA",
    "state_id": "17",
    "state_name": "JIGAWA",
    "location": {
      "latitude": 11.8561792,
      "longitude": 9.475665099999999,
      "viewport": {
        "northeast": {
          "lat": 11.85711977989272,
          "lng": 9.477189629892722
        },
        "southwest": {
          "lat": 11.85442012010728,
          "lng": 9.474489970107278
        }
      },
      "formatted_address": "VF4G+F7F, 720102, Chiromawa, Nigeria",
      "google_map_url": "https://maps.google.com?q=11.8561792,9.475665099999999",
      "google_place_id": "ChIJF7IOiHLhqxERmos83rqgu90"
    }
  },
  {
    "id": "70066",
    "name": "KADIRAWA GABAS/YAMMA PRI. SCH.",
    "registration_area_id": "3850",
    "precise_location": null,
    "abbreviation": "007",
    "units": "007",
    "delimitation": "17/19/01/007",
    "remark": "EXISTING PU",
    "ward_id": "3850",
    "ward_name": "ABALAGO",
    "local_government_id": "338",
    "local_government_name": "KIYAWA",
    "state_id": "17",
    "state_name": "JIGAWA",
    "location": {
      "latitude": 11.7810099,
      "longitude": 9.613106799999999,
      "viewport": {
        "northeast": {
          "lat": 11.78254807989272,
          "lng": 9.614468479892723
        },
        "southwest": {
          "lat": 11.77984842010728,
          "lng": 9.61176882010728
        }
      },
      "formatted_address": "QJJ7+C65, 720102, Kiyawa, Nigeria",
      "google_map_url": "https://maps.google.com?q=11.7810099,9.613106799999999",
      "google_place_id": "ChIJwzbzvWfcqxERC5oe49PCMFw"
    }
  },
  {
    "id": "70067",
    "name": "KALKUTAN KUDU",
    "registration_area_id": "3850",
    "precise_location": null,
    "abbreviation": "008",
    "units": "008",
    "delimitation": "17/19/01/008",
    "remark": "EXISTING PU",
    "ward_id": "3850",
    "ward_name": "ABALAGO",
    "local_government_id": "338",
    "local_government_name": "KIYAWA",
    "state_id": "17",
    "state_name": "JIGAWA",
    "location": {
      "latitude": 11.3810163,
      "longitude": 9.5339744,
      "viewport": {
        "northeast": {
          "lat": 11.4203405,
          "lng": 9.6154697
        },
        "southwest": {
          "lat": 11.3154671,
          "lng": 9.4975998
        }
      },
      "formatted_address": "Kiyako, 721101, Nigeria",
      "google_map_url": "https://maps.google.com?q=11.3810163,9.5339744",
      "google_place_id": "ChIJW2ZmobKiqxERB3qyLA-JOKg"
    }
  },
  {
    "id": "70068",
    "name": "GIDAN MAI SAJE/DUBENI",
    "registration_area_id": "3850",
    "precise_location": null,
    "abbreviation": "009",
    "units": "009",
    "delimitation": "17/19/01/009",
    "remark": "EXISTING PU",
    "ward_id": "3850",
    "ward_name": "ABALAGO",
    "local_government_id": "338",
    "local_government_name": "KIYAWA",
    "state_id": "17",
    "state_name": "JIGAWA",
    "location": null
  },
  {
    "id": "70069",
    "name": "MARKIBA/BAKATA",
    "registration_area_id": "3850",
    "precise_location": null,
    "abbreviation": "010",
    "units": "010",
    "delimitation": "17/19/01/010",
    "remark": "EXISTING PU",
    "ward_id": "3850",
    "ward_name": "ABALAGO",
    "local_government_id": "338",
    "local_government_name": "KIYAWA",
    "state_id": "17",
    "state_name": "JIGAWA",
    "location": {
      "latitude": 11.9299679,
      "longitude": 9.717756900000001,
      "viewport": {
        "northeast": {
          "lat": 11.93127942989272,
          "lng": 9.719058629892722
        },
        "southwest": {
          "lat": 11.92857977010728,
          "lng": 9.716358970107278
        }
      },
      "formatted_address": "WPH9+X4W, 720102, Malkiba, Nigeria",
      "google_map_url": "https://maps.google.com?q=11.9299679,9.717756900000001",
      "google_place_id": "ChIJUUoq38tiqRERSBNA8uUEp5A"
    }
  },
  {
    "id": "70070",
    "name": "SHATARI PRI. SCH.",
    "registration_area_id": "3850",
    "precise_location": null,
    "abbreviation": "011",
    "units": "011",
    "delimitation": "17/19/01/011",
    "remark": "EXISTING PU",
    "ward_id": "3850",
    "ward_name": "ABALAGO",
    "local_government_id": "338",
    "local_government_name": "KIYAWA",
    "state_id": "17",
    "state_name": "JIGAWA",
    "location": {
      "latitude": 11.8561792,
      "longitude": 9.475665099999999,
      "viewport": {
        "northeast": {
          "lat": 11.85711977989272,
          "lng": 9.477189629892722
        },
        "southwest": {
          "lat": 11.85442012010728,
          "lng": 9.474489970107278
        }
      },
      "formatted_address": "VF4G+F7F, 720102, Chiromawa, Nigeria",
      "google_map_url": "https://maps.google.com?q=11.8561792,9.475665099999999",
      "google_place_id": "ChIJF7IOiHLhqxERmos83rqgu90"
    }
  },
  {
    "id": "70071",
    "name": "SABUWAR KWARA PRI. SCH.",
    "registration_area_id": "3850",
    "precise_location": null,
    "abbreviation": "012",
    "units": "012",
    "delimitation": "17/19/01/012",
    "remark": "NEW PU",
    "ward_id": "3850",
    "ward_name": "ABALAGO",
    "local_government_id": "338",
    "local_government_name": "KIYAWA",
    "state_id": "17",
    "state_name": "JIGAWA",
    "location": {
      "latitude": 11.8561792,
      "longitude": 9.475665099999999,
      "viewport": {
        "northeast": {
          "lat": 11.85711977989272,
          "lng": 9.477189629892722
        },
        "southwest": {
          "lat": 11.85442012010728,
          "lng": 9.474489970107278
        }
      },
      "formatted_address": "VF4G+F7F, 720102, Chiromawa, Nigeria",
      "google_map_url": "https://maps.google.com?q=11.8561792,9.475665099999999",
      "google_place_id": "ChIJF7IOiHLhqxERmos83rqgu90"
    }
  },
  {
    "id": "70072",
    "name": "DISPENSARY U/BARDE II",
    "registration_area_id": "3850",
    "precise_location": null,
    "abbreviation": "013",
    "units": "013",
    "delimitation": "17/19/01/013",
    "remark": "NEW PU",
    "ward_id": "3850",
    "ward_name": "ABALAGO",
    "local_government_id": "338",
    "local_government_name": "KIYAWA",
    "state_id": "17",
    "state_name": "JIGAWA",
    "location": null
  },
  {
    "id": "70073",
    "name": "BAKATA PRI. SCH.",
    "registration_area_id": "3850",
    "precise_location": null,
    "abbreviation": "014",
    "units": "014",
    "delimitation": "17/19/01/014",
    "remark": "NEW PU",
    "ward_id": "3850",
    "ward_name": "ABALAGO",
    "local_government_id": "338",
    "local_government_name": "KIYAWA",
    "state_id": "17",
    "state_name": "JIGAWA",
    "location": {
      "latitude": 11.5973642,
      "longitude": 9.2046761,
      "viewport": {
        "northeast": {
          "lat": 11.59865687989272,
          "lng": 9.206506979892723
        },
        "southwest": {
          "lat": 11.59595722010728,
          "lng": 9.203807320107279
        }
      },
      "formatted_address": "7F3FH6W3+XV5 Zakailawa Gagarame Kano Tsangaya, Nigeria",
      "google_map_url": "https://maps.google.com?q=11.5973642,9.2046761",
      "google_place_id": "ChIJlx9BEnH1qxER-cb6LSobJDU"
    }
  }
]