[
  {
    "id": "345370",
    "name": "OJUGBESE I & II/ST STEPHEN II & III, AT CHIEF ALAJES HOUSE",
    "registration_area_id": "17559",
    "precise_location": null,
    "abbreviation": "001",
    "units": "001",
    "delimitation": "28/05/12/001",
    "remark": "EXISTING PU",
    "ward_id": "17559",
    "ward_name": "OKE IJU",
    "local_government_id": "586",
    "local_government_name": "AKURE NORTH",
    "state_id": "28",
    "state_name": "ONDO",
    "location": {
      "latitude": 6.657310499999999,
      "longitude": 3.304041,
      "viewport": {
        "northeast": {
          "lat": 6.658629979892722,
          "lng": 3.305431829892723
        },
        "southwest": {
          "lat": 6.655930320107278,
          "lng": 3.302732170107278
        }
      },
      "formatted_address": "Local Government, 1 Omololu Olotu Street Off Abiodun Onitiri Avenue Abule Egba, Lagos, 100276, Abule -Egba, Nigeria",
      "google_map_url": "https://maps.google.com?q=6.657310499999999,3.304041",
      "google_place_id": "ChIJu0Uj5CqXOxARWwb5FYGyqqI"
    }
  },
  {
    "id": "345371",
    "name": "IJIGBO I & II, INFRONT OF JOHN ADEBAYOS HOUSE",
    "registration_area_id": "17559",
    "precise_location": null,
    "abbreviation": "002",
    "units": "002",
    "delimitation": "28/05/12/002",
    "remark": "EXISTING PU",
    "ward_id": "17559",
    "ward_name": "OKE IJU",
    "local_government_id": "586",
    "local_government_name": "AKURE NORTH",
    "state_id": "28",
    "state_name": "ONDO",
    "location": {
      "latitude": 7.596408099999999,
      "longitude": 5.2214477,
      "viewport": {
        "northeast": {
          "lat": 7.621339699999999,
          "lng": 5.234163700000001
        },
        "southwest": {
          "lat": 7.5700924,
          "lng": 5.1998752
        }
      },
      "formatted_address": "Ado 'D' Ijigbo, 360101, Nigeria",
      "google_map_url": "https://maps.google.com?q=7.596408099999999,5.2214477",
      "google_place_id": "ChIJAWyMurD6RxARI4rywKqi6k4"
    }
  },
  {
    "id": "345372",
    "name": "OPTICUM CENTRE/ST MICHAEL AREA I & II, ST MICHAELS PRY. SCH.",
    "registration_area_id": "17559",
    "precise_location": null,
    "abbreviation": "003",
    "units": "003",
    "delimitation": "28/05/12/003",
    "remark": "EXISTING PU",
    "ward_id": "17559",
    "ward_name": "OKE IJU",
    "local_government_id": "586",
    "local_government_name": "AKURE NORTH",
    "state_id": "28",
    "state_name": "ONDO",
    "location": null
  },
  {
    "id": "345373",
    "name": "OPTIMCUM CENTRE 11, AT OPTICUM CENTRE",
    "registration_area_id": "17559",
    "precise_location": null,
    "abbreviation": "004",
    "units": "004",
    "delimitation": "28/05/12/004",
    "remark": "EXISTING PU",
    "ward_id": "17559",
    "ward_name": "OKE IJU",
    "local_government_id": "586",
    "local_government_name": "AKURE NORTH",
    "state_id": "28",
    "state_name": "ONDO",
    "location": null
  },
  {
    "id": "345374",
    "name": "ARAOYINBO I & II/AGUNLA ISERI 11, AT IBITOYES HOUSE",
    "registration_area_id": "17559",
    "precise_location": null,
    "abbreviation": "005",
    "units": "005",
    "delimitation": "28/05/12/005",
    "remark": "EXISTING PU",
    "ward_id": "17559",
    "ward_name": "OKE IJU",
    "local_government_id": "586",
    "local_government_name": "AKURE NORTH",
    "state_id": "28",
    "state_name": "ONDO",
    "location": {
      "latitude": 7.482307199999999,
      "longitude": 5.7499614,
      "viewport": {
        "northeast": {
          "lat": 7.483466649999998,
          "lng": 5.75632425
        },
        "southwest": {
          "lat": 7.47882885,
          "lng": 5.730872850000001
        }
      },
      "formatted_address": "Ondo, Akungba, Nigeria",
      "google_map_url": "https://maps.google.com?q=7.482307199999999,5.7499614",
      "google_place_id": "ChIJA-BXg6g0RhARoBHYulriIaI"
    }
  },
  {
    "id": "345375",
    "name": "ISOLU CAMP/ARESUN, OPP BAPTIST CHURCH",
    "registration_area_id": "17559",
    "precise_location": null,
    "abbreviation": "006",
    "units": "006",
    "delimitation": "28/05/12/006",
    "remark": "EXISTING PU",
    "ward_id": "17559",
    "ward_name": "OKE IJU",
    "local_government_id": "586",
    "local_government_name": "AKURE NORTH",
    "state_id": "28",
    "state_name": "ONDO",
    "location": {
      "latitude": 7.228620200000001,
      "longitude": 5.1992169,
      "viewport": {
        "northeast": {
          "lat": 7.229970029892723,
          "lng": 5.200566729892722
        },
        "southwest": {
          "lat": 7.227270370107279,
          "lng": 5.197867070107278
        }
      },
      "formatted_address": "65HX+CMW, Oke obere Aduralere Ajose, Ijoka Rd, Akure, Nigeria",
      "google_map_url": "https://maps.google.com?q=7.228620200000001,5.1992169",
      "google_place_id": "ChIJfSr5ZzOFRxARiZKQnzaBsLM"
    }
  },
  {
    "id": "345376",
    "name": "AGUNLA/ ISERI I/OKE- IJU, OPEN SPACE NEAR OBAS MARKET",
    "registration_area_id": "17559",
    "precise_location": null,
    "abbreviation": "007",
    "units": "007",
    "delimitation": "28/05/12/007",
    "remark": "EXISTING PU",
    "ward_id": "17559",
    "ward_name": "OKE IJU",
    "local_government_id": "586",
    "local_government_name": "AKURE NORTH",
    "state_id": "28",
    "state_name": "ONDO",
    "location": {
      "latitude": 7.382060699999999,
      "longitude": 5.257092099999999,
      "viewport": {
        "northeast": {
          "lat": 7.383436229892722,
          "lng": 5.258498579892723
        },
        "southwest": {
          "lat": 7.380736570107278,
          "lng": 5.255798920107279
        }
      },
      "formatted_address": "97J4+RRG, Road, 340284, Iju-Itaogbolu, Nigeria",
      "google_map_url": "https://maps.google.com?q=7.382060699999999,5.257092099999999",
      "google_place_id": "ChIJg5FskeiSRxARbnOfB6wyS6w"
    }
  },
  {
    "id": "345377",
    "name": "TEMIDIRE VILLAGE/OGBESE, AT ATEWOLOGUN CAMP",
    "registration_area_id": "17559",
    "precise_location": null,
    "abbreviation": "008",
    "units": "008",
    "delimitation": "28/05/12/008",
    "remark": "EXISTING PU",
    "ward_id": "17559",
    "ward_name": "OKE IJU",
    "local_government_id": "586",
    "local_government_name": "AKURE NORTH",
    "state_id": "28",
    "state_name": "ONDO",
    "location": null
  },
  {
    "id": "345378",
    "name": "OGBESE ABODI /CAMP, AT ABODI OGBESE CAMP",
    "registration_area_id": "17559",
    "precise_location": null,
    "abbreviation": "009",
    "units": "009",
    "delimitation": "28/05/12/009",
    "remark": "EXISTING PU",
    "ward_id": "17559",
    "ward_name": "OKE IJU",
    "local_government_id": "586",
    "local_government_name": "AKURE NORTH",
    "state_id": "28",
    "state_name": "ONDO",
    "location": null
  },
  {
    "id": "345379",
    "name": "OLOUNTA/ OMOLOJU CAMP, AT OLOUNTA/ OMOLOJU CAMP",
    "registration_area_id": "17559",
    "precise_location": null,
    "abbreviation": "010",
    "units": "010",
    "delimitation": "28/05/12/010",
    "remark": "EXISTING PU",
    "ward_id": "17559",
    "ward_name": "OKE IJU",
    "local_government_id": "586",
    "local_government_name": "AKURE NORTH",
    "state_id": "28",
    "state_name": "ONDO",
    "location": {
      "latitude": 7.400629599999999,
      "longitude": 5.2512221,
      "viewport": {
        "northeast": {
          "lat": 7.402056629892722,
          "lng": 5.252056529892722
        },
        "southwest": {
          "lat": 7.399356970107278,
          "lng": 5.249356870107278
        }
      },
      "formatted_address": "C722+7F5, 340284, Iju, Nigeria",
      "google_map_url": "https://maps.google.com?q=7.400629599999999,5.2512221",
      "google_place_id": "ChIJ6aI-CLaTRxAR2A619-Wh-A8"
    }
  }
]