[
  {
    "id": "70585",
    "name": "HANTSU PRI. SCH.  HANTSU C/GARI  I",
    "registration_area_id": "3885",
    "precise_location": null,
    "abbreviation": "001",
    "units": "001",
    "delimitation": "17/22/03/001",
    "remark": "EXISTING PU",
    "ward_id": "3885",
    "ward_name": "HANTSU",
    "local_government_id": "341",
    "local_government_name": "MIGA",
    "state_id": "17",
    "state_name": "JIGAWA",
    "location": {
      "latitude": 12.4506066,
      "longitude": 10.040496,
      "viewport": {
        "northeast": {
          "lat": 12.45195212989272,
          "lng": 10.04183082989272
        },
        "southwest": {
          "lat": 12.44925247010728,
          "lng": 10.03913117010728
        }
      },
      "formatted_address": "10 Maje Rd, 731211, Hadejia, Nigeria",
      "google_map_url": "https://maps.google.com?q=12.4506066,10.040496",
      "google_place_id": "ChIJB_XP0wqvqRER1IIlpPXm5ec"
    }
  },
  {
    "id": "70586",
    "name": "GIDAN NAGARI   - GIDAN - C/GARI  II",
    "registration_area_id": "3885",
    "precise_location": null,
    "abbreviation": "002",
    "units": "002",
    "delimitation": "17/22/03/002",
    "remark": "EXISTING PU",
    "ward_id": "3885",
    "ward_name": "HANTSU",
    "local_government_id": "341",
    "local_government_name": "MIGA",
    "state_id": "17",
    "state_name": "JIGAWA",
    "location": {
      "latitude": 12.6118851,
      "longitude": 7.9289843,
      "viewport": {
        "northeast": {
          "lat": 12.614516,
          "lng": 7.934939999999999
        },
        "southwest": {
          "lat": 12.604369,
          "lng": 7.9199349
        }
      },
      "formatted_address": "822105, Gidan Gari, Nigeria",
      "google_map_url": "https://maps.google.com?q=12.6118851,7.9289843",
      "google_place_id": "ChIJR2wqcMUtrhERXTUlDbalK24"
    }
  },
  {
    "id": "70587",
    "name": "MAIGANJARA/MAIGANJARA",
    "registration_area_id": "3885",
    "precise_location": null,
    "abbreviation": "003",
    "units": "003",
    "delimitation": "17/22/03/003",
    "remark": "EXISTING PU",
    "ward_id": "3885",
    "ward_name": "HANTSU",
    "local_government_id": "341",
    "local_government_name": "MIGA",
    "state_id": "17",
    "state_name": "JIGAWA",
    "location": null
  },
  {
    "id": "70588",
    "name": "MARKEWA/MARKEWA",
    "registration_area_id": "3885",
    "precise_location": null,
    "abbreviation": "004",
    "units": "004",
    "delimitation": "17/22/03/004",
    "remark": "EXISTING PU",
    "ward_id": "3885",
    "ward_name": "HANTSU",
    "local_government_id": "341",
    "local_government_name": "MIGA",
    "state_id": "17",
    "state_name": "JIGAWA",
    "location": null
  },
  {
    "id": "70589",
    "name": "SARAWUYA PRI. SCH. SARAWUYA  I",
    "registration_area_id": "3885",
    "precise_location": null,
    "abbreviation": "005",
    "units": "005",
    "delimitation": "17/22/03/005",
    "remark": "EXISTING PU",
    "ward_id": "3885",
    "ward_name": "HANTSU",
    "local_government_id": "341",
    "local_government_name": "MIGA",
    "state_id": "17",
    "state_name": "JIGAWA",
    "location": {
      "latitude": 12.3328673,
      "longitude": 9.9376105,
      "viewport": {
        "northeast": {
          "lat": 12.33429102989272,
          "lng": 9.939073779892722
        },
        "southwest": {
          "lat": 12.33159137010728,
          "lng": 9.936374120107278
        }
      },
      "formatted_address": "8WMQ+42X, 731107, Kiggin, Nigeria",
      "google_map_url": "https://maps.google.com?q=12.3328673,9.9376105",
      "google_place_id": "ChIJo1NTAcOhqRERC4ZK2w8CvvA"
    }
  },
  {
    "id": "70590",
    "name": "SARAWUYA PRI. SCH. SARAWUYA  II",
    "registration_area_id": "3885",
    "precise_location": null,
    "abbreviation": "006",
    "units": "006",
    "delimitation": "17/22/03/006",
    "remark": "EXISTING PU",
    "ward_id": "3885",
    "ward_name": "HANTSU",
    "local_government_id": "341",
    "local_government_name": "MIGA",
    "state_id": "17",
    "state_name": "JIGAWA",
    "location": {
      "latitude": 11.3774453,
      "longitude": 9.5424675,
      "viewport": {
        "northeast": {
          "lat": 11.37887392989272,
          "lng": 9.543856679892722
        },
        "southwest": {
          "lat": 11.37617427010728,
          "lng": 9.541157020107278
        }
      },
      "formatted_address": "Kano Rd, 721101, Birnin Kudu, Nigeria",
      "google_map_url": "https://maps.google.com?q=11.3774453,9.5424675",
      "google_place_id": "ChIJuSb6rP2XqxERNei7OiD5qT4"
    }
  },
  {
    "id": "70591",
    "name": "HANTSU C/GARI III",
    "registration_area_id": "3885",
    "precise_location": null,
    "abbreviation": "007",
    "units": "007",
    "delimitation": "17/22/03/007",
    "remark": "EXISTING PU",
    "ward_id": "3885",
    "ward_name": "HANTSU",
    "local_government_id": "341",
    "local_government_name": "MIGA",
    "state_id": "17",
    "state_name": "JIGAWA",
    "location": null
  },
  {
    "id": "70592",
    "name": "HANTSU HEALTH CLINIC",
    "registration_area_id": "3885",
    "precise_location": null,
    "abbreviation": "008",
    "units": "008",
    "delimitation": "17/22/03/008",
    "remark": "NEW PU",
    "ward_id": "3885",
    "ward_name": "HANTSU",
    "local_government_id": "341",
    "local_government_name": "MIGA",
    "state_id": "17",
    "state_name": "JIGAWA",
    "location": {
      "latitude": 11.7235,
      "longitude": 9.3645338,
      "viewport": {
        "northeast": {
          "lat": 11.72496632989272,
          "lng": 9.365857279892722
        },
        "southwest": {
          "lat": 11.72226667010728,
          "lng": 9.363157620107279
        }
      },
      "formatted_address": "P9F7+CR3, 720101, Jigawa, Nigeria",
      "google_map_url": "https://maps.google.com?q=11.7235,9.3645338",
      "google_place_id": "ChIJQawF1hzwqxER4VL_BNRI9Uo"
    }
  },
  {
    "id": "70593",
    "name": "HANTSU C/GARI  IV",
    "registration_area_id": "3885",
    "precise_location": null,
    "abbreviation": "009",
    "units": "009",
    "delimitation": "17/22/03/009",
    "remark": "NEW PU",
    "ward_id": "3885",
    "ward_name": "HANTSU",
    "local_government_id": "341",
    "local_government_name": "MIGA",
    "state_id": "17",
    "state_name": "JIGAWA",
    "location": {
      "latitude": 11.7024113,
      "longitude": 9.3339187,
      "viewport": {
        "northeast": {
          "lat": 11.70377157989272,
          "lng": 9.335269179892721
        },
        "southwest": {
          "lat": 11.70107192010728,
          "lng": 9.332569520107278
        }
      },
      "formatted_address": "Ground Floor, State New Secretariat Complex, Dutse, Nigeria",
      "google_map_url": "https://maps.google.com?q=11.7024113,9.3339187",
      "google_place_id": "ChIJVVVVVUXwqxER1b0VhC2p9sY"
    }
  },
  {
    "id": "70594",
    "name": "SARAWUYA DISPENSARY",
    "registration_area_id": "3885",
    "precise_location": null,
    "abbreviation": "010",
    "units": "010",
    "delimitation": "17/22/03/010",
    "remark": "NEW PU",
    "ward_id": "3885",
    "ward_name": "HANTSU",
    "local_government_id": "341",
    "local_government_name": "MIGA",
    "state_id": "17",
    "state_name": "JIGAWA",
    "location": {
      "latitude": 43.467299,
      "longitude": -80.52329800000001,
      "viewport": {
        "northeast": {
          "lat": 43.46868722989272,
          "lng": -80.52178887010727
        },
        "southwest": {
          "lat": 43.46598757010727,
          "lng": -80.52448852989272
        }
      },
      "formatted_address": "71 King St N, Waterloo, ON N2J 2X2, Canada",
      "google_map_url": "https://maps.google.com?q=43.467299,-80.52329800000001",
      "google_place_id": "ChIJmd9ZziP1K4gRijXWDeYBaag"
    }
  }
]