[
  {
    "id": "7366",
    "name": "BADUWARE",
    "registration_area_id": "378",
    "precise_location": null,
    "abbreviation": "001",
    "units": "001",
    "delimitation": "02/18/11/001",
    "remark": "EXISTING PU",
    "ward_id": "378",
    "ward_name": "ZUMO",
    "local_government_id": "35",
    "local_government_name": "SONG",
    "state_id": "2",
    "state_name": "ADAMAWA",
    "location": {
      "latitude": 9.825752,
      "longitude": 12.61588,
      "viewport": {
        "northeast": {
          "lat": 9.82703932989272,
          "lng": 12.61697672989272
        },
        "southwest": {
          "lat": 9.824339670107276,
          "lng": 12.61427707010728
        }
      },
      "formatted_address": "Local Govt Area, 652106, Song, Nigeria",
      "google_map_url": "https://maps.google.com?q=9.825752,12.61588",
      "google_place_id": "ChIJNTRbVU2x_RARQwelp3pJ_QE"
    }
  },
  {
    "id": "7367",
    "name": "CHALAWA",
    "registration_area_id": "378",
    "precise_location": null,
    "abbreviation": "002",
    "units": "002",
    "delimitation": "02/18/11/002",
    "remark": "EXISTING PU",
    "ward_id": "378",
    "ward_name": "ZUMO",
    "local_government_id": "35",
    "local_government_name": "SONG",
    "state_id": "2",
    "state_name": "ADAMAWA",
    "location": {
      "latitude": 9.825752,
      "longitude": 12.61588,
      "viewport": {
        "northeast": {
          "lat": 9.82703932989272,
          "lng": 12.61697672989272
        },
        "southwest": {
          "lat": 9.824339670107276,
          "lng": 12.61427707010728
        }
      },
      "formatted_address": "Local Govt Area, 652106, Song, Nigeria",
      "google_map_url": "https://maps.google.com?q=9.825752,12.61588",
      "google_place_id": "ChIJNTRbVU2x_RARQwelp3pJ_QE"
    }
  },
  {
    "id": "7368",
    "name": "KARALLAHI",
    "registration_area_id": "378",
    "precise_location": null,
    "abbreviation": "003",
    "units": "003",
    "delimitation": "02/18/11/003",
    "remark": "EXISTING PU",
    "ward_id": "378",
    "ward_name": "ZUMO",
    "local_government_id": "35",
    "local_government_name": "SONG",
    "state_id": "2",
    "state_name": "ADAMAWA",
    "location": {
      "latitude": 9.825752,
      "longitude": 12.61588,
      "viewport": {
        "northeast": {
          "lat": 9.82703932989272,
          "lng": 12.61697672989272
        },
        "southwest": {
          "lat": 9.824339670107276,
          "lng": 12.61427707010728
        }
      },
      "formatted_address": "Local Govt Area, 652106, Song, Nigeria",
      "google_map_url": "https://maps.google.com?q=9.825752,12.61588",
      "google_place_id": "ChIJNTRbVU2x_RARQwelp3pJ_QE"
    }
  },
  {
    "id": "7369",
    "name": "KAREWA",
    "registration_area_id": "378",
    "precise_location": null,
    "abbreviation": "004",
    "units": "004",
    "delimitation": "02/18/11/004",
    "remark": "EXISTING PU",
    "ward_id": "378",
    "ward_name": "ZUMO",
    "local_government_id": "35",
    "local_government_name": "SONG",
    "state_id": "2",
    "state_name": "ADAMAWA",
    "location": {
      "latitude": 9.265748499999999,
      "longitude": 12.4472984,
      "viewport": {
        "northeast": {
          "lat": 9.266981229892721,
          "lng": 12.44863272989272
        },
        "southwest": {
          "lat": 9.264281570107277,
          "lng": 12.44593307010728
        }
      },
      "formatted_address": "Bekaji Rd, Jimeta 640101, Jimeta, Nigeria",
      "google_map_url": "https://maps.google.com?q=9.265748499999999,12.4472984",
      "google_place_id": "ChIJ99WmtG1r_BAREaZrB3GiX8I"
    }
  },
  {
    "id": "7370",
    "name": "KOLERE I",
    "registration_area_id": "378",
    "precise_location": null,
    "abbreviation": "005",
    "units": "005",
    "delimitation": "02/18/11/005",
    "remark": "EXISTING PU",
    "ward_id": "378",
    "ward_name": "ZUMO",
    "local_government_id": "35",
    "local_government_name": "SONG",
    "state_id": "2",
    "state_name": "ADAMAWA",
    "location": {
      "latitude": 9.825752,
      "longitude": 12.61588,
      "viewport": {
        "northeast": {
          "lat": 9.82703932989272,
          "lng": 12.61697672989272
        },
        "southwest": {
          "lat": 9.824339670107276,
          "lng": 12.61427707010728
        }
      },
      "formatted_address": "Local Govt Area, 652106, Song, Nigeria",
      "google_map_url": "https://maps.google.com?q=9.825752,12.61588",
      "google_place_id": "ChIJNTRbVU2x_RARQwelp3pJ_QE"
    }
  },
  {
    "id": "7371",
    "name": "KOLERE II",
    "registration_area_id": "378",
    "precise_location": null,
    "abbreviation": "006",
    "units": "006",
    "delimitation": "02/18/11/006",
    "remark": "EXISTING PU",
    "ward_id": "378",
    "ward_name": "ZUMO",
    "local_government_id": "35",
    "local_government_name": "SONG",
    "state_id": "2",
    "state_name": "ADAMAWA",
    "location": null
  },
  {
    "id": "7372",
    "name": "LABBARE",
    "registration_area_id": "378",
    "precise_location": null,
    "abbreviation": "007",
    "units": "007",
    "delimitation": "02/18/11/007",
    "remark": "EXISTING PU",
    "ward_id": "378",
    "ward_name": "ZUMO",
    "local_government_id": "35",
    "local_government_name": "SONG",
    "state_id": "2",
    "state_name": "ADAMAWA",
    "location": {
      "latitude": 9.825752,
      "longitude": 12.61588,
      "viewport": {
        "northeast": {
          "lat": 9.82703932989272,
          "lng": 12.61697672989272
        },
        "southwest": {
          "lat": 9.824339670107276,
          "lng": 12.61427707010728
        }
      },
      "formatted_address": "Local Govt Area, 652106, Song, Nigeria",
      "google_map_url": "https://maps.google.com?q=9.825752,12.61588",
      "google_place_id": "ChIJNTRbVU2x_RARQwelp3pJ_QE"
    }
  },
  {
    "id": "7373",
    "name": "LABBARE/ K. J. WAMBAI",
    "registration_area_id": "378",
    "precise_location": null,
    "abbreviation": "008",
    "units": "008",
    "delimitation": "02/18/11/008",
    "remark": "EXISTING PU",
    "ward_id": "378",
    "ward_name": "ZUMO",
    "local_government_id": "35",
    "local_government_name": "SONG",
    "state_id": "2",
    "state_name": "ADAMAWA",
    "location": null
  },
  {
    "id": "7374",
    "name": "LAMORDE",
    "registration_area_id": "378",
    "precise_location": null,
    "abbreviation": "009",
    "units": "009",
    "delimitation": "02/18/11/009",
    "remark": "EXISTING PU",
    "ward_id": "378",
    "ward_name": "ZUMO",
    "local_government_id": "35",
    "local_government_name": "SONG",
    "state_id": "2",
    "state_name": "ADAMAWA",
    "location": {
      "latitude": 9.825752,
      "longitude": 12.61588,
      "viewport": {
        "northeast": {
          "lat": 9.82703932989272,
          "lng": 12.61697672989272
        },
        "southwest": {
          "lat": 9.824339670107276,
          "lng": 12.61427707010728
        }
      },
      "formatted_address": "Local Govt Area, 652106, Song, Nigeria",
      "google_map_url": "https://maps.google.com?q=9.825752,12.61588",
      "google_place_id": "ChIJNTRbVU2x_RARQwelp3pJ_QE"
    }
  },
  {
    "id": "7375",
    "name": "MAYEL KEWE",
    "registration_area_id": "378",
    "precise_location": null,
    "abbreviation": "010",
    "units": "010",
    "delimitation": "02/18/11/010",
    "remark": "EXISTING PU",
    "ward_id": "378",
    "ward_name": "ZUMO",
    "local_government_id": "35",
    "local_government_name": "SONG",
    "state_id": "2",
    "state_name": "ADAMAWA",
    "location": null
  },
  {
    "id": "7376",
    "name": "MAYO NGALBIWA",
    "registration_area_id": "378",
    "precise_location": null,
    "abbreviation": "011",
    "units": "011",
    "delimitation": "02/18/11/011",
    "remark": "EXISTING PU",
    "ward_id": "378",
    "ward_name": "ZUMO",
    "local_government_id": "35",
    "local_government_name": "SONG",
    "state_id": "2",
    "state_name": "ADAMAWA",
    "location": {
      "latitude": 9.825752,
      "longitude": 12.61588,
      "viewport": {
        "northeast": {
          "lat": 9.82703932989272,
          "lng": 12.61697672989272
        },
        "southwest": {
          "lat": 9.824339670107276,
          "lng": 12.61427707010728
        }
      },
      "formatted_address": "Local Govt Area, 652106, Song, Nigeria",
      "google_map_url": "https://maps.google.com?q=9.825752,12.61588",
      "google_place_id": "ChIJNTRbVU2x_RARQwelp3pJ_QE"
    }
  },
  {
    "id": "7377",
    "name": "HOLMA CLINIC",
    "registration_area_id": "378",
    "precise_location": null,
    "abbreviation": "012",
    "units": "012",
    "delimitation": "02/18/11/012",
    "remark": "NEW PU",
    "ward_id": "378",
    "ward_name": "ZUMO",
    "local_government_id": "35",
    "local_government_name": "SONG",
    "state_id": "2",
    "state_name": "ADAMAWA",
    "location": {
      "latitude": 10.2823697,
      "longitude": 13.2809392,
      "viewport": {
        "northeast": {
          "lat": 10.28368407989272,
          "lng": 13.28229572989272
        },
        "southwest": {
          "lat": 10.28098442010728,
          "lng": 13.27959607010728
        }
      },
      "formatted_address": "77JJ+W9W, Adamawa state university, Mubi, Nigeria",
      "google_map_url": "https://maps.google.com?q=10.2823697,13.2809392",
      "google_place_id": "ChIJEWx4RJRZ_RARBti71XN1frc"
    }
  },
  {
    "id": "7378",
    "name": "ZUMO PRIMARY SCHOOL",
    "registration_area_id": "378",
    "precise_location": null,
    "abbreviation": "013",
    "units": "013",
    "delimitation": "02/18/11/013",
    "remark": "NEW PU",
    "ward_id": "378",
    "ward_name": "ZUMO",
    "local_government_id": "35",
    "local_government_name": "SONG",
    "state_id": "2",
    "state_name": "ADAMAWA",
    "location": {
      "latitude": 10.2707543,
      "longitude": 13.2817639,
      "viewport": {
        "northeast": {
          "lat": 10.27222417989272,
          "lng": 13.28295002989272
        },
        "southwest": {
          "lat": 10.26952452010728,
          "lng": 13.28025037010728
        }
      },
      "formatted_address": "Lokuwa Primary School, 650101, Mubi, Nigeria",
      "google_map_url": "https://maps.google.com?q=10.2707543,13.2817639",
      "google_place_id": "ChIJY7mtnkZZ_RARNvgVNqUkWG8"
    }
  }
]