[
  {
    "id": "349710",
    "name": "AKODI LADAPO",
    "registration_area_id": "17814",
    "precise_location": null,
    "abbreviation": "001",
    "units": "001",
    "delimitation": "29/11/08/001",
    "remark": "EXISTING PU",
    "ward_id": "17814",
    "ward_name": "IREMO IV",
    "local_government_id": "610",
    "local_government_name": "IFE CENTRAL",
    "state_id": "29",
    "state_name": "OSUN",
    "location": null
  },
  {
    "id": "349711",
    "name": "AKODI AKUI",
    "registration_area_id": "17814",
    "precise_location": null,
    "abbreviation": "002",
    "units": "002",
    "delimitation": "29/11/08/002",
    "remark": "EXISTING PU",
    "ward_id": "17814",
    "ward_name": "IREMO IV",
    "local_government_id": "610",
    "local_government_name": "IFE CENTRAL",
    "state_id": "29",
    "state_name": "OSUN",
    "location": {
      "latitude": 7.520100299999999,
      "longitude": 4.5183996,
      "viewport": {
        "northeast": {
          "lat": 7.521502479892724,
          "lng": 4.519757779892722
        },
        "southwest": {
          "lat": 7.51880282010728,
          "lng": 4.517058120107278
        }
      },
      "formatted_address": "GGC9+29R, Obafemi Awolowo University, Ile-ife, Aluta-Faj Annex Road, Ife, Nigeria",
      "google_map_url": "https://maps.google.com?q=7.520100299999999,4.5183996",
      "google_place_id": "ChIJq5jZAyExOBARk3o5_DwrRHk"
    }
  },
  {
    "id": "349712",
    "name": "AKODI AKE",
    "registration_area_id": "17814",
    "precise_location": null,
    "abbreviation": "003",
    "units": "003",
    "delimitation": "29/11/08/003",
    "remark": "EXISTING PU",
    "ward_id": "17814",
    "ward_name": "IREMO IV",
    "local_government_id": "610",
    "local_government_name": "IFE CENTRAL",
    "state_id": "29",
    "state_name": "OSUN",
    "location": null
  },
  {
    "id": "349713",
    "name": "AKODI LUKOUN",
    "registration_area_id": "17814",
    "precise_location": null,
    "abbreviation": "004",
    "units": "004",
    "delimitation": "29/11/08/004",
    "remark": "EXISTING PU",
    "ward_id": "17814",
    "ward_name": "IREMO IV",
    "local_government_id": "610",
    "local_government_name": "IFE CENTRAL",
    "state_id": "29",
    "state_name": "OSUN",
    "location": null
  },
  {
    "id": "349714",
    "name": "AKODI JAGBERE",
    "registration_area_id": "17814",
    "precise_location": null,
    "abbreviation": "005",
    "units": "005",
    "delimitation": "29/11/08/005",
    "remark": "EXISTING PU",
    "ward_id": "17814",
    "ward_name": "IREMO IV",
    "local_government_id": "610",
    "local_government_name": "IFE CENTRAL",
    "state_id": "29",
    "state_name": "OSUN",
    "location": {
      "latitude": 7.4834612,
      "longitude": 4.5608785,
      "viewport": {
        "northeast": {
          "lat": 7.484789379892723,
          "lng": 4.562195379892722
        },
        "southwest": {
          "lat": 7.482089720107279,
          "lng": 4.559495720107278
        }
      },
      "formatted_address": "FHM6+99J, Oduduwa Coll Street, 220101, Ife, Nigeria",
      "google_map_url": "https://maps.google.com?q=7.4834612,4.5608785",
      "google_place_id": "ChIJ4aMmPl83OBARu8LXfNN6K_A"
    }
  },
  {
    "id": "349715",
    "name": "AKODI AJE",
    "registration_area_id": "17814",
    "precise_location": null,
    "abbreviation": "006",
    "units": "006",
    "delimitation": "29/11/08/006",
    "remark": "EXISTING PU",
    "ward_id": "17814",
    "ward_name": "IREMO IV",
    "local_government_id": "610",
    "local_government_name": "IFE CENTRAL",
    "state_id": "29",
    "state_name": "OSUN",
    "location": null
  },
  {
    "id": "349716",
    "name": "OPEN SPACE GBELENKAN ST.",
    "registration_area_id": "17814",
    "precise_location": null,
    "abbreviation": "007",
    "units": "007",
    "delimitation": "29/11/08/007",
    "remark": "EXISTING PU",
    "ward_id": "17814",
    "ward_name": "IREMO IV",
    "local_government_id": "610",
    "local_government_name": "IFE CENTRAL",
    "state_id": "29",
    "state_name": "OSUN",
    "location": {
      "latitude": 7.4959761,
      "longitude": 4.5474024,
      "viewport": {
        "northeast": {
          "lat": 7.497332979892722,
          "lng": 4.548807429892721
        },
        "southwest": {
          "lat": 7.494633320107278,
          "lng": 4.546107770107278
        }
      },
      "formatted_address": "FGWW+9XR, Off Ilesha Road, Ife, Nigeria",
      "google_map_url": "https://maps.google.com?q=7.4959761,4.5474024",
      "google_place_id": "ChIJg0epcD06OBARV1pkgnCpjyI"
    }
  },
  {
    "id": "349717",
    "name": "AKODI IJAROA",
    "registration_area_id": "17814",
    "precise_location": null,
    "abbreviation": "008",
    "units": "008",
    "delimitation": "29/11/08/008",
    "remark": "EXISTING PU",
    "ward_id": "17814",
    "ward_name": "IREMO IV",
    "local_government_id": "610",
    "local_government_name": "IFE CENTRAL",
    "state_id": "29",
    "state_name": "OSUN",
    "location": null
  },
  {
    "id": "349718",
    "name": "FRONTAGE - AMOO'S HOUSE",
    "registration_area_id": "17814",
    "precise_location": null,
    "abbreviation": "009",
    "units": "009",
    "delimitation": "29/11/08/009",
    "remark": "EXISTING PU",
    "ward_id": "17814",
    "ward_name": "IREMO IV",
    "local_government_id": "610",
    "local_government_name": "IFE CENTRAL",
    "state_id": "29",
    "state_name": "OSUN",
    "location": {
      "latitude": 7.493054000000001,
      "longitude": 4.5361281,
      "viewport": {
        "northeast": {
          "lat": 7.494457179892723,
          "lng": 4.537489779892723
        },
        "southwest": {
          "lat": 7.491757520107279,
          "lng": 4.534790120107279
        }
      },
      "formatted_address": "39 Olorunsogo Street, 220101, Ife, Nigeria",
      "google_map_url": "https://maps.google.com?q=7.493054000000001,4.5361281",
      "google_place_id": "ChIJOQSJvVA3OBARMjI5QQz6KQU"
    }
  },
  {
    "id": "349719",
    "name": "AKODI LANASE",
    "registration_area_id": "17814",
    "precise_location": null,
    "abbreviation": "010",
    "units": "010",
    "delimitation": "29/11/08/010",
    "remark": "EXISTING PU",
    "ward_id": "17814",
    "ward_name": "IREMO IV",
    "local_government_id": "610",
    "local_government_name": "IFE CENTRAL",
    "state_id": "29",
    "state_name": "OSUN",
    "location": null
  },
  {
    "id": "349720",
    "name": "AKODI AKILE",
    "registration_area_id": "17814",
    "precise_location": null,
    "abbreviation": "011",
    "units": "011",
    "delimitation": "29/11/08/011",
    "remark": "EXISTING PU",
    "ward_id": "17814",
    "ward_name": "IREMO IV",
    "local_government_id": "610",
    "local_government_name": "IFE CENTRAL",
    "state_id": "29",
    "state_name": "OSUN",
    "location": {
      "latitude": 7.4959761,
      "longitude": 4.5474024,
      "viewport": {
        "northeast": {
          "lat": 7.497332979892722,
          "lng": 4.548807429892721
        },
        "southwest": {
          "lat": 7.494633320107278,
          "lng": 4.546107770107278
        }
      },
      "formatted_address": "FGWW+9XR, Off Ilesha Road, Ife, Nigeria",
      "google_map_url": "https://maps.google.com?q=7.4959761,4.5474024",
      "google_place_id": "ChIJg0epcD06OBARV1pkgnCpjyI"
    }
  }
]