[
  {
    "id": "101109",
    "name": "BAI PRI.SCHOOL",
    "registration_area_id": "5146",
    "precise_location": null,
    "abbreviation": "001",
    "units": "001",
    "delimitation": "20/30/08/001",
    "remark": "EXISTING PU",
    "ward_id": "5146",
    "ward_name": "FARDAMI",
    "local_government_id": "443",
    "local_government_name": "RIMI",
    "state_id": "20",
    "state_name": "KATSINA",
    "location": {
      "latitude": 12.8424492,
      "longitude": 7.7438486,
      "viewport": {
        "northeast": {
          "lat": 12.84378877989272,
          "lng": 7.74519032989272
        },
        "southwest": {
          "lat": 12.84108912010728,
          "lng": 7.742490670107276
        }
      },
      "formatted_address": "RPRV+XGH, 822103, Rimi, Nigeria",
      "google_map_url": "https://maps.google.com?q=12.8424492,7.7438486",
      "google_place_id": "ChIJ3_ZWSFgosBERLonaESKYlV0"
    }
  },
  {
    "id": "101110",
    "name": "FARDAMI - FARDAMI PRI.SCHOOL",
    "registration_area_id": "5146",
    "precise_location": null,
    "abbreviation": "002",
    "units": "002",
    "delimitation": "20/30/08/002",
    "remark": "EXISTING PU",
    "ward_id": "5146",
    "ward_name": "FARDAMI",
    "local_government_id": "443",
    "local_government_name": "RIMI",
    "state_id": "20",
    "state_name": "KATSINA",
    "location": {
      "latitude": 12.8424492,
      "longitude": 7.7438486,
      "viewport": {
        "northeast": {
          "lat": 12.84378877989272,
          "lng": 7.74519032989272
        },
        "southwest": {
          "lat": 12.84108912010728,
          "lng": 7.742490670107276
        }
      },
      "formatted_address": "RPRV+XGH, 822103, Rimi, Nigeria",
      "google_map_url": "https://maps.google.com?q=12.8424492,7.7438486",
      "google_place_id": "ChIJ3_ZWSFgosBERLonaESKYlV0"
    }
  },
  {
    "id": "101111",
    "name": "YAN-ABU YAN-ABU",
    "registration_area_id": "5146",
    "precise_location": null,
    "abbreviation": "003",
    "units": "003",
    "delimitation": "20/30/08/003",
    "remark": "EXISTING PU",
    "ward_id": "5146",
    "ward_name": "FARDAMI",
    "local_government_id": "443",
    "local_government_name": "RIMI",
    "state_id": "20",
    "state_name": "KATSINA",
    "location": {
      "latitude": 12.8789341,
      "longitude": 7.735559499999999,
      "viewport": {
        "northeast": {
          "lat": 12.881869,
          "lng": 7.741759999999998
        },
        "southwest": {
          "lat": 12.87548,
          "lng": 7.7310461
        }
      },
      "formatted_address": "822103, Yanabu, Nigeria",
      "google_map_url": "https://maps.google.com?q=12.8789341,7.735559499999999",
      "google_place_id": "ChIJyYpY1ismsBERNIN5GjPXqok"
    }
  },
  {
    "id": "101112",
    "name": "GUNKI - GUNKI",
    "registration_area_id": "5146",
    "precise_location": null,
    "abbreviation": "004",
    "units": "004",
    "delimitation": "20/30/08/004",
    "remark": "EXISTING PU",
    "ward_id": "5146",
    "ward_name": "FARDAMI",
    "local_government_id": "443",
    "local_government_name": "RIMI",
    "state_id": "20",
    "state_name": "KATSINA",
    "location": {
      "latitude": 12.884119,
      "longitude": 7.7231697,
      "viewport": {
        "northeast": {
          "lat": 12.888141,
          "lng": 7.726324099999999
        },
        "southwest": {
          "lat": 12.8813129,
          "lng": 7.721287999999999
        }
      },
      "formatted_address": "822103, Gunki, Nigeria",
      "google_map_url": "https://maps.google.com?q=12.884119,7.7231697",
      "google_place_id": "ChIJ16xCDCMmsBERBrYs9WDRd24"
    }
  },
  {
    "id": "101113",
    "name": "YAKASAI - YAKASAI",
    "registration_area_id": "5146",
    "precise_location": null,
    "abbreviation": "005",
    "units": "005",
    "delimitation": "20/30/08/005",
    "remark": "EXISTING PU",
    "ward_id": "5146",
    "ward_name": "FARDAMI",
    "local_government_id": "443",
    "local_government_name": "RIMI",
    "state_id": "20",
    "state_name": "KATSINA",
    "location": {
      "latitude": 12.9051,
      "longitude": 7.594024099999999,
      "viewport": {
        "northeast": {
          "lat": 12.90601837989272,
          "lng": 7.595397879892722
        },
        "southwest": {
          "lat": 12.90331872010728,
          "lng": 7.592698220107279
        }
      },
      "formatted_address": "Dutsinma Road, 820102, Batagarawa, Nigeria",
      "google_map_url": "https://maps.google.com?q=12.9051,7.594024099999999",
      "google_place_id": "ChIJyegt3sY6sBERZiMqgv_1D04"
    }
  },
  {
    "id": "101114",
    "name": "MAKWALLA - MAKWALLA",
    "registration_area_id": "5146",
    "precise_location": null,
    "abbreviation": "006",
    "units": "006",
    "delimitation": "20/30/08/006",
    "remark": "EXISTING PU",
    "ward_id": "5146",
    "ward_name": "FARDAMI",
    "local_government_id": "443",
    "local_government_name": "RIMI",
    "state_id": "20",
    "state_name": "KATSINA",
    "location": {
      "latitude": 12.8881406,
      "longitude": 7.706328300000001,
      "viewport": {
        "northeast": {
          "lat": 12.88950602989272,
          "lng": 7.70772527989272
        },
        "southwest": {
          "lat": 12.88680637010728,
          "lng": 7.705025620107277
        }
      },
      "formatted_address": "Makwalla Primary School, 822103, Nigeria",
      "google_map_url": "https://maps.google.com?q=12.8881406,7.706328300000001",
      "google_place_id": "ChIJz794gg8msBER1JuSmtrQZ2o"
    }
  },
  {
    "id": "101115",
    "name": "TOKAWA - TOKAWA",
    "registration_area_id": "5146",
    "precise_location": null,
    "abbreviation": "007",
    "units": "007",
    "delimitation": "20/30/08/007",
    "remark": "EXISTING PU",
    "ward_id": "5146",
    "ward_name": "FARDAMI",
    "local_government_id": "443",
    "local_government_name": "RIMI",
    "state_id": "20",
    "state_name": "KATSINA",
    "location": {
      "latitude": 12.8755566,
      "longitude": 7.7532143,
      "viewport": {
        "northeast": {
          "lat": 12.8788131,
          "lng": 7.7580321
        },
        "southwest": {
          "lat": 12.8735349,
          "lng": 7.748893000000001
        }
      },
      "formatted_address": "822103, Tokawa, Nigeria",
      "google_map_url": "https://maps.google.com?q=12.8755566,7.7532143",
      "google_place_id": "ChIJB4o_FtgnsBERltID7vsFSkA"
    }
  },
  {
    "id": "101116",
    "name": "YAR KWANA",
    "registration_area_id": "5146",
    "precise_location": null,
    "abbreviation": "008",
    "units": "008",
    "delimitation": "20/30/08/008",
    "remark": "NEW PU",
    "ward_id": "5146",
    "ward_name": "FARDAMI",
    "local_government_id": "443",
    "local_government_name": "RIMI",
    "state_id": "20",
    "state_name": "KATSINA",
    "location": {
      "latitude": 12.9051,
      "longitude": 7.594024099999999,
      "viewport": {
        "northeast": {
          "lat": 12.90601837989272,
          "lng": 7.595397879892722
        },
        "southwest": {
          "lat": 12.90331872010728,
          "lng": 7.592698220107279
        }
      },
      "formatted_address": "Dutsinma Road, 820102, Batagarawa, Nigeria",
      "google_map_url": "https://maps.google.com?q=12.9051,7.594024099999999",
      "google_place_id": "ChIJyegt3sY6sBERZiMqgv_1D04"
    }
  },
  {
    "id": "101117",
    "name": "KOFAR FADA GALADIMA",
    "registration_area_id": "5146",
    "precise_location": null,
    "abbreviation": "009",
    "units": "009",
    "delimitation": "20/30/08/009",
    "remark": "NEW PU",
    "ward_id": "5146",
    "ward_name": "FARDAMI",
    "local_government_id": "443",
    "local_government_name": "RIMI",
    "state_id": "20",
    "state_name": "KATSINA",
    "location": {
      "latitude": 12.9051,
      "longitude": 7.594024099999999,
      "viewport": {
        "northeast": {
          "lat": 12.90601837989272,
          "lng": 7.595397879892722
        },
        "southwest": {
          "lat": 12.90331872010728,
          "lng": 7.592698220107279
        }
      },
      "formatted_address": "Dutsinma Road, 820102, Batagarawa, Nigeria",
      "google_map_url": "https://maps.google.com?q=12.9051,7.594024099999999",
      "google_place_id": "ChIJyegt3sY6sBERZiMqgv_1D04"
    }
  },
  {
    "id": "101118",
    "name": "HOSPITAL MAKWALLA",
    "registration_area_id": "5146",
    "precise_location": null,
    "abbreviation": "010",
    "units": "010",
    "delimitation": "20/30/08/010",
    "remark": "NEW PU",
    "ward_id": "5146",
    "ward_name": "FARDAMI",
    "local_government_id": "443",
    "local_government_name": "RIMI",
    "state_id": "20",
    "state_name": "KATSINA",
    "location": {
      "latitude": 12.8462834,
      "longitude": 7.700376400000001,
      "viewport": {
        "northeast": {
          "lat": 12.84799507989272,
          "lng": 7.701584579892721
        },
        "southwest": {
          "lat": 12.84529542010728,
          "lng": 7.698884920107277
        }
      },
      "formatted_address": "RPW2+G56, 822103, Rimi, Nigeria",
      "google_map_url": "https://maps.google.com?q=12.8462834,7.700376400000001",
      "google_place_id": "ChIJE75Q8swosBERbrURX9hDAqI"
    }
  },
  {
    "id": "101119",
    "name": "GABASAWA",
    "registration_area_id": "5146",
    "precise_location": null,
    "abbreviation": "011",
    "units": "011",
    "delimitation": "20/30/08/011",
    "remark": "NEW PU",
    "ward_id": "5146",
    "ward_name": "FARDAMI",
    "local_government_id": "443",
    "local_government_name": "RIMI",
    "state_id": "20",
    "state_name": "KATSINA",
    "location": {
      "latitude": 12.9051,
      "longitude": 7.594024099999999,
      "viewport": {
        "northeast": {
          "lat": 12.90601837989272,
          "lng": 7.595397879892722
        },
        "southwest": {
          "lat": 12.90331872010728,
          "lng": 7.592698220107279
        }
      },
      "formatted_address": "Dutsinma Road, 820102, Batagarawa, Nigeria",
      "google_map_url": "https://maps.google.com?q=12.9051,7.594024099999999",
      "google_place_id": "ChIJyegt3sY6sBERZiMqgv_1D04"
    }
  }
]