[
  {
    "id": "357917",
    "name": "BAPTIST SCHOOL AGBOYE",
    "registration_area_id": "18333",
    "precise_location": null,
    "abbreviation": "001",
    "units": "001",
    "delimitation": "30/29/01/001",
    "remark": "EXISTING PU",
    "ward_id": "18333",
    "ward_name": "AGBOYE/MOLETE",
    "local_government_id": "656",
    "local_government_name": "OYO EAST",
    "state_id": "30",
    "state_name": "OYO",
    "location": {
      "latitude": 7.840462899999999,
      "longitude": 3.941690899999999,
      "viewport": {
        "northeast": {
          "lat": 7.841942629892722,
          "lng": 3.943144229892723
        },
        "southwest": {
          "lat": 7.839242970107277,
          "lng": 3.940444570107279
        }
      },
      "formatted_address": "6FV5RWRR+5MF 2 Agboye, Oyo, Oyo, Nigeria",
      "google_map_url": "https://maps.google.com?q=7.840462899999999,3.941690899999999",
      "google_place_id": "ChIJ61nhRlpZNxAR-j6Ogxb5GIE"
    }
  },
  {
    "id": "357918",
    "name": "MIN. OF TRADE & INDUSTRIES",
    "registration_area_id": "18333",
    "precise_location": null,
    "abbreviation": "002",
    "units": "002",
    "delimitation": "30/29/01/002",
    "remark": "EXISTING PU",
    "ward_id": "18333",
    "ward_name": "AGBOYE/MOLETE",
    "local_government_id": "656",
    "local_government_name": "OYO EAST",
    "state_id": "30",
    "state_name": "OYO",
    "location": {
      "latitude": 43.6032413,
      "longitude": -79.6491542,
      "viewport": {
        "northeast": {
          "lat": 43.60457337989272,
          "lng": -79.64795977010728
        },
        "southwest": {
          "lat": 43.60187372010728,
          "lng": -79.65065942989271
        }
      },
      "formatted_address": "10 Kingsbridge Garden Cir #4, Mississauga, ON L5R 3K6, Canada",
      "google_map_url": "https://maps.google.com?q=43.6032413,-79.6491542",
      "google_place_id": "ChIJmaijljRHK4gRwBkLXUB8Iew"
    }
  },
  {
    "id": "357919",
    "name": "AGURE O/S",
    "registration_area_id": "18333",
    "precise_location": null,
    "abbreviation": "003",
    "units": "003",
    "delimitation": "30/29/01/003",
    "remark": "EXISTING PU",
    "ward_id": "18333",
    "ward_name": "AGBOYE/MOLETE",
    "local_government_id": "656",
    "local_government_name": "OYO EAST",
    "state_id": "30",
    "state_name": "OYO",
    "location": {
      "latitude": 7.832566099999999,
      "longitude": 3.9192967,
      "viewport": {
        "northeast": {
          "lat": 7.83405702989272,
          "lng": 3.920734079892721
        },
        "southwest": {
          "lat": 7.831357370107276,
          "lng": 3.918034420107277
        }
      },
      "formatted_address": "RWM9+2P6, Owode 211172, Oyo, Nigeria",
      "google_map_url": "https://maps.google.com?q=7.832566099999999,3.9192967",
      "google_place_id": "ChIJt230J_ZZNxARaTW0IemAb6A"
    }
  },
  {
    "id": "357920",
    "name": "MOLETE O/S",
    "registration_area_id": "18333",
    "precise_location": null,
    "abbreviation": "004",
    "units": "004",
    "delimitation": "30/29/01/004",
    "remark": "EXISTING PU",
    "ward_id": "18333",
    "ward_name": "AGBOYE/MOLETE",
    "local_government_id": "656",
    "local_government_name": "OYO EAST",
    "state_id": "30",
    "state_name": "OYO",
    "location": {
      "latitude": 7.832566099999999,
      "longitude": 3.9192967,
      "viewport": {
        "northeast": {
          "lat": 7.83405702989272,
          "lng": 3.920734079892721
        },
        "southwest": {
          "lat": 7.831357370107276,
          "lng": 3.918034420107277
        }
      },
      "formatted_address": "RWM9+2P6, Owode 211172, Oyo, Nigeria",
      "google_map_url": "https://maps.google.com?q=7.832566099999999,3.9192967",
      "google_place_id": "ChIJt230J_ZZNxARaTW0IemAb6A"
    }
  },
  {
    "id": "357921",
    "name": "ODE ALARE O/S",
    "registration_area_id": "18333",
    "precise_location": null,
    "abbreviation": "005",
    "units": "005",
    "delimitation": "30/29/01/005",
    "remark": "EXISTING PU",
    "ward_id": "18333",
    "ward_name": "AGBOYE/MOLETE",
    "local_government_id": "656",
    "local_government_name": "OYO EAST",
    "state_id": "30",
    "state_name": "OYO",
    "location": {
      "latitude": 7.411091700000001,
      "longitude": 3.9088469,
      "viewport": {
        "northeast": {
          "lat": 7.412383229892722,
          "lng": 3.910163579892722
        },
        "southwest": {
          "lat": 7.409683570107278,
          "lng": 3.907463920107278
        }
      },
      "formatted_address": "CW65+CGQ, Parliament Rd, Mokola Hill 200285, Ibadan, Nigeria",
      "google_map_url": "https://maps.google.com?q=7.411091700000001,3.9088469",
      "google_place_id": "ChIJNSyUhqiSORARocEHS0WVesE"
    }
  },
  {
    "id": "357922",
    "name": "MAYE VILLAGE",
    "registration_area_id": "18333",
    "precise_location": null,
    "abbreviation": "006",
    "units": "006",
    "delimitation": "30/29/01/006",
    "remark": "EXISTING PU",
    "ward_id": "18333",
    "ward_name": "AGBOYE/MOLETE",
    "local_government_id": "656",
    "local_government_name": "OYO EAST",
    "state_id": "30",
    "state_name": "OYO",
    "location": {
      "latitude": 7.837575200000001,
      "longitude": 3.9402169,
      "viewport": {
        "northeast": {
          "lat": 7.83895222989272,
          "lng": 3.941614379892723
        },
        "southwest": {
          "lat": 7.836252570107276,
          "lng": 3.938914720107279
        }
      },
      "formatted_address": "RWQR+23G, Along Oyo-Ogbomoso Road, Oyo Town, Nigeria",
      "google_map_url": "https://maps.google.com?q=7.837575200000001,3.9402169",
      "google_place_id": "ChIJYf19d3xZNxAROFyZpVAUE84"
    }
  },
  {
    "id": "357923",
    "name": "ISEKE VILLAGE",
    "registration_area_id": "18333",
    "precise_location": null,
    "abbreviation": "007",
    "units": "007",
    "delimitation": "30/29/01/007",
    "remark": "EXISTING PU",
    "ward_id": "18333",
    "ward_name": "AGBOYE/MOLETE",
    "local_government_id": "656",
    "local_government_name": "OYO EAST",
    "state_id": "30",
    "state_name": "OYO",
    "location": {
      "latitude": 7.843784400000001,
      "longitude": 3.9209171,
      "viewport": {
        "northeast": {
          "lat": 7.846426699999999,
          "lng": 3.9249079
        },
        "southwest": {
          "lat": 7.840085299999999,
          "lng": 3.9176823
        }
      },
      "formatted_address": "Iseke, Oyo, Nigeria",
      "google_map_url": "https://maps.google.com?q=7.843784400000001,3.9209171",
      "google_place_id": "ChIJ_d9j_vFZNxAR8m9O0v1LCPA"
    }
  },
  {
    "id": "357924",
    "name": "OPEN SPACE BARA JUNCTION",
    "registration_area_id": "18333",
    "precise_location": null,
    "abbreviation": "008",
    "units": "008",
    "delimitation": "30/29/01/008",
    "remark": "NEW PU",
    "ward_id": "18333",
    "ward_name": "AGBOYE/MOLETE",
    "local_government_id": "656",
    "local_government_name": "OYO EAST",
    "state_id": "30",
    "state_name": "OYO",
    "location": {
      "latitude": 7.842957900000001,
      "longitude": 3.9368439,
      "viewport": {
        "northeast": {
          "lat": 7.844168879892723,
          "lng": 3.938089079892722
        },
        "southwest": {
          "lat": 7.841469220107279,
          "lng": 3.935389420107278
        }
      },
      "formatted_address": "Balogun 211271, Oyo, Nigeria",
      "google_map_url": "https://maps.google.com?q=7.842957900000001,3.9368439",
      "google_place_id": "ChIJe3O8lIZZNxARM5YG6e4v87o"
    }
  },
  {
    "id": "357925",
    "name": "OPEN SPACE AT ALAGBA JUNCTION",
    "registration_area_id": "18333",
    "precise_location": null,
    "abbreviation": "009",
    "units": "009",
    "delimitation": "30/29/01/009",
    "remark": "NEW PU",
    "ward_id": "18333",
    "ward_name": "AGBOYE/MOLETE",
    "local_government_id": "656",
    "local_government_name": "OYO EAST",
    "state_id": "30",
    "state_name": "OYO",
    "location": {
      "latitude": 7.865154,
      "longitude": 3.9297393,
      "viewport": {
        "northeast": {
          "lat": 7.86643752989272,
          "lng": 3.930987029892721
        },
        "southwest": {
          "lat": 7.863737870107276,
          "lng": 3.928287370107277
        }
      },
      "formatted_address": "VW8H+3V9, Koso 211172, Oyo, Nigeria",
      "google_map_url": "https://maps.google.com?q=7.865154,3.9297393",
      "google_place_id": "ChIJnzCU0TxaNxARc8Wp8xxPjvI"
    }
  },
  {
    "id": "357926",
    "name": "OPEN SPACE ALAGBEDE",
    "registration_area_id": "18333",
    "precise_location": null,
    "abbreviation": "010",
    "units": "010",
    "delimitation": "30/29/01/010",
    "remark": "NEW PU",
    "ward_id": "18333",
    "ward_name": "AGBOYE/MOLETE",
    "local_government_id": "656",
    "local_government_name": "OYO EAST",
    "state_id": "30",
    "state_name": "OYO",
    "location": {
      "latitude": 7.837575200000001,
      "longitude": 3.9402169,
      "viewport": {
        "northeast": {
          "lat": 7.83895222989272,
          "lng": 3.941614379892723
        },
        "southwest": {
          "lat": 7.836252570107276,
          "lng": 3.938914720107279
        }
      },
      "formatted_address": "RWQR+23G, Along Oyo-Ogbomoso Road, Oyo Town, Nigeria",
      "google_map_url": "https://maps.google.com?q=7.837575200000001,3.9402169",
      "google_place_id": "ChIJYf19d3xZNxAROFyZpVAUE84"
    }
  },
  {
    "id": "357927",
    "name": "OPEN SPACE BUKU",
    "registration_area_id": "18333",
    "precise_location": null,
    "abbreviation": "011",
    "units": "011",
    "delimitation": "30/29/01/011",
    "remark": "NEW PU",
    "ward_id": "18333",
    "ward_name": "AGBOYE/MOLETE",
    "local_government_id": "656",
    "local_government_name": "OYO EAST",
    "state_id": "30",
    "state_name": "OYO",
    "location": {
      "latitude": 7.832566099999999,
      "longitude": 3.9192967,
      "viewport": {
        "northeast": {
          "lat": 7.83405702989272,
          "lng": 3.920734079892721
        },
        "southwest": {
          "lat": 7.831357370107276,
          "lng": 3.918034420107277
        }
      },
      "formatted_address": "RWM9+2P6, Owode 211172, Oyo, Nigeria",
      "google_map_url": "https://maps.google.com?q=7.832566099999999,3.9192967",
      "google_place_id": "ChIJt230J_ZZNxARaTW0IemAb6A"
    }
  }
]