[
  {
    "id": "338747",
    "name": "ALLAWA PRIMARY SCHOOL  I",
    "registration_area_id": "17217",
    "precise_location": null,
    "abbreviation": "001",
    "units": "001",
    "delimitation": "26/22/01/001",
    "remark": "EXISTING PU",
    "ward_id": "17217",
    "ward_name": "ALLAWA",
    "local_government_id": "558",
    "local_government_name": "SHIRORO",
    "state_id": "26",
    "state_name": "NIGER",
    "location": null
  },
  {
    "id": "338748",
    "name": "ALLAWA PRIMARY SCHOOL II",
    "registration_area_id": "17217",
    "precise_location": null,
    "abbreviation": "002",
    "units": "002",
    "delimitation": "26/22/01/002",
    "remark": "EXISTING PU",
    "ward_id": "17217",
    "ward_name": "ALLAWA",
    "local_government_id": "558",
    "local_government_name": "SHIRORO",
    "state_id": "26",
    "state_name": "NIGER",
    "location": {
      "latitude": 10.2763896,
      "longitude": 6.6035557,
      "viewport": {
        "northeast": {
          "lat": 10.27773942989272,
          "lng": 6.604905529892722
        },
        "southwest": {
          "lat": 10.27503977010728,
          "lng": 6.602205870107278
        }
      },
      "formatted_address": "7JG3+HC3, 921102, Kalia, Nigeria",
      "google_map_url": "https://maps.google.com?q=10.2763896,6.6035557",
      "google_place_id": "ChIJTzWZN5m8TBARV9Fv5ESZOI0"
    }
  },
  {
    "id": "338749",
    "name": "BURWAYE",
    "registration_area_id": "17217",
    "precise_location": null,
    "abbreviation": "003",
    "units": "003",
    "delimitation": "26/22/01/003",
    "remark": "EXISTING PU",
    "ward_id": "17217",
    "ward_name": "ALLAWA",
    "local_government_id": "558",
    "local_government_name": "SHIRORO",
    "state_id": "26",
    "state_name": "NIGER",
    "location": {
      "latitude": 9.973120600000001,
      "longitude": 6.834343400000001,
      "viewport": {
        "northeast": {
          "lat": 9.973887479892722,
          "lng": 6.8362043
        },
        "southwest": {
          "lat": 9.971187820107279,
          "lng": 6.8287607
        }
      },
      "formatted_address": "XRFM+6PW, kuta Zumba Rd, 921101, Asha, Nigeria",
      "google_map_url": "https://maps.google.com?q=9.973120600000001,6.834343400000001",
      "google_place_id": "ChIJCWUb2SnyTBAR216xG1Fo5NU"
    }
  },
  {
    "id": "338750",
    "name": "GYARAMIYA",
    "registration_area_id": "17217",
    "precise_location": null,
    "abbreviation": "004",
    "units": "004",
    "delimitation": "26/22/01/004",
    "remark": "EXISTING PU",
    "ward_id": "17217",
    "ward_name": "ALLAWA",
    "local_government_id": "558",
    "local_government_name": "SHIRORO",
    "state_id": "26",
    "state_name": "NIGER",
    "location": {
      "latitude": 10.3079,
      "longitude": 6.643899999999999,
      "viewport": {
        "northeast": {
          "lat": 10.30905312989272,
          "lng": 6.645558179892721
        },
        "southwest": {
          "lat": 10.30635347010728,
          "lng": 6.642858520107277
        }
      },
      "formatted_address": "8J5V+5H6, 921102, Alawa, Nigeria",
      "google_map_url": "https://maps.google.com?q=10.3079,6.643899999999999",
      "google_place_id": "ChIJV5aE7MC7TBARzNXFXazpLS0"
    }
  },
  {
    "id": "338751",
    "name": "TEGINA GAUDE",
    "registration_area_id": "17217",
    "precise_location": null,
    "abbreviation": "005",
    "units": "005",
    "delimitation": "26/22/01/005",
    "remark": "EXISTING PU",
    "ward_id": "17217",
    "ward_name": "ALLAWA",
    "local_government_id": "558",
    "local_government_name": "SHIRORO",
    "state_id": "26",
    "state_name": "NIGER",
    "location": {
      "latitude": 10.2327696,
      "longitude": 6.625641,
      "viewport": {
        "northeast": {
          "lat": 10.23410652989272,
          "lng": 6.627046079892721
        },
        "southwest": {
          "lat": 10.23140687010728,
          "lng": 6.624346420107277
        }
      },
      "formatted_address": "7F286JMG+37J Allawa shiroro Niger, Tegina, 921102, Kalia, Nigeria",
      "google_map_url": "https://maps.google.com?q=10.2327696,6.625641",
      "google_place_id": "ChIJS2DV5JK9TBARIV27ZP5dSmI"
    }
  },
  {
    "id": "338752",
    "name": "UNG. SARKIN NOMA",
    "registration_area_id": "17217",
    "precise_location": null,
    "abbreviation": "006",
    "units": "006",
    "delimitation": "26/22/01/006",
    "remark": "EXISTING PU",
    "ward_id": "17217",
    "ward_name": "ALLAWA",
    "local_government_id": "558",
    "local_government_name": "SHIRORO",
    "state_id": "26",
    "state_name": "NIGER",
    "location": {
      "latitude": 10.7101186,
      "longitude": 6.823768599999999,
      "viewport": {
        "northeast": {
          "lat": 10.71146842989272,
          "lng": 6.825118429892721
        },
        "southwest": {
          "lat": 10.70876877010728,
          "lng": 6.822418770107277
        }
      },
      "formatted_address": "7F28PR6F+3FQ Ung. Sarkin noma, Kufara Kan Hauwa, Nigeria",
      "google_map_url": "https://maps.google.com?q=10.7101186,6.823768599999999",
      "google_place_id": "ChIJxa7Q9Mo3sxERIgOMeCtjc0M"
    }
  },
  {
    "id": "338753",
    "name": "KEKE",
    "registration_area_id": "17217",
    "precise_location": null,
    "abbreviation": "007",
    "units": "007",
    "delimitation": "26/22/01/007",
    "remark": "EXISTING PU",
    "ward_id": "17217",
    "ward_name": "ALLAWA",
    "local_government_id": "558",
    "local_government_name": "SHIRORO",
    "state_id": "26",
    "state_name": "NIGER",
    "location": {
      "latitude": 10.4672072,
      "longitude": 6.5670787,
      "viewport": {
        "northeast": {
          "lat": 10.46843677989272,
          "lng": 6.568714829892722
        },
        "southwest": {
          "lat": 10.46573712010728,
          "lng": 6.566015170107278
        }
      },
      "formatted_address": "921102, Keke, Nigeria",
      "google_map_url": "https://maps.google.com?q=10.4672072,6.5670787",
      "google_place_id": "ChIJk2ouUuOtTBAR6fvejS66VF4"
    }
  },
  {
    "id": "338754",
    "name": "DAGAM",
    "registration_area_id": "17217",
    "precise_location": null,
    "abbreviation": "008",
    "units": "008",
    "delimitation": "26/22/01/008",
    "remark": "EXISTING PU",
    "ward_id": "17217",
    "ward_name": "ALLAWA",
    "local_government_id": "558",
    "local_government_name": "SHIRORO",
    "state_id": "26",
    "state_name": "NIGER",
    "location": {
      "latitude": 10.5062107,
      "longitude": 6.7226566,
      "viewport": {
        "northeast": {
          "lat": 10.5171814,
          "lng": 6.738664
        },
        "southwest": {
          "lat": 10.4952396,
          "lng": 6.706649199999999
        }
      },
      "formatted_address": "921102, Dagam, Nigeria",
      "google_map_url": "https://maps.google.com?q=10.5062107,6.7226566",
      "google_place_id": "ChIJd3XM2Zy0TBAR71DsHa5rHbQ"
    }
  },
  {
    "id": "338755",
    "name": "UNG. HAKIMI",
    "registration_area_id": "17217",
    "precise_location": null,
    "abbreviation": "009",
    "units": "009",
    "delimitation": "26/22/01/009",
    "remark": "EXISTING PU",
    "ward_id": "17217",
    "ward_name": "ALLAWA",
    "local_government_id": "558",
    "local_government_name": "SHIRORO",
    "state_id": "26",
    "state_name": "NIGER",
    "location": {
      "latitude": 9.973120600000001,
      "longitude": 6.834343400000001,
      "viewport": {
        "northeast": {
          "lat": 9.973887479892722,
          "lng": 6.8362043
        },
        "southwest": {
          "lat": 9.971187820107279,
          "lng": 6.8287607
        }
      },
      "formatted_address": "XRFM+6PW, kuta Zumba Rd, 921101, Asha, Nigeria",
      "google_map_url": "https://maps.google.com?q=9.973120600000001,6.834343400000001",
      "google_place_id": "ChIJCWUb2SnyTBAR216xG1Fo5NU"
    }
  },
  {
    "id": "338756",
    "name": "BATARO",
    "registration_area_id": "17217",
    "precise_location": null,
    "abbreviation": "010",
    "units": "010",
    "delimitation": "26/22/01/010",
    "remark": "EXISTING PU",
    "ward_id": "17217",
    "ward_name": "ALLAWA",
    "local_government_id": "558",
    "local_government_name": "SHIRORO",
    "state_id": "26",
    "state_name": "NIGER",
    "location": {
      "latitude": 10.2837092,
      "longitude": 6.732850399999999,
      "viewport": {
        "northeast": {
          "lat": 10.28503432989272,
          "lng": 6.734168129892723
        },
        "southwest": {
          "lat": 10.28233467010728,
          "lng": 6.731468470107279
        }
      },
      "formatted_address": "921102, Gidan Jatao Bataro, Nigeria",
      "google_map_url": "https://maps.google.com?q=10.2837092,6.732850399999999",
      "google_place_id": "ChIJxdgKeLS4TBARNcM-AG_gO-g"
    }
  },
  {
    "id": "338757",
    "name": "MODEL PRI.SCH. ALLAWA",
    "registration_area_id": "17217",
    "precise_location": null,
    "abbreviation": "011",
    "units": "011",
    "delimitation": "26/22/01/011",
    "remark": "NEW PU",
    "ward_id": "17217",
    "ward_name": "ALLAWA",
    "local_government_id": "558",
    "local_government_name": "SHIRORO",
    "state_id": "26",
    "state_name": "NIGER",
    "location": {
      "latitude": 10.32882,
      "longitude": 6.659854999999999,
      "viewport": {
        "northeast": {
          "lat": 10.32996882989272,
          "lng": 6.661358279892721
        },
        "southwest": {
          "lat": 10.32726917010728,
          "lng": 6.658658620107277
        }
      },
      "formatted_address": "7F288MH5+GWH Angwan Sarikin Hausawa, Alawa, Nigeria",
      "google_map_url": "https://maps.google.com?q=10.32882,6.659854999999999",
      "google_place_id": "ChIJsygFNOK7TBAR2uTyw19aYNs"
    }
  }
]