[
  {
    "id": "349292",
    "name": "ORISUMBARE VILLAGE",
    "registration_area_id": "17780",
    "precise_location": null,
    "abbreviation": "001",
    "units": "001",
    "delimitation": "29/08/05/001",
    "remark": "EXISTING PU",
    "ward_id": "17780",
    "ward_name": "ALAJUE II",
    "local_government_id": "607",
    "local_government_name": "EDE SOUTH",
    "state_id": "29",
    "state_name": "OSUN",
    "location": {
      "latitude": 7.778475,
      "longitude": 4.5484327,
      "viewport": {
        "northeast": {
          "lat": 7.779929179892723,
          "lng": 4.549846379892721
        },
        "southwest": {
          "lat": 7.777229520107279,
          "lng": 4.547146720107277
        }
      },
      "formatted_address": "Opposite Railway, Gbongan Rd, 230284, Osogbo, Nigeria",
      "google_map_url": "https://maps.google.com?q=7.778475,4.5484327",
      "google_place_id": "ChIJjZ0ChemHNxAR4pzIIw9obEw"
    }
  },
  {
    "id": "349293",
    "name": "L.A. SCHOOL, PONPOLA",
    "registration_area_id": "17780",
    "precise_location": null,
    "abbreviation": "002",
    "units": "002",
    "delimitation": "29/08/05/002",
    "remark": "EXISTING PU",
    "ward_id": "17780",
    "ward_name": "ALAJUE II",
    "local_government_id": "607",
    "local_government_name": "EDE SOUTH",
    "state_id": "29",
    "state_name": "OSUN",
    "location": {
      "latitude": 7.7603338,
      "longitude": 4.46155,
      "viewport": {
        "northeast": {
          "lat": 7.761671679892722,
          "lng": 4.462883679892721
        },
        "southwest": {
          "lat": 7.758972020107278,
          "lng": 4.460184020107277
        }
      },
      "formatted_address": "QF66+4JM, Osogbo Road, 232104, Ede, Nigeria",
      "google_map_url": "https://maps.google.com?q=7.7603338,4.46155",
      "google_place_id": "ChIJXaA75gkqOBARzG2H4g2VvU0"
    }
  },
  {
    "id": "349294",
    "name": "Y.T.D. OGBAAGBA",
    "registration_area_id": "17780",
    "precise_location": null,
    "abbreviation": "003",
    "units": "003",
    "delimitation": "29/08/05/003",
    "remark": "EXISTING PU",
    "ward_id": "17780",
    "ward_name": "ALAJUE II",
    "local_government_id": "607",
    "local_government_name": "EDE SOUTH",
    "state_id": "29",
    "state_name": "OSUN",
    "location": {
      "latitude": 7.669928,
      "longitude": 4.429302400000001,
      "viewport": {
        "northeast": {
          "lat": 7.671277879892721,
          "lng": 4.430652229892723
        },
        "southwest": {
          "lat": 7.668578220107277,
          "lng": 4.427952570107279
        }
      },
      "formatted_address": "YTD Primary School, Ogbaagba 232101, Ede, Nigeria",
      "google_map_url": "https://maps.google.com?q=7.669928,4.429302400000001",
      "google_place_id": "ChIJ-_vBK7ItOBARK2vHM6hYvQI"
    }
  },
  {
    "id": "349295",
    "name": "L.A. SCHOOL, ALAJUE  I",
    "registration_area_id": "17780",
    "precise_location": null,
    "abbreviation": "004",
    "units": "004",
    "delimitation": "29/08/05/004",
    "remark": "EXISTING PU",
    "ward_id": "17780",
    "ward_name": "ALAJUE II",
    "local_government_id": "607",
    "local_government_name": "EDE SOUTH",
    "state_id": "29",
    "state_name": "OSUN",
    "location": {
      "latitude": 7.726198900000001,
      "longitude": 4.4314314,
      "viewport": {
        "northeast": {
          "lat": 7.727524679892722,
          "lng": 4.432826029892722
        },
        "southwest": {
          "lat": 7.724825020107279,
          "lng": 4.430126370107278
        }
      },
      "formatted_address": "PCGJ+FHF, 232101, Ede, Nigeria",
      "google_map_url": "https://maps.google.com?q=7.726198900000001,4.4314314",
      "google_place_id": "ChIJwYXlpfsqOBARW4LTJTIzdUs"
    }
  },
  {
    "id": "349296",
    "name": "L.A. SCHOOL, ALAJUE II",
    "registration_area_id": "17780",
    "precise_location": null,
    "abbreviation": "005",
    "units": "005",
    "delimitation": "29/08/05/005",
    "remark": "EXISTING PU",
    "ward_id": "17780",
    "ward_name": "ALAJUE II",
    "local_government_id": "607",
    "local_government_name": "EDE SOUTH",
    "state_id": "29",
    "state_name": "OSUN",
    "location": {
      "latitude": 7.7346133,
      "longitude": 4.4432474,
      "viewport": {
        "northeast": {
          "lat": 7.735964079892721,
          "lng": 4.444597679892722
        },
        "southwest": {
          "lat": 7.733264420107277,
          "lng": 4.441898020107278
        }
      },
      "formatted_address": "PCMV+R7Q, Alusekere Street, 232101, Ede, Nigeria",
      "google_map_url": "https://maps.google.com?q=7.7346133,4.4432474",
      "google_place_id": "ChIJY6AY2isrOBARZWmW9sstjAg"
    }
  },
  {
    "id": "349297",
    "name": "AMINIWON VILLAGE",
    "registration_area_id": "17780",
    "precise_location": null,
    "abbreviation": "006",
    "units": "006",
    "delimitation": "29/08/05/006",
    "remark": "EXISTING PU",
    "ward_id": "17780",
    "ward_name": "ALAJUE II",
    "local_government_id": "607",
    "local_government_name": "EDE SOUTH",
    "state_id": "29",
    "state_name": "OSUN",
    "location": {
      "latitude": 7.700849400000001,
      "longitude": 4.4658203,
      "viewport": {
        "northeast": {
          "lat": 7.702199229892723,
          "lng": 4.467170129892721
        },
        "southwest": {
          "lat": 7.699499570107279,
          "lng": 4.464470470107277
        }
      },
      "formatted_address": "Cottage-Aisu Rd, 232101, Ede, Nigeria",
      "google_map_url": "https://maps.google.com?q=7.700849400000001,4.4658203",
      "google_place_id": "ChIJtXhwxbkrOBAR56ltbOdwFLY"
    }
  },
  {
    "id": "349298",
    "name": "L.A. SCHOOL, AGBINPA VILLAGE",
    "registration_area_id": "17780",
    "precise_location": null,
    "abbreviation": "007",
    "units": "007",
    "delimitation": "29/08/05/007",
    "remark": "EXISTING PU",
    "ward_id": "17780",
    "ward_name": "ALAJUE II",
    "local_government_id": "607",
    "local_government_name": "EDE SOUTH",
    "state_id": "29",
    "state_name": "OSUN",
    "location": {
      "latitude": 7.711033899999999,
      "longitude": 4.448626,
      "viewport": {
        "northeast": {
          "lat": 7.712319279892721,
          "lng": 4.449938729892722
        },
        "southwest": {
          "lat": 7.709619620107278,
          "lng": 4.447239070107278
        }
      },
      "formatted_address": "PC6X+CF6, Cottage-Aisu Rd, 232101, Ede, Nigeria",
      "google_map_url": "https://maps.google.com?q=7.711033899999999,4.448626",
      "google_place_id": "ChIJ1woEL64rOBARbpLmoT8XBNM"
    }
  },
  {
    "id": "349299",
    "name": "DISPENSARY IDIAGBON VILLAGE",
    "registration_area_id": "17780",
    "precise_location": null,
    "abbreviation": "008",
    "units": "008",
    "delimitation": "29/08/05/008",
    "remark": "EXISTING PU",
    "ward_id": "17780",
    "ward_name": "ALAJUE II",
    "local_government_id": "607",
    "local_government_name": "EDE SOUTH",
    "state_id": "29",
    "state_name": "OSUN",
    "location": null
  },
  {
    "id": "349300",
    "name": "OPEN SPACE AT AWOBIOGUN JUNCTION(CLOSE WESTERN SUN INTERNATIONAL HOTEL)",
    "registration_area_id": "17780",
    "precise_location": null,
    "abbreviation": "009",
    "units": "009",
    "delimitation": "29/08/05/009",
    "remark": "NEW PU",
    "ward_id": "17780",
    "ward_name": "ALAJUE II",
    "local_government_id": "607",
    "local_government_name": "EDE SOUTH",
    "state_id": "29",
    "state_name": "OSUN",
    "location": {
      "latitude": 7.708465099999999,
      "longitude": 4.457333999999999,
      "viewport": {
        "northeast": {
          "lat": 7.70984087989272,
          "lng": 4.458690029892721
        },
        "southwest": {
          "lat": 7.707141220107276,
          "lng": 4.455990370107277
        }
      },
      "formatted_address": "Cottage-Aisu Rd, 232101, Ede, Nigeria",
      "google_map_url": "https://maps.google.com?q=7.708465099999999,4.457333999999999",
      "google_place_id": "ChIJjUjKiucrOBARfuzThMbptWw"
    }
  }
]