[
  {
    "id": "17915",
    "name": "NWIKPA PRY. SCHOOL I",
    "registration_area_id": "1047",
    "precise_location": null,
    "abbreviation": "001",
    "units": "001",
    "delimitation": "04/20/15/001",
    "remark": "EXISTING PU",
    "ward_id": "1047",
    "ward_name": "UMUNZE I",
    "local_government_id": "89",
    "local_government_name": "ORUMBA  SOUTH",
    "state_id": "4",
    "state_name": "ANAMBRA",
    "location": {
      "latitude": 5.981607899999999,
      "longitude": 7.234298599999999,
      "viewport": {
        "northeast": {
          "lat": 5.982959079892722,
          "lng": 7.235635729892723
        },
        "southwest": {
          "lat": 5.980259420107278,
          "lng": 7.232936070107278
        }
      },
      "formatted_address": "X6JM+JPV, 423105, Umunze, Nigeria",
      "google_map_url": "https://maps.google.com?q=5.981607899999999,7.234298599999999",
      "google_place_id": "ChIJURlO6wgNQxARemTesHaYNcY"
    }
  },
  {
    "id": "17916",
    "name": "NWIKPA PRY. SCHOOL II",
    "registration_area_id": "1047",
    "precise_location": null,
    "abbreviation": "002",
    "units": "002",
    "delimitation": "04/20/15/002",
    "remark": "EXISTING PU",
    "ward_id": "1047",
    "ward_name": "UMUNZE I",
    "local_government_id": "89",
    "local_government_name": "ORUMBA  SOUTH",
    "state_id": "4",
    "state_name": "ANAMBRA",
    "location": {
      "latitude": 5.981607899999999,
      "longitude": 7.234298599999999,
      "viewport": {
        "northeast": {
          "lat": 5.982959079892722,
          "lng": 7.235635729892723
        },
        "southwest": {
          "lat": 5.980259420107278,
          "lng": 7.232936070107278
        }
      },
      "formatted_address": "X6JM+JPV, 423105, Umunze, Nigeria",
      "google_map_url": "https://maps.google.com?q=5.981607899999999,7.234298599999999",
      "google_place_id": "ChIJURlO6wgNQxARemTesHaYNcY"
    }
  },
  {
    "id": "17917",
    "name": "NWIKPA PRY. SCHOOL III",
    "registration_area_id": "1047",
    "precise_location": null,
    "abbreviation": "003",
    "units": "003",
    "delimitation": "04/20/15/003",
    "remark": "EXISTING PU",
    "ward_id": "1047",
    "ward_name": "UMUNZE I",
    "local_government_id": "89",
    "local_government_name": "ORUMBA  SOUTH",
    "state_id": "4",
    "state_name": "ANAMBRA",
    "location": {
      "latitude": 5.981607899999999,
      "longitude": 7.234298599999999,
      "viewport": {
        "northeast": {
          "lat": 5.982959079892722,
          "lng": 7.235635729892723
        },
        "southwest": {
          "lat": 5.980259420107278,
          "lng": 7.232936070107278
        }
      },
      "formatted_address": "X6JM+JPV, 423105, Umunze, Nigeria",
      "google_map_url": "https://maps.google.com?q=5.981607899999999,7.234298599999999",
      "google_place_id": "ChIJURlO6wgNQxARemTesHaYNcY"
    }
  },
  {
    "id": "17918",
    "name": "OBUEZEJI SQUARE I",
    "registration_area_id": "1047",
    "precise_location": null,
    "abbreviation": "004",
    "units": "004",
    "delimitation": "04/20/15/004",
    "remark": "EXISTING PU",
    "ward_id": "1047",
    "ward_name": "UMUNZE I",
    "local_government_id": "89",
    "local_government_name": "ORUMBA  SOUTH",
    "state_id": "4",
    "state_name": "ANAMBRA",
    "location": null
  },
  {
    "id": "17919",
    "name": "OBUEZEJI SQUARE II",
    "registration_area_id": "1047",
    "precise_location": null,
    "abbreviation": "005",
    "units": "005",
    "delimitation": "04/20/15/005",
    "remark": "EXISTING PU",
    "ward_id": "1047",
    "ward_name": "UMUNZE I",
    "local_government_id": "89",
    "local_government_name": "ORUMBA  SOUTH",
    "state_id": "4",
    "state_name": "ANAMBRA",
    "location": {
      "latitude": 5.9467628,
      "longitude": 7.2113605,
      "viewport": {
        "northeast": {
          "lat": 5.9817161,
          "lng": 7.2441299
        },
        "southwest": {
          "lat": 5.921752,
          "lng": 7.1951246
        }
      },
      "formatted_address": "Umunze I, Nigeria",
      "google_map_url": "https://maps.google.com?q=5.9467628,7.2113605",
      "google_place_id": "ChIJEXP_fjMMQxARCS8kfQVQ8do"
    }
  },
  {
    "id": "17920",
    "name": "OBUASU SQUARE",
    "registration_area_id": "1047",
    "precise_location": null,
    "abbreviation": "006",
    "units": "006",
    "delimitation": "04/20/15/006",
    "remark": "EXISTING PU",
    "ward_id": "1047",
    "ward_name": "UMUNZE I",
    "local_government_id": "89",
    "local_government_name": "ORUMBA  SOUTH",
    "state_id": "4",
    "state_name": "ANAMBRA",
    "location": {
      "latitude": 5.977337599999999,
      "longitude": 7.228065099999999,
      "viewport": {
        "northeast": {
          "lat": 5.978718529892721,
          "lng": 7.229384929892721
        },
        "southwest": {
          "lat": 5.976018870107278,
          "lng": 7.226685270107277
        }
      },
      "formatted_address": "X6GH+W6P, 423105, Umunze, Nigeria",
      "google_map_url": "https://maps.google.com?q=5.977337599999999,7.228065099999999",
      "google_place_id": "ChIJ4xSrtMQNQxARmgDPjhxlTRk"
    }
  },
  {
    "id": "17921",
    "name": "UMUNAWALI HALL",
    "registration_area_id": "1047",
    "precise_location": null,
    "abbreviation": "007",
    "units": "007",
    "delimitation": "04/20/15/007",
    "remark": "EXISTING PU",
    "ward_id": "1047",
    "ward_name": "UMUNZE I",
    "local_government_id": "89",
    "local_government_name": "ORUMBA  SOUTH",
    "state_id": "4",
    "state_name": "ANAMBRA",
    "location": {
      "latitude": 5.9467628,
      "longitude": 7.2113605,
      "viewport": {
        "northeast": {
          "lat": 5.9817161,
          "lng": 7.2441299
        },
        "southwest": {
          "lat": 5.921752,
          "lng": 7.1951246
        }
      },
      "formatted_address": "Umunze I, Nigeria",
      "google_map_url": "https://maps.google.com?q=5.9467628,7.2113605",
      "google_place_id": "ChIJEXP_fjMMQxARCS8kfQVQ8do"
    }
  },
  {
    "id": "17922",
    "name": "OBUATAKERE SQUARE",
    "registration_area_id": "1047",
    "precise_location": null,
    "abbreviation": "008",
    "units": "008",
    "delimitation": "04/20/15/008",
    "remark": "EXISTING PU",
    "ward_id": "1047",
    "ward_name": "UMUNZE I",
    "local_government_id": "89",
    "local_government_name": "ORUMBA  SOUTH",
    "state_id": "4",
    "state_name": "ANAMBRA",
    "location": {
      "latitude": 5.966030099999999,
      "longitude": 7.2367591,
      "viewport": {
        "northeast": {
          "lat": 5.967421529892722,
          "lng": 7.238267879892721
        },
        "southwest": {
          "lat": 5.964721870107278,
          "lng": 7.235568220107277
        }
      },
      "formatted_address": "X68P+CP6, 423103, Umunze, Nigeria",
      "google_map_url": "https://maps.google.com?q=5.966030099999999,7.2367591",
      "google_place_id": "ChIJ-T8KkcYNQxARmsOfFspxnHk"
    }
  },
  {
    "id": "17923",
    "name": "NKWO MARKET SQUARE",
    "registration_area_id": "1047",
    "precise_location": null,
    "abbreviation": "009",
    "units": "009",
    "delimitation": "04/20/15/009",
    "remark": "EXISTING PU",
    "ward_id": "1047",
    "ward_name": "UMUNZE I",
    "local_government_id": "89",
    "local_government_name": "ORUMBA  SOUTH",
    "state_id": "4",
    "state_name": "ANAMBRA",
    "location": {
      "latitude": 5.966030099999999,
      "longitude": 7.2367591,
      "viewport": {
        "northeast": {
          "lat": 5.967421529892722,
          "lng": 7.238267879892721
        },
        "southwest": {
          "lat": 5.964721870107278,
          "lng": 7.235568220107277
        }
      },
      "formatted_address": "X68P+CP6, 423103, Umunze, Nigeria",
      "google_map_url": "https://maps.google.com?q=5.966030099999999,7.2367591",
      "google_place_id": "ChIJ-T8KkcYNQxARmsOfFspxnHk"
    }
  },
  {
    "id": "17924",
    "name": "UGWUNANO PRY. SCHOOL",
    "registration_area_id": "1047",
    "precise_location": null,
    "abbreviation": "010",
    "units": "010",
    "delimitation": "04/20/15/010",
    "remark": "EXISTING PU",
    "ward_id": "1047",
    "ward_name": "UMUNZE I",
    "local_government_id": "89",
    "local_government_name": "ORUMBA  SOUTH",
    "state_id": "4",
    "state_name": "ANAMBRA",
    "location": {
      "latitude": 5.981607899999999,
      "longitude": 7.234298599999999,
      "viewport": {
        "northeast": {
          "lat": 5.982959079892722,
          "lng": 7.235635729892723
        },
        "southwest": {
          "lat": 5.980259420107278,
          "lng": 7.232936070107278
        }
      },
      "formatted_address": "X6JM+JPV, 423105, Umunze, Nigeria",
      "google_map_url": "https://maps.google.com?q=5.981607899999999,7.234298599999999",
      "google_place_id": "ChIJURlO6wgNQxARemTesHaYNcY"
    }
  },
  {
    "id": "17925",
    "name": "ELUGWU IHUNWOZIVE SQUARE",
    "registration_area_id": "1047",
    "precise_location": null,
    "abbreviation": "011",
    "units": "011",
    "delimitation": "04/20/15/011",
    "remark": "EXISTING PU",
    "ward_id": "1047",
    "ward_name": "UMUNZE I",
    "local_government_id": "89",
    "local_government_name": "ORUMBA  SOUTH",
    "state_id": "4",
    "state_name": "ANAMBRA",
    "location": {
      "latitude": 5.966030099999999,
      "longitude": 7.2367591,
      "viewport": {
        "northeast": {
          "lat": 5.967421529892722,
          "lng": 7.238267879892721
        },
        "southwest": {
          "lat": 5.964721870107278,
          "lng": 7.235568220107277
        }
      },
      "formatted_address": "X68P+CP6, 423103, Umunze, Nigeria",
      "google_map_url": "https://maps.google.com?q=5.966030099999999,7.2367591",
      "google_place_id": "ChIJ-T8KkcYNQxARmsOfFspxnHk"
    }
  },
  {
    "id": "17926",
    "name": "ST. JOSEPH'S PRY. SCHOOL",
    "registration_area_id": "1047",
    "precise_location": null,
    "abbreviation": "012",
    "units": "012",
    "delimitation": "04/20/15/012",
    "remark": "EXISTING PU",
    "ward_id": "1047",
    "ward_name": "UMUNZE I",
    "local_government_id": "89",
    "local_government_name": "ORUMBA  SOUTH",
    "state_id": "4",
    "state_name": "ANAMBRA",
    "location": {
      "latitude": 5.7913758,
      "longitude": 6.9915268,
      "viewport": {
        "northeast": {
          "lat": 5.792730179892721,
          "lng": 6.992803729892723
        },
        "southwest": {
          "lat": 5.790030520107277,
          "lng": 6.990104070107279
        }
      },
      "formatted_address": "QXRR+HJ2, Aji, inside St. Joseph's Parish, along 473103, Okporo, Nigeria",
      "google_map_url": "https://maps.google.com?q=5.7913758,6.9915268",
      "google_place_id": "ChIJeRDCGqKvQxARGr2ZJvPj-Mc"
    }
  },
  {
    "id": "17927",
    "name": "AMAOKWU HALL",
    "registration_area_id": "1047",
    "precise_location": null,
    "abbreviation": "013",
    "units": "013",
    "delimitation": "04/20/15/013",
    "remark": "EXISTING PU",
    "ward_id": "1047",
    "ward_name": "UMUNZE I",
    "local_government_id": "89",
    "local_government_name": "ORUMBA  SOUTH",
    "state_id": "4",
    "state_name": "ANAMBRA",
    "location": {
      "latitude": 5.977337599999999,
      "longitude": 7.228065099999999,
      "viewport": {
        "northeast": {
          "lat": 5.978718529892721,
          "lng": 7.229384929892721
        },
        "southwest": {
          "lat": 5.976018870107278,
          "lng": 7.226685270107277
        }
      },
      "formatted_address": "X6GH+W6P, 423105, Umunze, Nigeria",
      "google_map_url": "https://maps.google.com?q=5.977337599999999,7.228065099999999",
      "google_place_id": "ChIJ4xSrtMQNQxARmgDPjhxlTRk"
    }
  },
  {
    "id": "17928",
    "name": "NDIUKE SQUARE",
    "registration_area_id": "1047",
    "precise_location": null,
    "abbreviation": "014",
    "units": "014",
    "delimitation": "04/20/15/014",
    "remark": "EXISTING PU",
    "ward_id": "1047",
    "ward_name": "UMUNZE I",
    "local_government_id": "89",
    "local_government_name": "ORUMBA  SOUTH",
    "state_id": "4",
    "state_name": "ANAMBRA",
    "location": {
      "latitude": 5.966030099999999,
      "longitude": 7.2367591,
      "viewport": {
        "northeast": {
          "lat": 5.967421529892722,
          "lng": 7.238267879892721
        },
        "southwest": {
          "lat": 5.964721870107278,
          "lng": 7.235568220107277
        }
      },
      "formatted_address": "X68P+CP6, 423103, Umunze, Nigeria",
      "google_map_url": "https://maps.google.com?q=5.966030099999999,7.2367591",
      "google_place_id": "ChIJ-T8KkcYNQxARmsOfFspxnHk"
    }
  },
  {
    "id": "17929",
    "name": "NDIROKA SQUARE",
    "registration_area_id": "1047",
    "precise_location": null,
    "abbreviation": "015",
    "units": "015",
    "delimitation": "04/20/15/015",
    "remark": "EXISTING PU",
    "ward_id": "1047",
    "ward_name": "UMUNZE I",
    "local_government_id": "89",
    "local_government_name": "ORUMBA  SOUTH",
    "state_id": "4",
    "state_name": "ANAMBRA",
    "location": {
      "latitude": 5.966030099999999,
      "longitude": 7.2367591,
      "viewport": {
        "northeast": {
          "lat": 5.967421529892722,
          "lng": 7.238267879892721
        },
        "southwest": {
          "lat": 5.964721870107278,
          "lng": 7.235568220107277
        }
      },
      "formatted_address": "X68P+CP6, 423103, Umunze, Nigeria",
      "google_map_url": "https://maps.google.com?q=5.966030099999999,7.2367591",
      "google_place_id": "ChIJ-T8KkcYNQxARmsOfFspxnHk"
    }
  },
  {
    "id": "17930",
    "name": "OBU-UWAIZUABO SQUARE",
    "registration_area_id": "1047",
    "precise_location": null,
    "abbreviation": "016",
    "units": "016",
    "delimitation": "04/20/15/016",
    "remark": "EXISTING PU",
    "ward_id": "1047",
    "ward_name": "UMUNZE I",
    "local_government_id": "89",
    "local_government_name": "ORUMBA  SOUTH",
    "state_id": "4",
    "state_name": "ANAMBRA",
    "location": {
      "latitude": 5.977337599999999,
      "longitude": 7.228065099999999,
      "viewport": {
        "northeast": {
          "lat": 5.978718529892721,
          "lng": 7.229384929892721
        },
        "southwest": {
          "lat": 5.976018870107278,
          "lng": 7.226685270107277
        }
      },
      "formatted_address": "X6GH+W6P, 423105, Umunze, Nigeria",
      "google_map_url": "https://maps.google.com?q=5.977337599999999,7.228065099999999",
      "google_place_id": "ChIJ4xSrtMQNQxARmgDPjhxlTRk"
    }
  },
  {
    "id": "17931",
    "name": "NDIKPA SQUARE",
    "registration_area_id": "1047",
    "precise_location": null,
    "abbreviation": "017",
    "units": "017",
    "delimitation": "04/20/15/017",
    "remark": "EXISTING PU",
    "ward_id": "1047",
    "ward_name": "UMUNZE I",
    "local_government_id": "89",
    "local_government_name": "ORUMBA  SOUTH",
    "state_id": "4",
    "state_name": "ANAMBRA",
    "location": null
  },
  {
    "id": "17932",
    "name": "IKPAFOR HALL",
    "registration_area_id": "1047",
    "precise_location": null,
    "abbreviation": "018",
    "units": "018",
    "delimitation": "04/20/15/018",
    "remark": "EXISTING PU",
    "ward_id": "1047",
    "ward_name": "UMUNZE I",
    "local_government_id": "89",
    "local_government_name": "ORUMBA  SOUTH",
    "state_id": "4",
    "state_name": "ANAMBRA",
    "location": {
      "latitude": 5.966030099999999,
      "longitude": 7.2367591,
      "viewport": {
        "northeast": {
          "lat": 5.967421529892722,
          "lng": 7.238267879892721
        },
        "southwest": {
          "lat": 5.964721870107278,
          "lng": 7.235568220107277
        }
      },
      "formatted_address": "X68P+CP6, 423103, Umunze, Nigeria",
      "google_map_url": "https://maps.google.com?q=5.966030099999999,7.2367591",
      "google_place_id": "ChIJ-T8KkcYNQxARmsOfFspxnHk"
    }
  },
  {
    "id": "17933",
    "name": "MADONNA GIRLS SEC. SCHOOL, UMUNZE",
    "registration_area_id": "1047",
    "precise_location": null,
    "abbreviation": "019",
    "units": "019",
    "delimitation": "04/20/15/019",
    "remark": "EXISTING PU",
    "ward_id": "1047",
    "ward_name": "UMUNZE I",
    "local_government_id": "89",
    "local_government_name": "ORUMBA  SOUTH",
    "state_id": "4",
    "state_name": "ANAMBRA",
    "location": {
      "latitude": 5.9649559,
      "longitude": 7.227651400000001,
      "viewport": {
        "northeast": {
          "lat": 5.966147429892722,
          "lng": 7.229092479892721
        },
        "southwest": {
          "lat": 5.963447770107278,
          "lng": 7.226392820107277
        }
      },
      "formatted_address": "X68H+232, Madonna Girls Secondary School, 423101, Umunze, Nigeria",
      "google_map_url": "https://maps.google.com?q=5.9649559,7.227651400000001",
      "google_place_id": "ChIJBSZarfQNQxARQ06oZcOgiu0"
    }
  },
  {
    "id": "17934",
    "name": "AMA-MBA SQUARE",
    "registration_area_id": "1047",
    "precise_location": null,
    "abbreviation": "020",
    "units": "020",
    "delimitation": "04/20/15/020",
    "remark": "EXISTING PU",
    "ward_id": "1047",
    "ward_name": "UMUNZE I",
    "local_government_id": "89",
    "local_government_name": "ORUMBA  SOUTH",
    "state_id": "4",
    "state_name": "ANAMBRA",
    "location": {
      "latitude": 5.956008199999999,
      "longitude": 7.243375500000001,
      "viewport": {
        "northeast": {
          "lat": 5.957448729892722,
          "lng": 7.244703929892721
        },
        "southwest": {
          "lat": 5.954749070107278,
          "lng": 7.242004270107278
        }
      },
      "formatted_address": "Fcet perm. Site Rd Umz, 423103, Umunze, Nigeria",
      "google_map_url": "https://maps.google.com?q=5.956008199999999,7.243375500000001",
      "google_place_id": "ChIJ-_ZT15sNQxAR7Jk83jCh8S8"
    }
  },
  {
    "id": "17935",
    "name": "OBUASIKA SQUARE I",
    "registration_area_id": "1047",
    "precise_location": null,
    "abbreviation": "021",
    "units": "021",
    "delimitation": "04/20/15/021",
    "remark": "EXISTING PU",
    "ward_id": "1047",
    "ward_name": "UMUNZE I",
    "local_government_id": "89",
    "local_government_name": "ORUMBA  SOUTH",
    "state_id": "4",
    "state_name": "ANAMBRA",
    "location": {
      "latitude": 5.966030099999999,
      "longitude": 7.2367591,
      "viewport": {
        "northeast": {
          "lat": 5.967421529892722,
          "lng": 7.238267879892721
        },
        "southwest": {
          "lat": 5.964721870107278,
          "lng": 7.235568220107277
        }
      },
      "formatted_address": "X68P+CP6, 423103, Umunze, Nigeria",
      "google_map_url": "https://maps.google.com?q=5.966030099999999,7.2367591",
      "google_place_id": "ChIJ-T8KkcYNQxARmsOfFspxnHk"
    }
  },
  {
    "id": "17936",
    "name": "OBUASIKA SQUARE II",
    "registration_area_id": "1047",
    "precise_location": null,
    "abbreviation": "022",
    "units": "022",
    "delimitation": "04/20/15/022",
    "remark": "EXISTING PU",
    "ward_id": "1047",
    "ward_name": "UMUNZE I",
    "local_government_id": "89",
    "local_government_name": "ORUMBA  SOUTH",
    "state_id": "4",
    "state_name": "ANAMBRA",
    "location": {
      "latitude": 5.9467628,
      "longitude": 7.2113605,
      "viewport": {
        "northeast": {
          "lat": 5.9817161,
          "lng": 7.2441299
        },
        "southwest": {
          "lat": 5.921752,
          "lng": 7.1951246
        }
      },
      "formatted_address": "Umunze I, Nigeria",
      "google_map_url": "https://maps.google.com?q=5.9467628,7.2113605",
      "google_place_id": "ChIJEXP_fjMMQxARCS8kfQVQ8do"
    }
  },
  {
    "id": "17937",
    "name": "NEW NKWO MARKET",
    "registration_area_id": "1047",
    "precise_location": null,
    "abbreviation": "023",
    "units": "023",
    "delimitation": "04/20/15/023",
    "remark": "NEW PU",
    "ward_id": "1047",
    "ward_name": "UMUNZE I",
    "local_government_id": "89",
    "local_government_name": "ORUMBA  SOUTH",
    "state_id": "4",
    "state_name": "ANAMBRA",
    "location": {
      "latitude": 5.966030099999999,
      "longitude": 7.2367591,
      "viewport": {
        "northeast": {
          "lat": 5.967421529892722,
          "lng": 7.238267879892721
        },
        "southwest": {
          "lat": 5.964721870107278,
          "lng": 7.235568220107277
        }
      },
      "formatted_address": "X68P+CP6, 423103, Umunze, Nigeria",
      "google_map_url": "https://maps.google.com?q=5.966030099999999,7.2367591",
      "google_place_id": "ChIJ-T8KkcYNQxARmsOfFspxnHk"
    }
  },
  {
    "id": "17938",
    "name": "NEW TOWN HALL UGWU AGBADA",
    "registration_area_id": "1047",
    "precise_location": null,
    "abbreviation": "024",
    "units": "024",
    "delimitation": "04/20/15/024",
    "remark": "NEW PU",
    "ward_id": "1047",
    "ward_name": "UMUNZE I",
    "local_government_id": "89",
    "local_government_name": "ORUMBA  SOUTH",
    "state_id": "4",
    "state_name": "ANAMBRA",
    "location": {
      "latitude": 5.977337599999999,
      "longitude": 7.228065099999999,
      "viewport": {
        "northeast": {
          "lat": 5.978718529892721,
          "lng": 7.229384929892721
        },
        "southwest": {
          "lat": 5.976018870107278,
          "lng": 7.226685270107277
        }
      },
      "formatted_address": "X6GH+W6P, 423105, Umunze, Nigeria",
      "google_map_url": "https://maps.google.com?q=5.977337599999999,7.228065099999999",
      "google_place_id": "ChIJ4xSrtMQNQxARmgDPjhxlTRk"
    }
  },
  {
    "id": "17939",
    "name": "UMUOSAKU YOUTH CENTER",
    "registration_area_id": "1047",
    "precise_location": null,
    "abbreviation": "025",
    "units": "025",
    "delimitation": "04/20/15/025",
    "remark": "NEW PU",
    "ward_id": "1047",
    "ward_name": "UMUNZE I",
    "local_government_id": "89",
    "local_government_name": "ORUMBA  SOUTH",
    "state_id": "4",
    "state_name": "ANAMBRA",
    "location": {
      "latitude": 5.977337599999999,
      "longitude": 7.228065099999999,
      "viewport": {
        "northeast": {
          "lat": 5.978718529892721,
          "lng": 7.229384929892721
        },
        "southwest": {
          "lat": 5.976018870107278,
          "lng": 7.226685270107277
        }
      },
      "formatted_address": "X6GH+W6P, 423105, Umunze, Nigeria",
      "google_map_url": "https://maps.google.com?q=5.977337599999999,7.228065099999999",
      "google_place_id": "ChIJ4xSrtMQNQxARmgDPjhxlTRk"
    }
  },
  {
    "id": "17940",
    "name": "CONVOCATION ARENA GROUND (PREMISES)",
    "registration_area_id": "1047",
    "precise_location": null,
    "abbreviation": "026",
    "units": "026",
    "delimitation": "04/20/15/026",
    "remark": "NEW PU",
    "ward_id": "1047",
    "ward_name": "UMUNZE I",
    "local_government_id": "89",
    "local_government_name": "ORUMBA  SOUTH",
    "state_id": "4",
    "state_name": "ANAMBRA",
    "location": {
      "latitude": 5.966696199999999,
      "longitude": 7.216628900000001,
      "viewport": {
        "northeast": {
          "lat": 5.967491529892722,
          "lng": 7.218061629892722
        },
        "southwest": {
          "lat": 5.964791870107279,
          "lng": 7.215361970107279
        }
      },
      "formatted_address": "X688+MMC, 423103, Umunze, Nigeria",
      "google_map_url": "https://maps.google.com?q=5.966696199999999,7.216628900000001",
      "google_place_id": "ChIJp8gnCk4MQxARFAihSBWP2UY"
    }
  },
  {
    "id": "17941",
    "name": "FCE (T) PERM SITE BUS STAND",
    "registration_area_id": "1047",
    "precise_location": null,
    "abbreviation": "027",
    "units": "027",
    "delimitation": "04/20/15/027",
    "remark": "NEW PU",
    "ward_id": "1047",
    "ward_name": "UMUNZE I",
    "local_government_id": "89",
    "local_government_name": "ORUMBA  SOUTH",
    "state_id": "4",
    "state_name": "ANAMBRA",
    "location": {
      "latitude": 5.9670663,
      "longitude": 7.2364156,
      "viewport": {
        "northeast": {
          "lat": 5.968429079892722,
          "lng": 7.237843529892722
        },
        "southwest": {
          "lat": 5.965729420107278,
          "lng": 7.235143870107278
        }
      },
      "formatted_address": "X68P+RHF, 423103, Umunze, Nigeria",
      "google_map_url": "https://maps.google.com?q=5.9670663,7.2364156",
      "google_place_id": "ChIJ5YWPMbsNQxARfyOSds-x8ro"
    }
  }
]