[
  {
    "id": "345654",
    "name": "ILEKUN CAMP - ILEKUN MOTOR PARK AREA",
    "registration_area_id": "17565",
    "precise_location": null,
    "abbreviation": "001",
    "units": "001",
    "delimitation": "28/06/06/001",
    "remark": "EXISTING PU",
    "ward_id": "17565",
    "ward_name": "ODA",
    "local_government_id": "587",
    "local_government_name": "AKURE SOUTH",
    "state_id": "28",
    "state_name": "ONDO",
    "location": {
      "latitude": 7.250046699999999,
      "longitude": 5.1949774,
      "viewport": {
        "northeast": {
          "lat": 7.251397429892722,
          "lng": 5.196327329892721
        },
        "southwest": {
          "lat": 7.248697770107278,
          "lng": 5.193627670107277
        }
      },
      "formatted_address": "752V+2X9, Ilekun Community, Oda Road, Alagbaka, Nigeria",
      "google_map_url": "https://maps.google.com?q=7.250046699999999,5.1949774",
      "google_place_id": "ChIJ5WnZcJqPRxAR-C8YWqlLWm8"
    }
  },
  {
    "id": "345655",
    "name": "ST WILLIAMS SCH - ST WILLIAMS SCH",
    "registration_area_id": "17565",
    "precise_location": null,
    "abbreviation": "002",
    "units": "002",
    "delimitation": "28/06/06/002",
    "remark": "EXISTING PU",
    "ward_id": "17565",
    "ward_name": "ODA",
    "local_government_id": "587",
    "local_government_name": "AKURE SOUTH",
    "state_id": "28",
    "state_name": "ONDO",
    "location": {
      "latitude": 7.182969,
      "longitude": 5.254209899999999,
      "viewport": {
        "northeast": {
          "lat": 7.184464529892724,
          "lng": 5.255802229892722
        },
        "southwest": {
          "lat": 7.18176487010728,
          "lng": 5.253102570107278
        }
      },
      "formatted_address": "57M3+5MP, Emiloro, Opp St Williams Nur & Pry School, Oda Road, Akure, 234034, Ondo City, Nigeria",
      "google_map_url": "https://maps.google.com?q=7.182969,5.254209899999999",
      "google_place_id": "ChIJByFnJ5WbRxARySv9Uphk1Ak"
    }
  },
  {
    "id": "345656",
    "name": "OKE ILE STREET - IN FRONT OF CHIEF ADEJIMIS HOUSE",
    "registration_area_id": "17565",
    "precise_location": null,
    "abbreviation": "003",
    "units": "003",
    "delimitation": "28/06/06/003",
    "remark": "EXISTING PU",
    "ward_id": "17565",
    "ward_name": "ODA",
    "local_government_id": "587",
    "local_government_name": "AKURE SOUTH",
    "state_id": "28",
    "state_name": "ONDO",
    "location": {
      "latitude": 7.1733656,
      "longitude": 5.228994399999999,
      "viewport": {
        "northeast": {
          "lat": 7.174755529892721,
          "lng": 5.230389079892721
        },
        "southwest": {
          "lat": 7.172055870107276,
          "lng": 5.227689420107277
        }
      },
      "formatted_address": "Emiloro Town, 341106, Akure, Nigeria",
      "google_map_url": "https://maps.google.com?q=7.1733656,5.228994399999999",
      "google_place_id": "ChIJbR4UhbWbRxARwinC8nSQyPc"
    }
  },
  {
    "id": "345657",
    "name": "OGBE HIGH SCH - OGBE HIGH SCH ODA",
    "registration_area_id": "17565",
    "precise_location": null,
    "abbreviation": "004",
    "units": "004",
    "delimitation": "28/06/06/004",
    "remark": "EXISTING PU",
    "ward_id": "17565",
    "ward_name": "ODA",
    "local_government_id": "587",
    "local_government_name": "AKURE SOUTH",
    "state_id": "28",
    "state_name": "ONDO",
    "location": {
      "latitude": 7.268551399999999,
      "longitude": 5.209228,
      "viewport": {
        "northeast": {
          "lat": 7.269887279892724,
          "lng": 5.210440179892721
        },
        "southwest": {
          "lat": 7.26718762010728,
          "lng": 5.207740520107278
        }
      },
      "formatted_address": "7695+CP2, Moses Orimolade Street, Ijapo Estate 340110, Akure, Nigeria",
      "google_map_url": "https://maps.google.com?q=7.268551399999999,5.209228",
      "google_place_id": "ChIJQfpai5WPRxARYin6y86WC7o"
    }
  },
  {
    "id": "345658",
    "name": "ST JAMES ANG. HIGH SCH - ST JAMES ANG. HIGH SCH",
    "registration_area_id": "17565",
    "precise_location": null,
    "abbreviation": "005",
    "units": "005",
    "delimitation": "28/06/06/005",
    "remark": "EXISTING PU",
    "ward_id": "17565",
    "ward_name": "ODA",
    "local_government_id": "587",
    "local_government_name": "AKURE SOUTH",
    "state_id": "28",
    "state_name": "ONDO",
    "location": {
      "latitude": 43.4276165,
      "longitude": -80.2949845,
      "viewport": {
        "northeast": {
          "lat": 43.42896772989272,
          "lng": -80.29321087010729
        },
        "southwest": {
          "lat": 43.42626807010728,
          "lng": -80.29591052989272
        }
      },
      "formatted_address": "520 Ellis Rd, Cambridge, ON N3C 0E6, Canada",
      "google_map_url": "https://maps.google.com?q=43.4276165,-80.2949845",
      "google_place_id": "ChIJF8JhMZKIK4gRQwKaKRdQ2fI"
    }
  },
  {
    "id": "345659",
    "name": "OGBE HIGH SCH I - OGBE HIGH SCH ODA",
    "registration_area_id": "17565",
    "precise_location": null,
    "abbreviation": "006",
    "units": "006",
    "delimitation": "28/06/06/006",
    "remark": "EXISTING PU",
    "ward_id": "17565",
    "ward_name": "ODA",
    "local_government_id": "587",
    "local_government_name": "AKURE SOUTH",
    "state_id": "28",
    "state_name": "ONDO",
    "location": {
      "latitude": 7.268551399999999,
      "longitude": 5.209228,
      "viewport": {
        "northeast": {
          "lat": 7.269887279892724,
          "lng": 5.210440179892721
        },
        "southwest": {
          "lat": 7.26718762010728,
          "lng": 5.207740520107278
        }
      },
      "formatted_address": "7695+CP2, Moses Orimolade Street, Ijapo Estate 340110, Akure, Nigeria",
      "google_map_url": "https://maps.google.com?q=7.268551399999999,5.209228",
      "google_place_id": "ChIJQfpai5WPRxARYin6y86WC7o"
    }
  },
  {
    "id": "345660",
    "name": "OKE MEJI ODA - OKE MEJI CAMP",
    "registration_area_id": "17565",
    "precise_location": null,
    "abbreviation": "007",
    "units": "007",
    "delimitation": "28/06/06/007",
    "remark": "EXISTING PU",
    "ward_id": "17565",
    "ward_name": "ODA",
    "local_government_id": "587",
    "local_government_name": "AKURE SOUTH",
    "state_id": "28",
    "state_name": "ONDO",
    "location": {
      "latitude": 7.1733656,
      "longitude": 5.228994399999999,
      "viewport": {
        "northeast": {
          "lat": 7.174755529892721,
          "lng": 5.230389079892721
        },
        "southwest": {
          "lat": 7.172055870107276,
          "lng": 5.227689420107277
        }
      },
      "formatted_address": "Emiloro Town, 341106, Akure, Nigeria",
      "google_map_url": "https://maps.google.com?q=7.1733656,5.228994399999999",
      "google_place_id": "ChIJbR4UhbWbRxARwinC8nSQyPc"
    }
  },
  {
    "id": "345661",
    "name": "ARAROMI AJE ODA - IN FRONT OLU ARAROMIS HOUSE",
    "registration_area_id": "17565",
    "precise_location": null,
    "abbreviation": "008",
    "units": "008",
    "delimitation": "28/06/06/008",
    "remark": "EXISTING PU",
    "ward_id": "17565",
    "ward_name": "ODA",
    "local_government_id": "587",
    "local_government_name": "AKURE SOUTH",
    "state_id": "28",
    "state_name": "ONDO",
    "location": {
      "latitude": 7.1733656,
      "longitude": 5.228994399999999,
      "viewport": {
        "northeast": {
          "lat": 7.174755529892721,
          "lng": 5.230389079892721
        },
        "southwest": {
          "lat": 7.172055870107276,
          "lng": 5.227689420107277
        }
      },
      "formatted_address": "Emiloro Town, 341106, Akure, Nigeria",
      "google_map_url": "https://maps.google.com?q=7.1733656,5.228994399999999",
      "google_place_id": "ChIJbR4UhbWbRxARwinC8nSQyPc"
    }
  },
  {
    "id": "345662",
    "name": "OSIC LANGBODO CAMP II - LAMGBODO CAMP",
    "registration_area_id": "17565",
    "precise_location": null,
    "abbreviation": "009",
    "units": "009",
    "delimitation": "28/06/06/009",
    "remark": "EXISTING PU",
    "ward_id": "17565",
    "ward_name": "ODA",
    "local_government_id": "587",
    "local_government_name": "AKURE SOUTH",
    "state_id": "28",
    "state_name": "ONDO",
    "location": {
      "latitude": 7.1733656,
      "longitude": 5.228994399999999,
      "viewport": {
        "northeast": {
          "lat": 7.174755529892721,
          "lng": 5.230389079892721
        },
        "southwest": {
          "lat": 7.172055870107276,
          "lng": 5.227689420107277
        }
      },
      "formatted_address": "Emiloro Town, 341106, Akure, Nigeria",
      "google_map_url": "https://maps.google.com?q=7.1733656,5.228994399999999",
      "google_place_id": "ChIJbR4UhbWbRxARwinC8nSQyPc"
    }
  },
  {
    "id": "345663",
    "name": "OLUGERE ODA IN FRONT OF OLUGERES HOUSE",
    "registration_area_id": "17565",
    "precise_location": null,
    "abbreviation": "010",
    "units": "010",
    "delimitation": "28/06/06/010",
    "remark": "EXISTING PU",
    "ward_id": "17565",
    "ward_name": "ODA",
    "local_government_id": "587",
    "local_government_name": "AKURE SOUTH",
    "state_id": "28",
    "state_name": "ONDO",
    "location": {
      "latitude": 7.178916999999999,
      "longitude": 5.234498299999999,
      "viewport": {
        "northeast": {
          "lat": 7.193773999999999,
          "lng": 5.251429
        },
        "southwest": {
          "lat": 7.154783999999999,
          "lng": 5.219977999999999
        }
      },
      "formatted_address": "341106, Oda, Nigeria",
      "google_map_url": "https://maps.google.com?q=7.178916999999999,5.234498299999999",
      "google_place_id": "ChIJebg-GDGbRxARcfp5nx-4bj4"
    }
  },
  {
    "id": "345664",
    "name": "AJIPOWO CAMP ODA - AT ADEBIYI CAMP",
    "registration_area_id": "17565",
    "precise_location": null,
    "abbreviation": "011",
    "units": "011",
    "delimitation": "28/06/06/011",
    "remark": "EXISTING PU",
    "ward_id": "17565",
    "ward_name": "ODA",
    "local_government_id": "587",
    "local_government_name": "AKURE SOUTH",
    "state_id": "28",
    "state_name": "ONDO",
    "location": {
      "latitude": 7.2079739,
      "longitude": 5.219863399999999,
      "viewport": {
        "northeast": {
          "lat": 7.209216429892724,
          "lng": 5.221064329892722
        },
        "southwest": {
          "lat": 7.20651677010728,
          "lng": 5.218364670107278
        }
      },
      "formatted_address": "6659+5WQ, 341106, Oda, Nigeria",
      "google_map_url": "https://maps.google.com?q=7.2079739,5.219863399999999",
      "google_place_id": "ChIJZ_uhRLiFRxARwsxveeuGeiM"
    }
  },
  {
    "id": "345665",
    "name": "ORUKA EKAN - AT ELEYIMI CAMP",
    "registration_area_id": "17565",
    "precise_location": null,
    "abbreviation": "012",
    "units": "012",
    "delimitation": "28/06/06/012",
    "remark": "EXISTING PU",
    "ward_id": "17565",
    "ward_name": "ODA",
    "local_government_id": "587",
    "local_government_name": "AKURE SOUTH",
    "state_id": "28",
    "state_name": "ONDO",
    "location": {
      "latitude": 7.1733656,
      "longitude": 5.228994399999999,
      "viewport": {
        "northeast": {
          "lat": 7.174755529892721,
          "lng": 5.230389079892721
        },
        "southwest": {
          "lat": 7.172055870107276,
          "lng": 5.227689420107277
        }
      },
      "formatted_address": "Emiloro Town, 341106, Akure, Nigeria",
      "google_map_url": "https://maps.google.com?q=7.1733656,5.228994399999999",
      "google_place_id": "ChIJbR4UhbWbRxARwinC8nSQyPc"
    }
  },
  {
    "id": "345666",
    "name": "EMILORO - AT EMILORO TOWN HALL",
    "registration_area_id": "17565",
    "precise_location": null,
    "abbreviation": "013",
    "units": "013",
    "delimitation": "28/06/06/013",
    "remark": "EXISTING PU",
    "ward_id": "17565",
    "ward_name": "ODA",
    "local_government_id": "587",
    "local_government_name": "AKURE SOUTH",
    "state_id": "28",
    "state_name": "ONDO",
    "location": {
      "latitude": 7.1733656,
      "longitude": 5.228994399999999,
      "viewport": {
        "northeast": {
          "lat": 7.174755529892721,
          "lng": 5.230389079892721
        },
        "southwest": {
          "lat": 7.172055870107276,
          "lng": 5.227689420107277
        }
      },
      "formatted_address": "Emiloro Town, 341106, Akure, Nigeria",
      "google_map_url": "https://maps.google.com?q=7.1733656,5.228994399999999",
      "google_place_id": "ChIJbR4UhbWbRxARwinC8nSQyPc"
    }
  },
  {
    "id": "345667",
    "name": "OYEBODE OLOGEDE - AT OYEBODE CAMP",
    "registration_area_id": "17565",
    "precise_location": null,
    "abbreviation": "014",
    "units": "014",
    "delimitation": "28/06/06/014",
    "remark": "EXISTING PU",
    "ward_id": "17565",
    "ward_name": "ODA",
    "local_government_id": "587",
    "local_government_name": "AKURE SOUTH",
    "state_id": "28",
    "state_name": "ONDO",
    "location": {
      "latitude": 7.223046399999999,
      "longitude": 5.212479699999999,
      "viewport": {
        "northeast": {
          "lat": 7.224396229892723,
          "lng": 5.213829529892721
        },
        "southwest": {
          "lat": 7.221696570107279,
          "lng": 5.211129870107277
        }
      },
      "formatted_address": "Ologede St, 340283, Akure, Nigeria",
      "google_map_url": "https://maps.google.com?q=7.223046399999999,5.212479699999999",
      "google_place_id": "ChIJl8ut7USFRxARxhsxAaF8fCQ"
    }
  },
  {
    "id": "345668",
    "name": "APAFA I INFRONT OF OLUAPAFA 2",
    "registration_area_id": "17565",
    "precise_location": null,
    "abbreviation": "015",
    "units": "015",
    "delimitation": "28/06/06/015",
    "remark": "EXISTING PU",
    "ward_id": "17565",
    "ward_name": "ODA",
    "local_government_id": "587",
    "local_government_name": "AKURE SOUTH",
    "state_id": "28",
    "state_name": "ONDO",
    "location": null
  },
  {
    "id": "345669",
    "name": "APAFA II NEAR APAFAS COMP.",
    "registration_area_id": "17565",
    "precise_location": null,
    "abbreviation": "016",
    "units": "016",
    "delimitation": "28/06/06/016",
    "remark": "EXISTING PU",
    "ward_id": "17565",
    "ward_name": "ODA",
    "local_government_id": "587",
    "local_government_name": "AKURE SOUTH",
    "state_id": "28",
    "state_name": "ONDO",
    "location": {
      "latitude": 7.0912392,
      "longitude": 5.3668032,
      "viewport": {
        "northeast": {
          "lat": 7.0943801,
          "lng": 5.375656999999999
        },
        "southwest": {
          "lat": 7.090126,
          "lng": 5.36473
        }
      },
      "formatted_address": "Apafa-Aiyede, Nigeria",
      "google_map_url": "https://maps.google.com?q=7.0912392,5.3668032",
      "google_place_id": "ChIJTcY647yfRxARxLUg7l897hs"
    }
  },
  {
    "id": "345670",
    "name": "IJIGBA COMMUNITY HIGH SCHOOL",
    "registration_area_id": "17565",
    "precise_location": null,
    "abbreviation": "017",
    "units": "017",
    "delimitation": "28/06/06/017",
    "remark": "NEW PU",
    "ward_id": "17565",
    "ward_name": "ODA",
    "local_government_id": "587",
    "local_government_name": "AKURE SOUTH",
    "state_id": "28",
    "state_name": "ONDO",
    "location": {
      "latitude": 7.1949632,
      "longitude": 5.2221342,
      "viewport": {
        "northeast": {
          "lat": 7.196352629892721,
          "lng": 5.223464579892722
        },
        "southwest": {
          "lat": 7.193652970107277,
          "lng": 5.220764920107278
        }
      },
      "formatted_address": "Ijigba Community, 341106, Akure, Nigeria",
      "google_map_url": "https://maps.google.com?q=7.1949632,5.2221342",
      "google_place_id": "ChIJgbJqLb2FRxARTqyXikOPTd0"
    }
  },
  {
    "id": "345671",
    "name": "T. JUNCTION AT ROAD 3",
    "registration_area_id": "17565",
    "precise_location": null,
    "abbreviation": "018",
    "units": "018",
    "delimitation": "28/06/06/018",
    "remark": "NEW PU",
    "ward_id": "17565",
    "ward_name": "ODA",
    "local_government_id": "587",
    "local_government_name": "AKURE SOUTH",
    "state_id": "28",
    "state_name": "ONDO",
    "location": {
      "latitude": 7.288461499999999,
      "longitude": 5.161239,
      "viewport": {
        "northeast": {
          "lat": 7.289799129892721,
          "lng": 5.162588879892721
        },
        "southwest": {
          "lat": 7.287099470107277,
          "lng": 5.159889220107277
        }
      },
      "formatted_address": "75Q6+9FQ, Futa Campus Main Rd, 340110, Akure, Nigeria",
      "google_map_url": "https://maps.google.com?q=7.288461499999999,5.161239",
      "google_place_id": "ChIJhVThgG-PRxAR2kc2QerYoTQ"
    }
  },
  {
    "id": "345672",
    "name": "OPEN SPACE AT 3 ARAROMI JUNCTION",
    "registration_area_id": "17565",
    "precise_location": null,
    "abbreviation": "019",
    "units": "019",
    "delimitation": "28/06/06/019",
    "remark": "NEW PU",
    "ward_id": "17565",
    "ward_name": "ODA",
    "local_government_id": "587",
    "local_government_name": "AKURE SOUTH",
    "state_id": "28",
    "state_name": "ONDO",
    "location": null
  },
  {
    "id": "345673",
    "name": "OPEN SPACE BY COMMUNICATION MASK IJIGBA",
    "registration_area_id": "17565",
    "precise_location": null,
    "abbreviation": "020",
    "units": "020",
    "delimitation": "28/06/06/020",
    "remark": "NEW PU",
    "ward_id": "17565",
    "ward_name": "ODA",
    "local_government_id": "587",
    "local_government_name": "AKURE SOUTH",
    "state_id": "28",
    "state_name": "ONDO",
    "location": {
      "latitude": 7.262550199999999,
      "longitude": 5.1833102,
      "viewport": {
        "northeast": {
          "lat": 7.26398392989272,
          "lng": 5.184672779892722
        },
        "southwest": {
          "lat": 7.261284270107276,
          "lng": 5.181973120107278
        }
      },
      "formatted_address": "757M+28F, Ayedun Street, 340110, Akure, Nigeria",
      "google_map_url": "https://maps.google.com?q=7.262550199999999,5.1833102",
      "google_place_id": "ChIJNRoyIQqPRxARCwSaesXy1I4"
    }
  },
  {
    "id": "345674",
    "name": "OPEN SPACE AT  AYEE PALACE ROAD",
    "registration_area_id": "17565",
    "precise_location": null,
    "abbreviation": "021",
    "units": "021",
    "delimitation": "28/06/06/021",
    "remark": "NEW PU",
    "ward_id": "17565",
    "ward_name": "ODA",
    "local_government_id": "587",
    "local_government_name": "AKURE SOUTH",
    "state_id": "28",
    "state_name": "ONDO",
    "location": {
      "latitude": 7.226629599999999,
      "longitude": 5.2148154,
      "viewport": {
        "northeast": {
          "lat": 7.228100729892723,
          "lng": 5.216103979892723
        },
        "southwest": {
          "lat": 7.225401070107279,
          "lng": 5.213404320107279
        }
      },
      "formatted_address": "66G7+MW4, 340283, Akure, Nigeria",
      "google_map_url": "https://maps.google.com?q=7.226629599999999,5.2148154",
      "google_place_id": "ChIJm_Kw9FqFRxARYJMum5RaKPk"
    }
  },
  {
    "id": "345675",
    "name": "OPEN SPACE AT ROAD 'A' VINTAGE ESTATE",
    "registration_area_id": "17565",
    "precise_location": null,
    "abbreviation": "022",
    "units": "022",
    "delimitation": "28/06/06/022",
    "remark": "NEW PU",
    "ward_id": "17565",
    "ward_name": "ODA",
    "local_government_id": "587",
    "local_government_name": "AKURE SOUTH",
    "state_id": "28",
    "state_name": "ONDO",
    "location": {
      "latitude": 7.2089954,
      "longitude": 5.225975500000001,
      "viewport": {
        "northeast": {
          "lat": 7.210378029892722,
          "lng": 5.227407829892721
        },
        "southwest": {
          "lat": 7.207678370107278,
          "lng": 5.224708170107277
        }
      },
      "formatted_address": "1, off Oda road, opposite palm rock vintage estate Junction, 340223, Akure, Nigeria",
      "google_map_url": "https://maps.google.com?q=7.2089954,5.225975500000001",
      "google_place_id": "ChIJiWPAL1eFRxARrMqCFRmhxlg"
    }
  },
  {
    "id": "345676",
    "name": "OGUNBADEJO ROAD",
    "registration_area_id": "17565",
    "precise_location": null,
    "abbreviation": "023",
    "units": "023",
    "delimitation": "28/06/06/023",
    "remark": "NEW PU",
    "ward_id": "17565",
    "ward_name": "ODA",
    "local_government_id": "587",
    "local_government_name": "AKURE SOUTH",
    "state_id": "28",
    "state_name": "ONDO",
    "location": {
      "latitude": 7.178916999999999,
      "longitude": 5.234498299999999,
      "viewport": {
        "northeast": {
          "lat": 7.193773999999999,
          "lng": 5.251429
        },
        "southwest": {
          "lat": 7.154783999999999,
          "lng": 5.219977999999999
        }
      },
      "formatted_address": "341106, Oda, Nigeria",
      "google_map_url": "https://maps.google.com?q=7.178916999999999,5.234498299999999",
      "google_place_id": "ChIJebg-GDGbRxARcfp5nx-4bj4"
    }
  },
  {
    "id": "345677",
    "name": "OPEN SPACE AT PREMIER ESTATE REGION 8 JUNCTION",
    "registration_area_id": "17565",
    "precise_location": null,
    "abbreviation": "024",
    "units": "024",
    "delimitation": "28/06/06/024",
    "remark": "NEW PU",
    "ward_id": "17565",
    "ward_name": "ODA",
    "local_government_id": "587",
    "local_government_name": "AKURE SOUTH",
    "state_id": "28",
    "state_name": "ONDO",
    "location": null
  },
  {
    "id": "345678",
    "name": "OPEN SPACE  AT IJOMU COMMUNITY, OGBE",
    "registration_area_id": "17565",
    "precise_location": null,
    "abbreviation": "025",
    "units": "025",
    "delimitation": "28/06/06/025",
    "remark": "NEW PU",
    "ward_id": "17565",
    "ward_name": "ODA",
    "local_government_id": "587",
    "local_government_name": "AKURE SOUTH",
    "state_id": "28",
    "state_name": "ONDO",
    "location": {
      "latitude": 7.1733656,
      "longitude": 5.228994399999999,
      "viewport": {
        "northeast": {
          "lat": 7.174755529892721,
          "lng": 5.230389079892721
        },
        "southwest": {
          "lat": 7.172055870107276,
          "lng": 5.227689420107277
        }
      },
      "formatted_address": "Emiloro Town, 341106, Akure, Nigeria",
      "google_map_url": "https://maps.google.com?q=7.1733656,5.228994399999999",
      "google_place_id": "ChIJbR4UhbWbRxARwinC8nSQyPc"
    }
  },
  {
    "id": "345679",
    "name": "T. JUNCTION AT ROAD G ALADESAYE CRESCENT",
    "registration_area_id": "17565",
    "precise_location": null,
    "abbreviation": "026",
    "units": "026",
    "delimitation": "28/06/06/026",
    "remark": "NEW PU",
    "ward_id": "17565",
    "ward_name": "ODA",
    "local_government_id": "587",
    "local_government_name": "AKURE SOUTH",
    "state_id": "28",
    "state_name": "ONDO",
    "location": {
      "latitude": 7.289879,
      "longitude": 5.161782,
      "viewport": {
        "northeast": {
          "lat": 7.291206129892721,
          "lng": 5.163109429892722
        },
        "southwest": {
          "lat": 7.288506470107277,
          "lng": 5.160409770107278
        }
      },
      "formatted_address": "25 Olusegun Obasanjo Way, Akure Ilesha Rd, Ondo, Nigeria",
      "google_map_url": "https://maps.google.com?q=7.289879,5.161782",
      "google_place_id": "ChIJ8TyV9z6PRxARWKvTDIJL1Mw"
    }
  },
  {
    "id": "345680",
    "name": "OPEN SPACE  AT ROAD 1 UNITY ESTATE ODA",
    "registration_area_id": "17565",
    "precise_location": null,
    "abbreviation": "027",
    "units": "027",
    "delimitation": "28/06/06/027",
    "remark": "NEW PU",
    "ward_id": "17565",
    "ward_name": "ODA",
    "local_government_id": "587",
    "local_government_name": "AKURE SOUTH",
    "state_id": "28",
    "state_name": "ONDO",
    "location": {
      "latitude": 7.1815238,
      "longitude": 5.2324097,
      "viewport": {
        "northeast": {
          "lat": 7.182889229892722,
          "lng": 5.233764279892722
        },
        "southwest": {
          "lat": 7.180189570107278,
          "lng": 5.231064620107278
        }
      },
      "formatted_address": "56JJ+JX3, 341106, Oda, Nigeria",
      "google_map_url": "https://maps.google.com?q=7.1815238,5.2324097",
      "google_place_id": "ChIJFW97_TGbRxARQjU0ufPgV8U"
    }
  },
  {
    "id": "345681",
    "name": "OPEN SPACE VICTORY ZONE  JUNCTION",
    "registration_area_id": "17565",
    "precise_location": null,
    "abbreviation": "028",
    "units": "028",
    "delimitation": "28/06/06/028",
    "remark": "NEW PU",
    "ward_id": "17565",
    "ward_name": "ODA",
    "local_government_id": "587",
    "local_government_name": "AKURE SOUTH",
    "state_id": "28",
    "state_name": "ONDO",
    "location": {
      "latitude": 6.475787,
      "longitude": 4.866874,
      "viewport": {
        "northeast": {
          "lat": 6.477026279892722,
          "lng": 4.868250029892722
        },
        "southwest": {
          "lat": 6.474326620107278,
          "lng": 4.865550370107278
        }
      },
      "formatted_address": "6FR6FVG8+8P9H NO 17, PELEBE JUNCTION OPP., JAJA HOSTEL, ODA, A, opp. Akure South, Nigeria",
      "google_map_url": "https://maps.google.com?q=6.475787,4.866874",
      "google_place_id": "ChIJZR_U4X-xOBARstETTmj4d8E"
    }
  },
  {
    "id": "345682",
    "name": "OPEN SPACE  AT EMILORO",
    "registration_area_id": "17565",
    "precise_location": null,
    "abbreviation": "029",
    "units": "029",
    "delimitation": "28/06/06/029",
    "remark": "NEW PU",
    "ward_id": "17565",
    "ward_name": "ODA",
    "local_government_id": "587",
    "local_government_name": "AKURE SOUTH",
    "state_id": "28",
    "state_name": "ONDO",
    "location": {
      "latitude": 7.1733656,
      "longitude": 5.228994399999999,
      "viewport": {
        "northeast": {
          "lat": 7.174755529892721,
          "lng": 5.230389079892721
        },
        "southwest": {
          "lat": 7.172055870107276,
          "lng": 5.227689420107277
        }
      },
      "formatted_address": "Emiloro Town, 341106, Akure, Nigeria",
      "google_map_url": "https://maps.google.com?q=7.1733656,5.228994399999999",
      "google_place_id": "ChIJbR4UhbWbRxARwinC8nSQyPc"
    }
  }
]