[
  {
    "id": "69295",
    "name": "WOMEN CENTER  I",
    "registration_area_id": "3804",
    "precise_location": null,
    "abbreviation": "001",
    "units": "001",
    "delimitation": "17/14/09/001",
    "remark": "EXISTING PU",
    "ward_id": "3804",
    "ward_name": "JAHUN",
    "local_government_id": "333",
    "local_government_name": "JAHUN",
    "state_id": "17",
    "state_name": "JIGAWA",
    "location": {
      "latitude": 12.0786213,
      "longitude": 9.622987799999999,
      "viewport": {
        "northeast": {
          "lat": 12.07990147989272,
          "lng": 9.624349529892722
        },
        "southwest": {
          "lat": 12.07720182010728,
          "lng": 9.621649870107278
        }
      },
      "formatted_address": "3JHF+C5X, 720103, Jahun, Nigeria",
      "google_map_url": "https://maps.google.com?q=12.0786213,9.622987799999999",
      "google_place_id": "ChIJpclVYElnqRERZGhZqaQkWxM"
    }
  },
  {
    "id": "69296",
    "name": "UNGUWAR SULE I",
    "registration_area_id": "3804",
    "precise_location": null,
    "abbreviation": "002",
    "units": "002",
    "delimitation": "17/14/09/002",
    "remark": "EXISTING PU",
    "ward_id": "3804",
    "ward_name": "JAHUN",
    "local_government_id": "333",
    "local_government_name": "JAHUN",
    "state_id": "17",
    "state_name": "JIGAWA",
    "location": {
      "latitude": 12.0739431,
      "longitude": 9.6291344,
      "viewport": {
        "northeast": {
          "lat": 12.07532692989272,
          "lng": 9.63048512989272
        },
        "southwest": {
          "lat": 12.07262727010728,
          "lng": 9.627785470107277
        }
      },
      "formatted_address": "3JFH+HM6, 720103, Jahun, Nigeria",
      "google_map_url": "https://maps.google.com?q=12.0739431,9.6291344",
      "google_place_id": "ChIJYY52NnZnqRERd6kf1TeARtU"
    }
  },
  {
    "id": "69297",
    "name": "WOMEN CENTER II",
    "registration_area_id": "3804",
    "precise_location": null,
    "abbreviation": "003",
    "units": "003",
    "delimitation": "17/14/09/003",
    "remark": "EXISTING PU",
    "ward_id": "3804",
    "ward_name": "JAHUN",
    "local_government_id": "333",
    "local_government_name": "JAHUN",
    "state_id": "17",
    "state_name": "JIGAWA",
    "location": {
      "latitude": 12.0786213,
      "longitude": 9.622987799999999,
      "viewport": {
        "northeast": {
          "lat": 12.07990147989272,
          "lng": 9.624349529892722
        },
        "southwest": {
          "lat": 12.07720182010728,
          "lng": 9.621649870107278
        }
      },
      "formatted_address": "3JHF+C5X, 720103, Jahun, Nigeria",
      "google_map_url": "https://maps.google.com?q=12.0786213,9.622987799999999",
      "google_place_id": "ChIJpclVYElnqRERZGhZqaQkWxM"
    }
  },
  {
    "id": "69298",
    "name": "JAHUN S.P PRI. SCH. I",
    "registration_area_id": "3804",
    "precise_location": null,
    "abbreviation": "004",
    "units": "004",
    "delimitation": "17/14/09/004",
    "remark": "EXISTING PU",
    "ward_id": "3804",
    "ward_name": "JAHUN",
    "local_government_id": "333",
    "local_government_name": "JAHUN",
    "state_id": "17",
    "state_name": "JIGAWA",
    "location": {
      "latitude": 12.097487,
      "longitude": 9.6277819,
      "viewport": {
        "northeast": {
          "lat": 12.09883137989272,
          "lng": 9.629316499999998
        },
        "southwest": {
          "lat": 12.09613172010728,
          "lng": 9.623177700000001
        }
      },
      "formatted_address": "3JWH+X4V, 720103, Jahun, Nigeria",
      "google_map_url": "https://maps.google.com?q=12.097487,9.6277819",
      "google_place_id": "ChIJ9ygzEq5oqRERm0aSfR4U1lo"
    }
  },
  {
    "id": "69299",
    "name": "WOMEN CENTER III",
    "registration_area_id": "3804",
    "precise_location": null,
    "abbreviation": "005",
    "units": "005",
    "delimitation": "17/14/09/005",
    "remark": "EXISTING PU",
    "ward_id": "3804",
    "ward_name": "JAHUN",
    "local_government_id": "333",
    "local_government_name": "JAHUN",
    "state_id": "17",
    "state_name": "JIGAWA",
    "location": {
      "latitude": 12.0786213,
      "longitude": 9.622987799999999,
      "viewport": {
        "northeast": {
          "lat": 12.07990147989272,
          "lng": 9.624349529892722
        },
        "southwest": {
          "lat": 12.07720182010728,
          "lng": 9.621649870107278
        }
      },
      "formatted_address": "3JHF+C5X, 720103, Jahun, Nigeria",
      "google_map_url": "https://maps.google.com?q=12.0786213,9.622987799999999",
      "google_place_id": "ChIJpclVYElnqRERZGhZqaQkWxM"
    }
  },
  {
    "id": "69300",
    "name": "JAHUN S.P PRI. SCH. II",
    "registration_area_id": "3804",
    "precise_location": null,
    "abbreviation": "006",
    "units": "006",
    "delimitation": "17/14/09/006",
    "remark": "EXISTING PU",
    "ward_id": "3804",
    "ward_name": "JAHUN",
    "local_government_id": "333",
    "local_government_name": "JAHUN",
    "state_id": "17",
    "state_name": "JIGAWA",
    "location": {
      "latitude": 12.0820121,
      "longitude": 9.634422100000002,
      "viewport": {
        "northeast": {
          "lat": 12.08310947989272,
          "lng": 9.63576307989272
        },
        "southwest": {
          "lat": 12.08040982010728,
          "lng": 9.633063420107277
        }
      },
      "formatted_address": "3JJM+RV6, 720103, Jahun, Nigeria",
      "google_map_url": "https://maps.google.com?q=12.0820121,9.634422100000002",
      "google_place_id": "ChIJ-QFxs7NlqRERZo2oG6duDL4"
    }
  },
  {
    "id": "69301",
    "name": "JAHUN S.P PRI. SCH. III",
    "registration_area_id": "3804",
    "precise_location": null,
    "abbreviation": "007",
    "units": "007",
    "delimitation": "17/14/09/007",
    "remark": "EXISTING PU",
    "ward_id": "3804",
    "ward_name": "JAHUN",
    "local_government_id": "333",
    "local_government_name": "JAHUN",
    "state_id": "17",
    "state_name": "JIGAWA",
    "location": {
      "latitude": 12.0820121,
      "longitude": 9.634422100000002,
      "viewport": {
        "northeast": {
          "lat": 12.08310947989272,
          "lng": 9.63576307989272
        },
        "southwest": {
          "lat": 12.08040982010728,
          "lng": 9.633063420107277
        }
      },
      "formatted_address": "3JJM+RV6, 720103, Jahun, Nigeria",
      "google_map_url": "https://maps.google.com?q=12.0820121,9.634422100000002",
      "google_place_id": "ChIJ-QFxs7NlqRERZo2oG6duDL4"
    }
  },
  {
    "id": "69302",
    "name": "UNGUWAR SULE II",
    "registration_area_id": "3804",
    "precise_location": null,
    "abbreviation": "008",
    "units": "008",
    "delimitation": "17/14/09/008",
    "remark": "EXISTING PU",
    "ward_id": "3804",
    "ward_name": "JAHUN",
    "local_government_id": "333",
    "local_government_name": "JAHUN",
    "state_id": "17",
    "state_name": "JIGAWA",
    "location": {
      "latitude": 12.0739431,
      "longitude": 9.6291344,
      "viewport": {
        "northeast": {
          "lat": 12.07532692989272,
          "lng": 9.63048512989272
        },
        "southwest": {
          "lat": 12.07262727010728,
          "lng": 9.627785470107277
        }
      },
      "formatted_address": "3JFH+HM6, 720103, Jahun, Nigeria",
      "google_map_url": "https://maps.google.com?q=12.0739431,9.6291344",
      "google_place_id": "ChIJYY52NnZnqRERd6kf1TeARtU"
    }
  },
  {
    "id": "69303",
    "name": "GABAS PRI. SCH. GABAS I",
    "registration_area_id": "3804",
    "precise_location": null,
    "abbreviation": "009",
    "units": "009",
    "delimitation": "17/14/09/009",
    "remark": "EXISTING PU",
    "ward_id": "3804",
    "ward_name": "JAHUN",
    "local_government_id": "333",
    "local_government_name": "JAHUN",
    "state_id": "17",
    "state_name": "JIGAWA",
    "location": {
      "latitude": 12.0820121,
      "longitude": 9.634422100000002,
      "viewport": {
        "northeast": {
          "lat": 12.08310947989272,
          "lng": 9.63576307989272
        },
        "southwest": {
          "lat": 12.08040982010728,
          "lng": 9.633063420107277
        }
      },
      "formatted_address": "3JJM+RV6, 720103, Jahun, Nigeria",
      "google_map_url": "https://maps.google.com?q=12.0820121,9.634422100000002",
      "google_place_id": "ChIJ-QFxs7NlqRERZo2oG6duDL4"
    }
  },
  {
    "id": "69304",
    "name": "GABAS PRI. SCH. GABAS II",
    "registration_area_id": "3804",
    "precise_location": null,
    "abbreviation": "010",
    "units": "010",
    "delimitation": "17/14/09/010",
    "remark": "EXISTING PU",
    "ward_id": "3804",
    "ward_name": "JAHUN",
    "local_government_id": "333",
    "local_government_name": "JAHUN",
    "state_id": "17",
    "state_name": "JIGAWA",
    "location": {
      "latitude": 12.0820121,
      "longitude": 9.634422100000002,
      "viewport": {
        "northeast": {
          "lat": 12.08310947989272,
          "lng": 9.63576307989272
        },
        "southwest": {
          "lat": 12.08040982010728,
          "lng": 9.633063420107277
        }
      },
      "formatted_address": "3JJM+RV6, 720103, Jahun, Nigeria",
      "google_map_url": "https://maps.google.com?q=12.0820121,9.634422100000002",
      "google_place_id": "ChIJ-QFxs7NlqRERZo2oG6duDL4"
    }
  },
  {
    "id": "69305",
    "name": "GABAS PRI. SCH. GABAS III",
    "registration_area_id": "3804",
    "precise_location": null,
    "abbreviation": "011",
    "units": "011",
    "delimitation": "17/14/09/011",
    "remark": "EXISTING PU",
    "ward_id": "3804",
    "ward_name": "JAHUN",
    "local_government_id": "333",
    "local_government_name": "JAHUN",
    "state_id": "17",
    "state_name": "JIGAWA",
    "location": {
      "latitude": 12.0820121,
      "longitude": 9.634422100000002,
      "viewport": {
        "northeast": {
          "lat": 12.08310947989272,
          "lng": 9.63576307989272
        },
        "southwest": {
          "lat": 12.08040982010728,
          "lng": 9.633063420107277
        }
      },
      "formatted_address": "3JJM+RV6, 720103, Jahun, Nigeria",
      "google_map_url": "https://maps.google.com?q=12.0820121,9.634422100000002",
      "google_place_id": "ChIJ-QFxs7NlqRERZo2oG6duDL4"
    }
  },
  {
    "id": "69306",
    "name": "TSIGI I",
    "registration_area_id": "3804",
    "precise_location": null,
    "abbreviation": "012",
    "units": "012",
    "delimitation": "17/14/09/012",
    "remark": "EXISTING PU",
    "ward_id": "3804",
    "ward_name": "JAHUN",
    "local_government_id": "333",
    "local_government_name": "JAHUN",
    "state_id": "17",
    "state_name": "JIGAWA",
    "location": {
      "latitude": 12.0788907,
      "longitude": 9.6257837,
      "viewport": {
        "northeast": {
          "lat": 12.085651,
          "lng": 9.6379909
        },
        "southwest": {
          "lat": 12.0663479,
          "lng": 9.614851999999999
        }
      },
      "formatted_address": "720103, Jahun, Nigeria",
      "google_map_url": "https://maps.google.com?q=12.0788907,9.6257837",
      "google_place_id": "ChIJu3UibgpmqRERK9O9TFtHu3c"
    }
  },
  {
    "id": "69307",
    "name": "KOFAR FADA/KOFAR FADA  I",
    "registration_area_id": "3804",
    "precise_location": null,
    "abbreviation": "013",
    "units": "013",
    "delimitation": "17/14/09/013",
    "remark": "EXISTING PU",
    "ward_id": "3804",
    "ward_name": "JAHUN",
    "local_government_id": "333",
    "local_government_name": "JAHUN",
    "state_id": "17",
    "state_name": "JIGAWA",
    "location": {
      "latitude": 12.0860771,
      "longitude": 9.6237055,
      "viewport": {
        "northeast": {
          "lat": 12.08749447989272,
          "lng": 9.624834929892723
        },
        "southwest": {
          "lat": 12.08479482010728,
          "lng": 9.622135270107279
        }
      },
      "formatted_address": "Kofar fada, 720103, Jahun, Nigeria",
      "google_map_url": "https://maps.google.com?q=12.0860771,9.6237055",
      "google_place_id": "ChIJdQynurtnqRERej6kzAV-HlU"
    }
  },
  {
    "id": "69308",
    "name": "TSIGI II",
    "registration_area_id": "3804",
    "precise_location": null,
    "abbreviation": "014",
    "units": "014",
    "delimitation": "17/14/09/014",
    "remark": "EXISTING PU",
    "ward_id": "3804",
    "ward_name": "JAHUN",
    "local_government_id": "333",
    "local_government_name": "JAHUN",
    "state_id": "17",
    "state_name": "JIGAWA",
    "location": {
      "latitude": 12.0788907,
      "longitude": 9.6257837,
      "viewport": {
        "northeast": {
          "lat": 12.085651,
          "lng": 9.6379909
        },
        "southwest": {
          "lat": 12.0663479,
          "lng": 9.614851999999999
        }
      },
      "formatted_address": "720103, Jahun, Nigeria",
      "google_map_url": "https://maps.google.com?q=12.0788907,9.6257837",
      "google_place_id": "ChIJu3UibgpmqRERK9O9TFtHu3c"
    }
  },
  {
    "id": "69309",
    "name": "KOFAR FADA II",
    "registration_area_id": "3804",
    "precise_location": null,
    "abbreviation": "015",
    "units": "015",
    "delimitation": "17/14/09/015",
    "remark": "EXISTING PU",
    "ward_id": "3804",
    "ward_name": "JAHUN",
    "local_government_id": "333",
    "local_government_name": "JAHUN",
    "state_id": "17",
    "state_name": "JIGAWA",
    "location": {
      "latitude": 12.0788907,
      "longitude": 9.6257837,
      "viewport": {
        "northeast": {
          "lat": 12.08025802989272,
          "lng": 9.62712972989272
        },
        "southwest": {
          "lat": 12.07755837010728,
          "lng": 9.624430070107277
        }
      },
      "formatted_address": "KOFAR FADA STREET, TSIGI QUARTERS, 720103, Jahun, Nigeria",
      "google_map_url": "https://maps.google.com?q=12.0788907,9.6257837",
      "google_place_id": "ChIJR8WpftZnqRER8_u7oa68r10"
    }
  },
  {
    "id": "69310",
    "name": "KOFAR GABAS/KOFAR GABAS I",
    "registration_area_id": "3804",
    "precise_location": null,
    "abbreviation": "016",
    "units": "016",
    "delimitation": "17/14/09/016",
    "remark": "EXISTING PU",
    "ward_id": "3804",
    "ward_name": "JAHUN",
    "local_government_id": "333",
    "local_government_name": "JAHUN",
    "state_id": "17",
    "state_name": "JIGAWA",
    "location": {
      "latitude": 12.0724022,
      "longitude": 9.6311074,
      "viewport": {
        "northeast": {
          "lat": 12.07380217989272,
          "lng": 9.632592729892723
        },
        "southwest": {
          "lat": 12.07110252010728,
          "lng": 9.62989307010728
        }
      },
      "formatted_address": "Kofar gabas, Quarters, Jahun, Nigeria",
      "google_map_url": "https://maps.google.com?q=12.0724022,9.6311074",
      "google_place_id": "ChIJw80HBglmqRERZnYyjFLHGWo"
    }
  },
  {
    "id": "69311",
    "name": "KOFAR GABAS/KOFAR GABAS II",
    "registration_area_id": "3804",
    "precise_location": null,
    "abbreviation": "017",
    "units": "017",
    "delimitation": "17/14/09/017",
    "remark": "EXISTING PU",
    "ward_id": "3804",
    "ward_name": "JAHUN",
    "local_government_id": "333",
    "local_government_name": "JAHUN",
    "state_id": "17",
    "state_name": "JIGAWA",
    "location": {
      "latitude": 12.0724022,
      "longitude": 9.6311074,
      "viewport": {
        "northeast": {
          "lat": 12.07380217989272,
          "lng": 9.632592729892723
        },
        "southwest": {
          "lat": 12.07110252010728,
          "lng": 9.62989307010728
        }
      },
      "formatted_address": "Kofar gabas, Quarters, Jahun, Nigeria",
      "google_map_url": "https://maps.google.com?q=12.0724022,9.6311074",
      "google_place_id": "ChIJw80HBglmqRERZnYyjFLHGWo"
    }
  },
  {
    "id": "69312",
    "name": "TSIGI III",
    "registration_area_id": "3804",
    "precise_location": null,
    "abbreviation": "018",
    "units": "018",
    "delimitation": "17/14/09/018",
    "remark": "EXISTING PU",
    "ward_id": "3804",
    "ward_name": "JAHUN",
    "local_government_id": "333",
    "local_government_name": "JAHUN",
    "state_id": "17",
    "state_name": "JIGAWA",
    "location": {
      "latitude": 12.097487,
      "longitude": 9.6277819,
      "viewport": {
        "northeast": {
          "lat": 12.09883137989272,
          "lng": 9.629316499999998
        },
        "southwest": {
          "lat": 12.09613172010728,
          "lng": 9.623177700000001
        }
      },
      "formatted_address": "3JWH+X4V, 720103, Jahun, Nigeria",
      "google_map_url": "https://maps.google.com?q=12.097487,9.6277819",
      "google_place_id": "ChIJ9ygzEq5oqRERm0aSfR4U1lo"
    }
  },
  {
    "id": "69313",
    "name": "YARJIGAWA CIKIN GARI I",
    "registration_area_id": "3804",
    "precise_location": null,
    "abbreviation": "019",
    "units": "019",
    "delimitation": "17/14/09/019",
    "remark": "EXISTING PU",
    "ward_id": "3804",
    "ward_name": "JAHUN",
    "local_government_id": "333",
    "local_government_name": "JAHUN",
    "state_id": "17",
    "state_name": "JIGAWA",
    "location": {
      "latitude": 12.0786213,
      "longitude": 9.622987799999999,
      "viewport": {
        "northeast": {
          "lat": 12.07990147989272,
          "lng": 9.624349529892722
        },
        "southwest": {
          "lat": 12.07720182010728,
          "lng": 9.621649870107278
        }
      },
      "formatted_address": "3JHF+C5X, 720103, Jahun, Nigeria",
      "google_map_url": "https://maps.google.com?q=12.0786213,9.622987799999999",
      "google_place_id": "ChIJpclVYElnqRERZGhZqaQkWxM"
    }
  },
  {
    "id": "69314",
    "name": "KWANJAMAWA C./GARI KWANJAMAWA I",
    "registration_area_id": "3804",
    "precise_location": null,
    "abbreviation": "020",
    "units": "020",
    "delimitation": "17/14/09/020",
    "remark": "EXISTING PU",
    "ward_id": "3804",
    "ward_name": "JAHUN",
    "local_government_id": "333",
    "local_government_name": "JAHUN",
    "state_id": "17",
    "state_name": "JIGAWA",
    "location": {
      "latitude": 12.097487,
      "longitude": 9.6277819,
      "viewport": {
        "northeast": {
          "lat": 12.09883137989272,
          "lng": 9.629316499999998
        },
        "southwest": {
          "lat": 12.09613172010728,
          "lng": 9.623177700000001
        }
      },
      "formatted_address": "3JWH+X4V, 720103, Jahun, Nigeria",
      "google_map_url": "https://maps.google.com?q=12.097487,9.6277819",
      "google_place_id": "ChIJ9ygzEq5oqRERm0aSfR4U1lo"
    }
  },
  {
    "id": "69315",
    "name": "WURMAWA",
    "registration_area_id": "3804",
    "precise_location": null,
    "abbreviation": "021",
    "units": "021",
    "delimitation": "17/14/09/021",
    "remark": "EXISTING PU",
    "ward_id": "3804",
    "ward_name": "JAHUN",
    "local_government_id": "333",
    "local_government_name": "JAHUN",
    "state_id": "17",
    "state_name": "JIGAWA",
    "location": {
      "latitude": 12.0786213,
      "longitude": 9.622987799999999,
      "viewport": {
        "northeast": {
          "lat": 12.07990147989272,
          "lng": 9.624349529892722
        },
        "southwest": {
          "lat": 12.07720182010728,
          "lng": 9.621649870107278
        }
      },
      "formatted_address": "3JHF+C5X, 720103, Jahun, Nigeria",
      "google_map_url": "https://maps.google.com?q=12.0786213,9.622987799999999",
      "google_place_id": "ChIJpclVYElnqRERZGhZqaQkWxM"
    }
  },
  {
    "id": "69316",
    "name": "KULLERAN",
    "registration_area_id": "3804",
    "precise_location": null,
    "abbreviation": "022",
    "units": "022",
    "delimitation": "17/14/09/022",
    "remark": "EXISTING PU",
    "ward_id": "3804",
    "ward_name": "JAHUN",
    "local_government_id": "333",
    "local_government_name": "JAHUN",
    "state_id": "17",
    "state_name": "JIGAWA",
    "location": {
      "latitude": 12.0788907,
      "longitude": 9.6257837,
      "viewport": {
        "northeast": {
          "lat": 12.085651,
          "lng": 9.6379909
        },
        "southwest": {
          "lat": 12.0663479,
          "lng": 9.614851999999999
        }
      },
      "formatted_address": "720103, Jahun, Nigeria",
      "google_map_url": "https://maps.google.com?q=12.0788907,9.6257837",
      "google_place_id": "ChIJu3UibgpmqRERK9O9TFtHu3c"
    }
  },
  {
    "id": "69317",
    "name": "DOGAWA C./GARI DOGAWA C./GARI",
    "registration_area_id": "3804",
    "precise_location": null,
    "abbreviation": "023",
    "units": "023",
    "delimitation": "17/14/09/023",
    "remark": "EXISTING PU",
    "ward_id": "3804",
    "ward_name": "JAHUN",
    "local_government_id": "333",
    "local_government_name": "JAHUN",
    "state_id": "17",
    "state_name": "JIGAWA",
    "location": {
      "latitude": 12.0786213,
      "longitude": 9.622987799999999,
      "viewport": {
        "northeast": {
          "lat": 12.07990147989272,
          "lng": 9.624349529892722
        },
        "southwest": {
          "lat": 12.07720182010728,
          "lng": 9.621649870107278
        }
      },
      "formatted_address": "3JHF+C5X, 720103, Jahun, Nigeria",
      "google_map_url": "https://maps.google.com?q=12.0786213,9.622987799999999",
      "google_place_id": "ChIJpclVYElnqRERZGhZqaQkWxM"
    }
  },
  {
    "id": "69318",
    "name": "ZAGAU",
    "registration_area_id": "3804",
    "precise_location": null,
    "abbreviation": "024",
    "units": "024",
    "delimitation": "17/14/09/024",
    "remark": "EXISTING PU",
    "ward_id": "3804",
    "ward_name": "JAHUN",
    "local_government_id": "333",
    "local_government_name": "JAHUN",
    "state_id": "17",
    "state_name": "JIGAWA",
    "location": {
      "latitude": 12.0788907,
      "longitude": 9.6257837,
      "viewport": {
        "northeast": {
          "lat": 12.085651,
          "lng": 9.6379909
        },
        "southwest": {
          "lat": 12.0663479,
          "lng": 9.614851999999999
        }
      },
      "formatted_address": "720103, Jahun, Nigeria",
      "google_map_url": "https://maps.google.com?q=12.0788907,9.6257837",
      "google_place_id": "ChIJu3UibgpmqRERK9O9TFtHu3c"
    }
  },
  {
    "id": "69319",
    "name": "RUWAN DAWA/RUWAN DAWA",
    "registration_area_id": "3804",
    "precise_location": null,
    "abbreviation": "025",
    "units": "025",
    "delimitation": "17/14/09/025",
    "remark": "EXISTING PU",
    "ward_id": "3804",
    "ward_name": "JAHUN",
    "local_government_id": "333",
    "local_government_name": "JAHUN",
    "state_id": "17",
    "state_name": "JIGAWA",
    "location": {
      "latitude": 12.0786213,
      "longitude": 9.622987799999999,
      "viewport": {
        "northeast": {
          "lat": 12.07990147989272,
          "lng": 9.624349529892722
        },
        "southwest": {
          "lat": 12.07720182010728,
          "lng": 9.621649870107278
        }
      },
      "formatted_address": "3JHF+C5X, 720103, Jahun, Nigeria",
      "google_map_url": "https://maps.google.com?q=12.0786213,9.622987799999999",
      "google_place_id": "ChIJpclVYElnqRERZGhZqaQkWxM"
    }
  },
  {
    "id": "69320",
    "name": "BAKIN KASUWA",
    "registration_area_id": "3804",
    "precise_location": null,
    "abbreviation": "026",
    "units": "026",
    "delimitation": "17/14/09/026",
    "remark": "EXISTING PU",
    "ward_id": "3804",
    "ward_name": "JAHUN",
    "local_government_id": "333",
    "local_government_name": "JAHUN",
    "state_id": "17",
    "state_name": "JIGAWA",
    "location": {
      "latitude": 12.0434316,
      "longitude": 9.5896043,
      "viewport": {
        "northeast": {
          "lat": 12.217687,
          "lng": 9.8237995
        },
        "southwest": {
          "lat": 11.9256928,
          "lng": 9.313575199999999
        }
      },
      "formatted_address": "Jahun, Nigeria",
      "google_map_url": "https://maps.google.com?q=12.0434316,9.5896043",
      "google_place_id": "ChIJXZCn8sFnqRERjzUpahANYZw"
    }
  },
  {
    "id": "69321",
    "name": "YAR JIGAWA",
    "registration_area_id": "3804",
    "precise_location": null,
    "abbreviation": "027",
    "units": "027",
    "delimitation": "17/14/09/027",
    "remark": "NEW PU",
    "ward_id": "3804",
    "ward_name": "JAHUN",
    "local_government_id": "333",
    "local_government_name": "JAHUN",
    "state_id": "17",
    "state_name": "JIGAWA",
    "location": {
      "latitude": 12.0788907,
      "longitude": 9.6257837,
      "viewport": {
        "northeast": {
          "lat": 12.085651,
          "lng": 9.6379909
        },
        "southwest": {
          "lat": 12.0663479,
          "lng": 9.614851999999999
        }
      },
      "formatted_address": "720103, Jahun, Nigeria",
      "google_map_url": "https://maps.google.com?q=12.0788907,9.6257837",
      "google_place_id": "ChIJu3UibgpmqRERK9O9TFtHu3c"
    }
  },
  {
    "id": "69322",
    "name": "JSS KWANJAMAWA",
    "registration_area_id": "3804",
    "precise_location": null,
    "abbreviation": "028",
    "units": "028",
    "delimitation": "17/14/09/028",
    "remark": "NEW PU",
    "ward_id": "3804",
    "ward_name": "JAHUN",
    "local_government_id": "333",
    "local_government_name": "JAHUN",
    "state_id": "17",
    "state_name": "JIGAWA",
    "location": {
      "latitude": 12.097487,
      "longitude": 9.6277819,
      "viewport": {
        "northeast": {
          "lat": 12.09883137989272,
          "lng": 9.629316499999998
        },
        "southwest": {
          "lat": 12.09613172010728,
          "lng": 9.623177700000001
        }
      },
      "formatted_address": "3JWH+X4V, 720103, Jahun, Nigeria",
      "google_map_url": "https://maps.google.com?q=12.097487,9.6277819",
      "google_place_id": "ChIJ9ygzEq5oqRERm0aSfR4U1lo"
    }
  },
  {
    "id": "69323",
    "name": "JARDA STORE",
    "registration_area_id": "3804",
    "precise_location": null,
    "abbreviation": "029",
    "units": "029",
    "delimitation": "17/14/09/029",
    "remark": "NEW PU",
    "ward_id": "3804",
    "ward_name": "JAHUN",
    "local_government_id": "333",
    "local_government_name": "JAHUN",
    "state_id": "17",
    "state_name": "JIGAWA",
    "location": {
      "latitude": 12.5771901,
      "longitude": 10.2017783,
      "viewport": {
        "northeast": {
          "lat": 12.57853017989272,
          "lng": 10.20316117989272
        },
        "southwest": {
          "lat": 12.57583052010728,
          "lng": 10.20046152010728
        }
      },
      "formatted_address": "H6G2+VPC, 731104, Kiri Kasama, Nigeria",
      "google_map_url": "https://maps.google.com?q=12.5771901,10.2017783",
      "google_place_id": "ChIJzd9KexC1qRERRib8Cn85KME"
    }
  },
  {
    "id": "69324",
    "name": "KOTUKANTUDU",
    "registration_area_id": "3804",
    "precise_location": null,
    "abbreviation": "030",
    "units": "030",
    "delimitation": "17/14/09/030",
    "remark": "NEW PU",
    "ward_id": "3804",
    "ward_name": "JAHUN",
    "local_government_id": "333",
    "local_government_name": "JAHUN",
    "state_id": "17",
    "state_name": "JIGAWA",
    "location": {
      "latitude": 12.0786213,
      "longitude": 9.622987799999999,
      "viewport": {
        "northeast": {
          "lat": 12.07990147989272,
          "lng": 9.624349529892722
        },
        "southwest": {
          "lat": 12.07720182010728,
          "lng": 9.621649870107278
        }
      },
      "formatted_address": "3JHF+C5X, 720103, Jahun, Nigeria",
      "google_map_url": "https://maps.google.com?q=12.0786213,9.622987799999999",
      "google_place_id": "ChIJpclVYElnqRERZGhZqaQkWxM"
    }
  },
  {
    "id": "69325",
    "name": "NANA AISHA SEC SCH",
    "registration_area_id": "3804",
    "precise_location": null,
    "abbreviation": "031",
    "units": "031",
    "delimitation": "17/14/09/031",
    "remark": "NEW PU",
    "ward_id": "3804",
    "ward_name": "JAHUN",
    "local_government_id": "333",
    "local_government_name": "JAHUN",
    "state_id": "17",
    "state_name": "JIGAWA",
    "location": {
      "latitude": 12.0820121,
      "longitude": 9.634422100000002,
      "viewport": {
        "northeast": {
          "lat": 12.08310947989272,
          "lng": 9.63576307989272
        },
        "southwest": {
          "lat": 12.08040982010728,
          "lng": 9.633063420107277
        }
      },
      "formatted_address": "3JJM+RV6, 720103, Jahun, Nigeria",
      "google_map_url": "https://maps.google.com?q=12.0820121,9.634422100000002",
      "google_place_id": "ChIJ-QFxs7NlqRERZo2oG6duDL4"
    }
  },
  {
    "id": "69326",
    "name": "GABAS P.S IV.",
    "registration_area_id": "3804",
    "precise_location": null,
    "abbreviation": "032",
    "units": "032",
    "delimitation": "17/14/09/032",
    "remark": "NEW PU",
    "ward_id": "3804",
    "ward_name": "JAHUN",
    "local_government_id": "333",
    "local_government_name": "JAHUN",
    "state_id": "17",
    "state_name": "JIGAWA",
    "location": {
      "latitude": 12.0820121,
      "longitude": 9.634422100000002,
      "viewport": {
        "northeast": {
          "lat": 12.08310947989272,
          "lng": 9.63576307989272
        },
        "southwest": {
          "lat": 12.08040982010728,
          "lng": 9.633063420107277
        }
      },
      "formatted_address": "3JJM+RV6, 720103, Jahun, Nigeria",
      "google_map_url": "https://maps.google.com?q=12.0820121,9.634422100000002",
      "google_place_id": "ChIJ-QFxs7NlqRERZo2oG6duDL4"
    }
  },
  {
    "id": "69327",
    "name": "G.G. SCIENCE SEC. SCH",
    "registration_area_id": "3804",
    "precise_location": null,
    "abbreviation": "033",
    "units": "033",
    "delimitation": "17/14/09/033",
    "remark": "NEW PU",
    "ward_id": "3804",
    "ward_name": "JAHUN",
    "local_government_id": "333",
    "local_government_name": "JAHUN",
    "state_id": "17",
    "state_name": "JIGAWA",
    "location": {
      "latitude": 12.0820121,
      "longitude": 9.634422100000002,
      "viewport": {
        "northeast": {
          "lat": 12.08310947989272,
          "lng": 9.63576307989272
        },
        "southwest": {
          "lat": 12.08040982010728,
          "lng": 9.633063420107277
        }
      },
      "formatted_address": "3JJM+RV6, 720103, Jahun, Nigeria",
      "google_map_url": "https://maps.google.com?q=12.0820121,9.634422100000002",
      "google_place_id": "ChIJ-QFxs7NlqRERZo2oG6duDL4"
    }
  },
  {
    "id": "69328",
    "name": "MA'AHAD ISLAMIYYA MAHAUTA",
    "registration_area_id": "3804",
    "precise_location": null,
    "abbreviation": "034",
    "units": "034",
    "delimitation": "17/14/09/034",
    "remark": "NEW PU",
    "ward_id": "3804",
    "ward_name": "JAHUN",
    "local_government_id": "333",
    "local_government_name": "JAHUN",
    "state_id": "17",
    "state_name": "JIGAWA",
    "location": {
      "latitude": 12.0820121,
      "longitude": 9.634422100000002,
      "viewport": {
        "northeast": {
          "lat": 12.08310947989272,
          "lng": 9.63576307989272
        },
        "southwest": {
          "lat": 12.08040982010728,
          "lng": 9.633063420107277
        }
      },
      "formatted_address": "3JJM+RV6, 720103, Jahun, Nigeria",
      "google_map_url": "https://maps.google.com?q=12.0820121,9.634422100000002",
      "google_place_id": "ChIJ-QFxs7NlqRERZo2oG6duDL4"
    }
  },
  {
    "id": "69329",
    "name": "ARABIC JSS",
    "registration_area_id": "3804",
    "precise_location": null,
    "abbreviation": "035",
    "units": "035",
    "delimitation": "17/14/09/035",
    "remark": "NEW PU",
    "ward_id": "3804",
    "ward_name": "JAHUN",
    "local_government_id": "333",
    "local_government_name": "JAHUN",
    "state_id": "17",
    "state_name": "JIGAWA",
    "location": {
      "latitude": 12.0820121,
      "longitude": 9.634422100000002,
      "viewport": {
        "northeast": {
          "lat": 12.08310947989272,
          "lng": 9.63576307989272
        },
        "southwest": {
          "lat": 12.08040982010728,
          "lng": 9.633063420107277
        }
      },
      "formatted_address": "3JJM+RV6, 720103, Jahun, Nigeria",
      "google_map_url": "https://maps.google.com?q=12.0820121,9.634422100000002",
      "google_place_id": "ChIJ-QFxs7NlqRERZo2oG6duDL4"
    }
  },
  {
    "id": "69330",
    "name": "ARABIC JSS",
    "registration_area_id": "3804",
    "precise_location": null,
    "abbreviation": "036",
    "units": "036",
    "delimitation": "17/14/09/036",
    "remark": "NEW PU",
    "ward_id": "3804",
    "ward_name": "JAHUN",
    "local_government_id": "333",
    "local_government_name": "JAHUN",
    "state_id": "17",
    "state_name": "JIGAWA",
    "location": {
      "latitude": 12.0820121,
      "longitude": 9.634422100000002,
      "viewport": {
        "northeast": {
          "lat": 12.08310947989272,
          "lng": 9.63576307989272
        },
        "southwest": {
          "lat": 12.08040982010728,
          "lng": 9.633063420107277
        }
      },
      "formatted_address": "3JJM+RV6, 720103, Jahun, Nigeria",
      "google_map_url": "https://maps.google.com?q=12.0820121,9.634422100000002",
      "google_place_id": "ChIJ-QFxs7NlqRERZo2oG6duDL4"
    }
  },
  {
    "id": "69331",
    "name": "JAHUN PILOT PS",
    "registration_area_id": "3804",
    "precise_location": null,
    "abbreviation": "037",
    "units": "037",
    "delimitation": "17/14/09/037",
    "remark": "NEW PU",
    "ward_id": "3804",
    "ward_name": "JAHUN",
    "local_government_id": "333",
    "local_government_name": "JAHUN",
    "state_id": "17",
    "state_name": "JIGAWA",
    "location": {
      "latitude": 12.0788907,
      "longitude": 9.6257837,
      "viewport": {
        "northeast": {
          "lat": 12.08025802989272,
          "lng": 9.62712972989272
        },
        "southwest": {
          "lat": 12.07755837010728,
          "lng": 9.624430070107277
        }
      },
      "formatted_address": "No. 1 Gujungu Road, 731003, Jahun, Nigeria",
      "google_map_url": "https://maps.google.com?q=12.0788907,9.6257837",
      "google_place_id": "ChIJ_____wRmqRERLrjukD6zZVw"
    }
  },
  {
    "id": "69332",
    "name": "KOFAR DARO",
    "registration_area_id": "3804",
    "precise_location": null,
    "abbreviation": "038",
    "units": "038",
    "delimitation": "17/14/09/038",
    "remark": "NEW PU",
    "ward_id": "3804",
    "ward_name": "JAHUN",
    "local_government_id": "333",
    "local_government_name": "JAHUN",
    "state_id": "17",
    "state_name": "JIGAWA",
    "location": {
      "latitude": 12.0786213,
      "longitude": 9.622987799999999,
      "viewport": {
        "northeast": {
          "lat": 12.07990147989272,
          "lng": 9.624349529892722
        },
        "southwest": {
          "lat": 12.07720182010728,
          "lng": 9.621649870107278
        }
      },
      "formatted_address": "3JHF+C5X, 720103, Jahun, Nigeria",
      "google_map_url": "https://maps.google.com?q=12.0786213,9.622987799999999",
      "google_place_id": "ChIJpclVYElnqRERZGhZqaQkWxM"
    }
  },
  {
    "id": "69333",
    "name": "ISLAMIYYA YOLA",
    "registration_area_id": "3804",
    "precise_location": null,
    "abbreviation": "039",
    "units": "039",
    "delimitation": "17/14/09/039",
    "remark": "NEW PU",
    "ward_id": "3804",
    "ward_name": "JAHUN",
    "local_government_id": "333",
    "local_government_name": "JAHUN",
    "state_id": "17",
    "state_name": "JIGAWA",
    "location": {
      "latitude": 12.0820121,
      "longitude": 9.634422100000002,
      "viewport": {
        "northeast": {
          "lat": 12.08310947989272,
          "lng": 9.63576307989272
        },
        "southwest": {
          "lat": 12.08040982010728,
          "lng": 9.633063420107277
        }
      },
      "formatted_address": "3JJM+RV6, 720103, Jahun, Nigeria",
      "google_map_url": "https://maps.google.com?q=12.0820121,9.634422100000002",
      "google_place_id": "ChIJ-QFxs7NlqRERZo2oG6duDL4"
    }
  },
  {
    "id": "69334",
    "name": "ISLAMIYYA B/KASUWA",
    "registration_area_id": "3804",
    "precise_location": null,
    "abbreviation": "040",
    "units": "040",
    "delimitation": "17/14/09/040",
    "remark": "NEW PU",
    "ward_id": "3804",
    "ward_name": "JAHUN",
    "local_government_id": "333",
    "local_government_name": "JAHUN",
    "state_id": "17",
    "state_name": "JIGAWA",
    "location": {
      "latitude": 12.0820121,
      "longitude": 9.634422100000002,
      "viewport": {
        "northeast": {
          "lat": 12.08310947989272,
          "lng": 9.63576307989272
        },
        "southwest": {
          "lat": 12.08040982010728,
          "lng": 9.633063420107277
        }
      },
      "formatted_address": "3JJM+RV6, 720103, Jahun, Nigeria",
      "google_map_url": "https://maps.google.com?q=12.0820121,9.634422100000002",
      "google_place_id": "ChIJ-QFxs7NlqRERZo2oG6duDL4"
    }
  },
  {
    "id": "69335",
    "name": "LIBRARY",
    "registration_area_id": "3804",
    "precise_location": null,
    "abbreviation": "041",
    "units": "041",
    "delimitation": "17/14/09/041",
    "remark": "NEW PU",
    "ward_id": "3804",
    "ward_name": "JAHUN",
    "local_government_id": "333",
    "local_government_name": "JAHUN",
    "state_id": "17",
    "state_name": "JIGAWA",
    "location": {
      "latitude": 12.0786213,
      "longitude": 9.622987799999999,
      "viewport": {
        "northeast": {
          "lat": 12.07990147989272,
          "lng": 9.624349529892722
        },
        "southwest": {
          "lat": 12.07720182010728,
          "lng": 9.621649870107278
        }
      },
      "formatted_address": "3JHF+C5X, 720103, Jahun, Nigeria",
      "google_map_url": "https://maps.google.com?q=12.0786213,9.622987799999999",
      "google_place_id": "ChIJpclVYElnqRERZGhZqaQkWxM"
    }
  }
]