[
  {
    "id": "80876",
    "name": "PARI I/ L.E.A. PRI. SCH.",
    "registration_area_id": "4244",
    "precise_location": null,
    "abbreviation": "001",
    "units": "001",
    "delimitation": "18/14/10/001",
    "remark": "EXISTING PU",
    "ward_id": "4244",
    "ward_name": "PARI",
    "local_government_id": "360",
    "local_government_name": "KAURU",
    "state_id": "18",
    "state_name": "KADUNA",
    "location": {
      "latitude": 10.4716546,
      "longitude": 7.448743800000001,
      "viewport": {
        "northeast": {
          "lat": 10.47302662989272,
          "lng": 7.450036379892721
        },
        "southwest": {
          "lat": 10.47032697010728,
          "lng": 7.447336720107277
        }
      },
      "formatted_address": "FCCX+MFH, Unnamed Road, Barnawa 800104, Kaduna, Nigeria",
      "google_map_url": "https://maps.google.com?q=10.4716546,7.448743800000001",
      "google_place_id": "ChIJ3bhe2kdLTRARFUCmB5YVO84"
    }
  },
  {
    "id": "80877",
    "name": "PARI II/ L.E.A. PRI. SCH.",
    "registration_area_id": "4244",
    "precise_location": null,
    "abbreviation": "002",
    "units": "002",
    "delimitation": "18/14/10/002",
    "remark": "EXISTING PU",
    "ward_id": "4244",
    "ward_name": "PARI",
    "local_government_id": "360",
    "local_government_name": "KAURU",
    "state_id": "18",
    "state_name": "KADUNA",
    "location": {
      "latitude": 10.4716546,
      "longitude": 7.448743800000001,
      "viewport": {
        "northeast": {
          "lat": 10.47302662989272,
          "lng": 7.450036379892721
        },
        "southwest": {
          "lat": 10.47032697010728,
          "lng": 7.447336720107277
        }
      },
      "formatted_address": "FCCX+MFH, Unnamed Road, Barnawa 800104, Kaduna, Nigeria",
      "google_map_url": "https://maps.google.com?q=10.4716546,7.448743800000001",
      "google_place_id": "ChIJ3bhe2kdLTRARFUCmB5YVO84"
    }
  },
  {
    "id": "80878",
    "name": "IKULU/ L.E.A. PRY. SCH.",
    "registration_area_id": "4244",
    "precise_location": null,
    "abbreviation": "003",
    "units": "003",
    "delimitation": "18/14/10/003",
    "remark": "EXISTING PU",
    "ward_id": "4244",
    "ward_name": "PARI",
    "local_government_id": "360",
    "local_government_name": "KAURU",
    "state_id": "18",
    "state_name": "KADUNA",
    "location": {
      "latitude": 10.6030392,
      "longitude": 7.4582341,
      "viewport": {
        "northeast": {
          "lat": 10.60315582989272,
          "lng": 7.461047429892721
        },
        "southwest": {
          "lat": 10.60045617010728,
          "lng": 7.458347770107277
        }
      },
      "formatted_address": "JF25+PVG, Malali 800102, Kaduna, Nigeria",
      "google_map_url": "https://maps.google.com?q=10.6030392,7.4582341",
      "google_place_id": "ChIJS43pgeq1shERwOqrVr1MHW4"
    }
  },
  {
    "id": "80879",
    "name": "ANG/MADAKI/ L.E.A. PRY. SCH.",
    "registration_area_id": "4244",
    "precise_location": null,
    "abbreviation": "004",
    "units": "004",
    "delimitation": "18/14/10/004",
    "remark": "EXISTING PU",
    "ward_id": "4244",
    "ward_name": "PARI",
    "local_government_id": "360",
    "local_government_name": "KAURU",
    "state_id": "18",
    "state_name": "KADUNA",
    "location": {
      "latitude": 10.5088632,
      "longitude": 7.407466400000001,
      "viewport": {
        "northeast": {
          "lat": 10.51022417989272,
          "lng": 7.408780429892722
        },
        "southwest": {
          "lat": 10.50752452010728,
          "lng": 7.406080770107279
        }
      },
      "formatted_address": "GC55+H27, Tudun Wada 800282, Kaduna, Nigeria",
      "google_map_url": "https://maps.google.com?q=10.5088632,7.407466400000001",
      "google_place_id": "ChIJI_tuuRc1TRARO09NjyHppHQ"
    }
  },
  {
    "id": "80880",
    "name": "KIFFIN BAYERO/ L.E.A. PRY. SCH.",
    "registration_area_id": "4244",
    "precise_location": null,
    "abbreviation": "005",
    "units": "005",
    "delimitation": "18/14/10/005",
    "remark": "EXISTING PU",
    "ward_id": "4244",
    "ward_name": "PARI",
    "local_government_id": "360",
    "local_government_name": "KAURU",
    "state_id": "18",
    "state_name": "KADUNA",
    "location": null
  },
  {
    "id": "80881",
    "name": "KIGUM/ L.E.A. PRY. SCH.",
    "registration_area_id": "4244",
    "precise_location": null,
    "abbreviation": "006",
    "units": "006",
    "delimitation": "18/14/10/006",
    "remark": "EXISTING PU",
    "ward_id": "4244",
    "ward_name": "PARI",
    "local_government_id": "360",
    "local_government_name": "KAURU",
    "state_id": "18",
    "state_name": "KADUNA",
    "location": {
      "latitude": 10.5084182,
      "longitude": 7.4016094,
      "viewport": {
        "northeast": {
          "lat": 10.50975777989272,
          "lng": 7.402672479892722
        },
        "southwest": {
          "lat": 10.50705812010728,
          "lng": 7.399972820107278
        }
      },
      "formatted_address": "A2, Tudun Wada, Kaduna, Nigeria",
      "google_map_url": "https://maps.google.com?q=10.5084182,7.4016094",
      "google_place_id": "ChIJ4eE1YB41TRAR6p91TndIwkI"
    }
  },
  {
    "id": "80882",
    "name": "LUNGU/ L.E.A. PRY. SCH.",
    "registration_area_id": "4244",
    "precise_location": null,
    "abbreviation": "007",
    "units": "007",
    "delimitation": "18/14/10/007",
    "remark": "EXISTING PU",
    "ward_id": "4244",
    "ward_name": "PARI",
    "local_government_id": "360",
    "local_government_name": "KAURU",
    "state_id": "18",
    "state_name": "KADUNA",
    "location": {
      "latitude": 10.5781565,
      "longitude": 7.443420499999999,
      "viewport": {
        "northeast": {
          "lat": 10.57950547989272,
          "lng": 7.44479042989272
        },
        "southwest": {
          "lat": 10.57680582010728,
          "lng": 7.442090770107276
        }
      },
      "formatted_address": "HCHV+797, Hayan Banki 800283, Kaduna, Nigeria",
      "google_map_url": "https://maps.google.com?q=10.5781565,7.443420499999999",
      "google_place_id": "ChIJKQ9KsL21shERtqi2jYebwzE"
    }
  },
  {
    "id": "80883",
    "name": "RAHAMA/ L.E.A. PRY. SCH.",
    "registration_area_id": "4244",
    "precise_location": null,
    "abbreviation": "008",
    "units": "008",
    "delimitation": "18/14/10/008",
    "remark": "EXISTING PU",
    "ward_id": "4244",
    "ward_name": "PARI",
    "local_government_id": "360",
    "local_government_name": "KAURU",
    "state_id": "18",
    "state_name": "KADUNA",
    "location": {
      "latitude": 10.5088632,
      "longitude": 7.407466400000001,
      "viewport": {
        "northeast": {
          "lat": 10.51022417989272,
          "lng": 7.408780429892722
        },
        "southwest": {
          "lat": 10.50752452010728,
          "lng": 7.406080770107279
        }
      },
      "formatted_address": "GC55+H27, Tudun Wada 800282, Kaduna, Nigeria",
      "google_map_url": "https://maps.google.com?q=10.5088632,7.407466400000001",
      "google_place_id": "ChIJI_tuuRc1TRARO09NjyHppHQ"
    }
  },
  {
    "id": "80884",
    "name": "CHORI",
    "registration_area_id": "4244",
    "precise_location": null,
    "abbreviation": "009",
    "units": "009",
    "delimitation": "18/14/10/009",
    "remark": "EXISTING PU",
    "ward_id": "4244",
    "ward_name": "PARI",
    "local_government_id": "360",
    "local_government_name": "KAURU",
    "state_id": "18",
    "state_name": "KADUNA",
    "location": {
      "latitude": 10.2543334,
      "longitude": 7.872159999999999,
      "viewport": {
        "northeast": {
          "lat": 10.5547094,
          "lng": 8.2174483
        },
        "southwest": {
          "lat": 10.0296421,
          "lng": 7.5642982
        }
      },
      "formatted_address": "Kauru, Nigeria",
      "google_map_url": "https://maps.google.com?q=10.2543334,7.872159999999999",
      "google_place_id": "ChIJTZoHhjakUhARuQTqKx025Po"
    }
  },
  {
    "id": "80885",
    "name": "KIZACHI ADAM/ K/G MAI UNGUWA",
    "registration_area_id": "4244",
    "precise_location": null,
    "abbreviation": "010",
    "units": "010",
    "delimitation": "18/14/10/010",
    "remark": "EXISTING PU",
    "ward_id": "4244",
    "ward_name": "PARI",
    "local_government_id": "360",
    "local_government_name": "KAURU",
    "state_id": "18",
    "state_name": "KADUNA",
    "location": null
  },
  {
    "id": "80886",
    "name": "KIZACHI DAWAI/ K/G MAI UNGUWA",
    "registration_area_id": "4244",
    "precise_location": null,
    "abbreviation": "011",
    "units": "011",
    "delimitation": "18/14/10/011",
    "remark": "EXISTING PU",
    "ward_id": "4244",
    "ward_name": "PARI",
    "local_government_id": "360",
    "local_government_name": "KAURU",
    "state_id": "18",
    "state_name": "KADUNA",
    "location": null
  },
  {
    "id": "80887",
    "name": "ANG/GARMA/ K/G MAI UNGUWA",
    "registration_area_id": "4244",
    "precise_location": null,
    "abbreviation": "012",
    "units": "012",
    "delimitation": "18/14/10/012",
    "remark": "EXISTING PU",
    "ward_id": "4244",
    "ward_name": "PARI",
    "local_government_id": "360",
    "local_government_name": "KAURU",
    "state_id": "18",
    "state_name": "KADUNA",
    "location": null
  },
  {
    "id": "80888",
    "name": "ANG/KAYA/ K/G MAI UNGUWA",
    "registration_area_id": "4244",
    "precise_location": null,
    "abbreviation": "013",
    "units": "013",
    "delimitation": "18/14/10/013",
    "remark": "EXISTING PU",
    "ward_id": "4244",
    "ward_name": "PARI",
    "local_government_id": "360",
    "local_government_name": "KAURU",
    "state_id": "18",
    "state_name": "KADUNA",
    "location": null
  },
  {
    "id": "80889",
    "name": "ANG/GALADIMA/ K/G MAI UNGUWA",
    "registration_area_id": "4244",
    "precise_location": null,
    "abbreviation": "014",
    "units": "014",
    "delimitation": "18/14/10/014",
    "remark": "EXISTING PU",
    "ward_id": "4244",
    "ward_name": "PARI",
    "local_government_id": "360",
    "local_government_name": "KAURU",
    "state_id": "18",
    "state_name": "KADUNA",
    "location": null
  }
]