[
  {
    "id": "349270",
    "name": "ALAJUE, BODE STREET, EDE",
    "registration_area_id": "17779",
    "precise_location": null,
    "abbreviation": "001",
    "units": "001",
    "delimitation": "29/08/04/001",
    "remark": "EXISTING PU",
    "ward_id": "17779",
    "ward_name": "ALAJUE I",
    "local_government_id": "607",
    "local_government_name": "EDE SOUTH",
    "state_id": "29",
    "state_name": "OSUN",
    "location": {
      "latitude": 7.7301372,
      "longitude": 4.4379111,
      "viewport": {
        "northeast": {
          "lat": 7.731479379892722,
          "lng": 4.439228679892723
        },
        "southwest": {
          "lat": 7.728779720107278,
          "lng": 4.436529020107279
        }
      },
      "formatted_address": "PCJQ+353, Alajue shopping complex, Along, Station Road, Ede, Nigeria",
      "google_map_url": "https://maps.google.com?q=7.7301372,4.4379111",
      "google_place_id": "ChIJiY6PwEcrOBAR-2Ay2axOAOg"
    }
  },
  {
    "id": "349271",
    "name": "ALAJUE SQUARE, IDI ARERE",
    "registration_area_id": "17779",
    "precise_location": null,
    "abbreviation": "002",
    "units": "002",
    "delimitation": "29/08/04/002",
    "remark": "EXISTING PU",
    "ward_id": "17779",
    "ward_name": "ALAJUE I",
    "local_government_id": "607",
    "local_government_name": "EDE SOUTH",
    "state_id": "29",
    "state_name": "OSUN",
    "location": {
      "latitude": 7.697365800000001,
      "longitude": 4.4535124,
      "viewport": {
        "northeast": {
          "lat": 7.698718729892724,
          "lng": 4.454859979892722
        },
        "southwest": {
          "lat": 7.696019070107281,
          "lng": 4.452160320107278
        }
      },
      "formatted_address": "MFW3+WCR, 232101, Ede, Nigeria",
      "google_map_url": "https://maps.google.com?q=7.697365800000001,4.4535124",
      "google_place_id": "ChIJQxWT8L0rOBAR7jOeVi523fo"
    }
  },
  {
    "id": "349272",
    "name": "ST. PETERS PRY. SCHOOL, EDE",
    "registration_area_id": "17779",
    "precise_location": null,
    "abbreviation": "003",
    "units": "003",
    "delimitation": "29/08/04/003",
    "remark": "EXISTING PU",
    "ward_id": "17779",
    "ward_name": "ALAJUE I",
    "local_government_id": "607",
    "local_government_name": "EDE SOUTH",
    "state_id": "29",
    "state_name": "OSUN",
    "location": {
      "latitude": 7.6267651,
      "longitude": 4.433644,
      "viewport": {
        "northeast": {
          "lat": 7.629475900000004,
          "lng": 4.4358685
        },
        "southwest": {
          "lat": 7.625861499999999,
          "lng": 4.432902500000001
        }
      },
      "formatted_address": "JCGM+PF2, 232101, Ojudo, Nigeria",
      "google_map_url": "https://maps.google.com?q=7.6267651,4.433644",
      "google_place_id": "ChIJt1jO9dstOBARJkiqd5vHc_Y"
    }
  },
  {
    "id": "349273",
    "name": "OBA LAOYE GRAMMAR SCHOOL, EDE I",
    "registration_area_id": "17779",
    "precise_location": null,
    "abbreviation": "004",
    "units": "004",
    "delimitation": "29/08/04/004",
    "remark": "EXISTING PU",
    "ward_id": "17779",
    "ward_name": "ALAJUE I",
    "local_government_id": "607",
    "local_government_name": "EDE SOUTH",
    "state_id": "29",
    "state_name": "OSUN",
    "location": {
      "latitude": 7.720724799999999,
      "longitude": 4.4434765,
      "viewport": {
        "northeast": {
          "lat": 7.722126329892721,
          "lng": 4.444654579892721
        },
        "southwest": {
          "lat": 7.719426670107278,
          "lng": 4.441954920107277
        }
      },
      "formatted_address": "PCCV+6CR, 232101, Ede, Nigeria",
      "google_map_url": "https://maps.google.com?q=7.720724799999999,4.4434765",
      "google_place_id": "ChIJh7YEm1QqOBARUkVy6ccFBq4"
    }
  },
  {
    "id": "349274",
    "name": "OBA LAOYE GRAMMAR SCHOOL, EDE II",
    "registration_area_id": "17779",
    "precise_location": null,
    "abbreviation": "005",
    "units": "005",
    "delimitation": "29/08/04/005",
    "remark": "EXISTING PU",
    "ward_id": "17779",
    "ward_name": "ALAJUE I",
    "local_government_id": "607",
    "local_government_name": "EDE SOUTH",
    "state_id": "29",
    "state_name": "OSUN",
    "location": {
      "latitude": 7.720724799999999,
      "longitude": 4.4434765,
      "viewport": {
        "northeast": {
          "lat": 7.722126329892721,
          "lng": 4.444654579892721
        },
        "southwest": {
          "lat": 7.719426670107278,
          "lng": 4.441954920107277
        }
      },
      "formatted_address": "PCCV+6CR, 232101, Ede, Nigeria",
      "google_map_url": "https://maps.google.com?q=7.720724799999999,4.4434765",
      "google_place_id": "ChIJh7YEm1QqOBARUkVy6ccFBq4"
    }
  },
  {
    "id": "349275",
    "name": "ODE-OKE",
    "registration_area_id": "17779",
    "precise_location": null,
    "abbreviation": "006",
    "units": "006",
    "delimitation": "29/08/04/006",
    "remark": "EXISTING PU",
    "ward_id": "17779",
    "ward_name": "ALAJUE I",
    "local_government_id": "607",
    "local_government_name": "EDE SOUTH",
    "state_id": "29",
    "state_name": "OSUN",
    "location": {
      "latitude": 7.720235600000001,
      "longitude": 4.4503651,
      "viewport": {
        "northeast": {
          "lat": 7.721773829892721,
          "lng": 4.451590229892721
        },
        "southwest": {
          "lat": 7.719074170107277,
          "lng": 4.448890570107277
        }
      },
      "formatted_address": "PFC2+34X Covenant house, Oke Anu Street, off olomola hospital, area 232101, Ede, Nigeria",
      "google_map_url": "https://maps.google.com?q=7.720235600000001,4.4503651",
      "google_place_id": "ChIJ9fum9g4rOBARRF-n0zlCMTc"
    }
  },
  {
    "id": "349276",
    "name": "ADETOOTO STREET, (MARICAS JUNCTION)",
    "registration_area_id": "17779",
    "precise_location": null,
    "abbreviation": "007",
    "units": "007",
    "delimitation": "29/08/04/007",
    "remark": "EXISTING PU",
    "ward_id": "17779",
    "ward_name": "ALAJUE I",
    "local_government_id": "607",
    "local_government_name": "EDE SOUTH",
    "state_id": "29",
    "state_name": "OSUN",
    "location": {
      "latitude": 7.695712500000001,
      "longitude": 4.4177198,
      "viewport": {
        "northeast": {
          "lat": 7.697262779892723,
          "lng": 4.418547829892722
        },
        "southwest": {
          "lat": 7.694563120107279,
          "lng": 4.415848170107278
        }
      },
      "formatted_address": "Ajeniju Laoye Street, 232101, Nigeria",
      "google_map_url": "https://maps.google.com?q=7.695712500000001,4.4177198",
      "google_place_id": "ChIJXSnOIyUrOBARaSqYCCPgkDg"
    }
  },
  {
    "id": "349277",
    "name": "ANUOLU JUNCTION",
    "registration_area_id": "17779",
    "precise_location": null,
    "abbreviation": "008",
    "units": "008",
    "delimitation": "29/08/04/008",
    "remark": "EXISTING PU",
    "ward_id": "17779",
    "ward_name": "ALAJUE I",
    "local_government_id": "607",
    "local_government_name": "EDE SOUTH",
    "state_id": "29",
    "state_name": "OSUN",
    "location": {
      "latitude": 7.724949699999999,
      "longitude": 4.442955,
      "viewport": {
        "northeast": {
          "lat": 7.726355729892724,
          "lng": 4.44442107989272
        },
        "southwest": {
          "lat": 7.72365607010728,
          "lng": 4.441721420107276
        }
      },
      "formatted_address": "Station Road, 232101, Ede, Nigeria",
      "google_map_url": "https://maps.google.com?q=7.724949699999999,4.442955",
      "google_place_id": "ChIJ-TdtYXYrOBARvyeEugNxthQ"
    }
  },
  {
    "id": "349278",
    "name": "OPP. SEVENTH DAY I PRY. SCHOOL",
    "registration_area_id": "17779",
    "precise_location": null,
    "abbreviation": "009",
    "units": "009",
    "delimitation": "29/08/04/009",
    "remark": "EXISTING PU",
    "ward_id": "17779",
    "ward_name": "ALAJUE I",
    "local_government_id": "607",
    "local_government_name": "EDE SOUTH",
    "state_id": "29",
    "state_name": "OSUN",
    "location": null
  },
  {
    "id": "349279",
    "name": "OPP. SEVENTH DAY II PRY. SCHOOL (OPEN SPACE )",
    "registration_area_id": "17779",
    "precise_location": null,
    "abbreviation": "010",
    "units": "010",
    "delimitation": "29/08/04/010",
    "remark": "EXISTING PU",
    "ward_id": "17779",
    "ward_name": "ALAJUE I",
    "local_government_id": "607",
    "local_government_name": "EDE SOUTH",
    "state_id": "29",
    "state_name": "OSUN",
    "location": null
  },
  {
    "id": "349280",
    "name": "EDEDIMEJI VILLAGE",
    "registration_area_id": "17779",
    "precise_location": null,
    "abbreviation": "011",
    "units": "011",
    "delimitation": "29/08/04/011",
    "remark": "EXISTING PU",
    "ward_id": "17779",
    "ward_name": "ALAJUE I",
    "local_government_id": "607",
    "local_government_name": "EDE SOUTH",
    "state_id": "29",
    "state_name": "OSUN",
    "location": {
      "latitude": 7.697365800000001,
      "longitude": 4.4535124,
      "viewport": {
        "northeast": {
          "lat": 7.698718729892724,
          "lng": 4.454859979892722
        },
        "southwest": {
          "lat": 7.696019070107281,
          "lng": 4.452160320107278
        }
      },
      "formatted_address": "MFW3+WCR, 232101, Ede, Nigeria",
      "google_map_url": "https://maps.google.com?q=7.697365800000001,4.4535124",
      "google_place_id": "ChIJQxWT8L0rOBAR7jOeVi523fo"
    }
  },
  {
    "id": "349281",
    "name": "OPEN SPACE BESIDE WATER RESERVOIR, INARONKU AREA CLOSE TO MID-EXTRA TRAINING INSTITUTE",
    "registration_area_id": "17779",
    "precise_location": null,
    "abbreviation": "012",
    "units": "012",
    "delimitation": "29/08/04/012",
    "remark": "NEW PU",
    "ward_id": "17779",
    "ward_name": "ALAJUE I",
    "local_government_id": "607",
    "local_government_name": "EDE SOUTH",
    "state_id": "29",
    "state_name": "OSUN",
    "location": {
      "latitude": 7.728574399999999,
      "longitude": 4.4368798,
      "viewport": {
        "northeast": {
          "lat": 7.729951729892722,
          "lng": 4.438305829892721
        },
        "southwest": {
          "lat": 7.727252070107278,
          "lng": 4.435606170107278
        }
      },
      "formatted_address": "PCHP+CQC, Federal Polythecnic Road, Ede Abere, Ede, Nigeria",
      "google_map_url": "https://maps.google.com?q=7.728574399999999,4.4368798",
      "google_place_id": "ChIJJTegLmkrOBARGBimG4vl018"
    }
  },
  {
    "id": "349282",
    "name": "OPEN SPACE BESIDE CONVENANT BUILDING ALONG STATION ROAD",
    "registration_area_id": "17779",
    "precise_location": null,
    "abbreviation": "013",
    "units": "013",
    "delimitation": "29/08/04/013",
    "remark": "NEW PU",
    "ward_id": "17779",
    "ward_name": "ALAJUE I",
    "local_government_id": "607",
    "local_government_name": "EDE SOUTH",
    "state_id": "29",
    "state_name": "OSUN",
    "location": {
      "latitude": 7.7144042,
      "longitude": 4.4465983,
      "viewport": {
        "northeast": {
          "lat": 7.715758479892723,
          "lng": 4.447969779892722
        },
        "southwest": {
          "lat": 7.713058820107279,
          "lng": 4.445270120107278
        }
      },
      "formatted_address": "PC7W+QJ9, Ede Station Road, 232101, Ede, Nigeria",
      "google_map_url": "https://maps.google.com?q=7.7144042,4.4465983",
      "google_place_id": "ChIJ9Rofy60rOBAR8RqTwPQ35_s"
    }
  },
  {
    "id": "349283",
    "name": "BAPTIST HIGH SCHOOL( ENGINEER ADEWOLU STREET)",
    "registration_area_id": "17779",
    "precise_location": null,
    "abbreviation": "014",
    "units": "014",
    "delimitation": "29/08/04/014",
    "remark": "NEW PU",
    "ward_id": "17779",
    "ward_name": "ALAJUE I",
    "local_government_id": "607",
    "local_government_name": "EDE SOUTH",
    "state_id": "29",
    "state_name": "OSUN",
    "location": {
      "latitude": 7.720485800000001,
      "longitude": 4.4486831,
      "viewport": {
        "northeast": {
          "lat": 7.721798979892721,
          "lng": 4.450000279892722
        },
        "southwest": {
          "lat": 7.719099320107278,
          "lng": 4.447300620107278
        }
      },
      "formatted_address": "PCCX+5FV, 232101, Ede, Nigeria",
      "google_map_url": "https://maps.google.com?q=7.720485800000001,4.4486831",
      "google_place_id": "ChIJYU3AjFIqOBARzMhvHEzmIdo"
    }
  },
  {
    "id": "349284",
    "name": "AGBONRAN MODEL PRIMARY SCHOOL AJIJOLA AREA(BOLUWATIFE MOSQUE)",
    "registration_area_id": "17779",
    "precise_location": null,
    "abbreviation": "015",
    "units": "015",
    "delimitation": "29/08/04/015",
    "remark": "NEW PU",
    "ward_id": "17779",
    "ward_name": "ALAJUE I",
    "local_government_id": "607",
    "local_government_name": "EDE SOUTH",
    "state_id": "29",
    "state_name": "OSUN",
    "location": {
      "latitude": 7.715132599999999,
      "longitude": 4.438857899999999,
      "viewport": {
        "northeast": {
          "lat": 7.716473979892721,
          "lng": 4.440262079892722
        },
        "southwest": {
          "lat": 7.713774320107277,
          "lng": 4.437562420107279
        }
      },
      "formatted_address": "PC8Q+3G4, Along Awere Road, Ajijola Anobi Area, Ede, Nigeria",
      "google_map_url": "https://maps.google.com?q=7.715132599999999,4.438857899999999",
      "google_place_id": "ChIJAQM1_7krOBARSel8rLRQbz4"
    }
  },
  {
    "id": "349285",
    "name": "OPEN SPACE OPPOSITE ADEBOWALE VOCATIONJAL CENTRE",
    "registration_area_id": "17779",
    "precise_location": null,
    "abbreviation": "016",
    "units": "016",
    "delimitation": "29/08/04/016",
    "remark": "NEW PU",
    "ward_id": "17779",
    "ward_name": "ALAJUE I",
    "local_government_id": "607",
    "local_government_name": "EDE SOUTH",
    "state_id": "29",
    "state_name": "OSUN",
    "location": {
      "latitude": 7.7351456,
      "longitude": 4.4438245,
      "viewport": {
        "northeast": {
          "lat": 7.736530829892723,
          "lng": 4.445188929892722
        },
        "southwest": {
          "lat": 7.733831170107279,
          "lng": 4.442489270107278
        }
      },
      "formatted_address": "NYSC permanent orientation camp, Aisu cottage hospital road, LGA, Ede, Nigeria",
      "google_map_url": "https://maps.google.com?q=7.7351456,4.4438245",
      "google_place_id": "ChIJq6qqql4qOBARsgb760dEJAA"
    }
  },
  {
    "id": "349286",
    "name": "SAWMILL(OPEN SPACE) OPPOSITE TRANSFORMER OGBERIN ROAD",
    "registration_area_id": "17779",
    "precise_location": null,
    "abbreviation": "017",
    "units": "017",
    "delimitation": "29/08/04/017",
    "remark": "NEW PU",
    "ward_id": "17779",
    "ward_name": "ALAJUE I",
    "local_government_id": "607",
    "local_government_name": "EDE SOUTH",
    "state_id": "29",
    "state_name": "OSUN",
    "location": {
      "latitude": 7.760553499999999,
      "longitude": 4.4414449,
      "viewport": {
        "northeast": {
          "lat": 7.761910929892722,
          "lng": 4.442796979892723
        },
        "southwest": {
          "lat": 7.759211270107278,
          "lng": 4.440097320107279
        }
      },
      "formatted_address": "QC6R+6HG, 232104, Ede, Nigeria",
      "google_map_url": "https://maps.google.com?q=7.760553499999999,4.4414449",
      "google_place_id": "ChIJf9jBCn8qOBAR9G2KnFzGUso"
    }
  },
  {
    "id": "349287",
    "name": "OPEN SPACE INFRONT OF SADIA PLAZA/SAWMILL AREA ALHAJI OKUNOLA STREET",
    "registration_area_id": "17779",
    "precise_location": null,
    "abbreviation": "018",
    "units": "018",
    "delimitation": "29/08/04/018",
    "remark": "NEW PU",
    "ward_id": "17779",
    "ward_name": "ALAJUE I",
    "local_government_id": "607",
    "local_government_name": "EDE SOUTH",
    "state_id": "29",
    "state_name": "OSUN",
    "location": {
      "latitude": 7.717088100000001,
      "longitude": 4.4478962,
      "viewport": {
        "northeast": {
          "lat": 7.718447479892722,
          "lng": 4.449245379892722
        },
        "southwest": {
          "lat": 7.715747820107278,
          "lng": 4.446545720107278
        }
      },
      "formatted_address": "PC8X+R5J, Alhaji Okunola Street, 232101, Ede, Nigeria",
      "google_map_url": "https://maps.google.com?q=7.717088100000001,4.4478962",
      "google_place_id": "ChIJvU1amTcrOBARe7BkwgRjL1M"
    }
  },
  {
    "id": "349288",
    "name": "OPEN SPACE AT NEW YAH-SALAM AREA BESIDE TRANSFORMER ALONG AWERE ROAD",
    "registration_area_id": "17779",
    "precise_location": null,
    "abbreviation": "019",
    "units": "019",
    "delimitation": "29/08/04/019",
    "remark": "NEW PU",
    "ward_id": "17779",
    "ward_name": "ALAJUE I",
    "local_government_id": "607",
    "local_government_name": "EDE SOUTH",
    "state_id": "29",
    "state_name": "OSUN",
    "location": {
      "latitude": 43.826434,
      "longitude": -79.0556584,
      "viewport": {
        "northeast": {
          "lat": 43.82782212989272,
          "lng": -79.05432522010729
        },
        "southwest": {
          "lat": 43.82512247010727,
          "lng": -79.05702487989272
        }
      },
      "formatted_address": "1885 Clements Rd, Pickering, ON L1W 3V4, Canada",
      "google_map_url": "https://maps.google.com?q=43.826434,-79.0556584",
      "google_place_id": "ChIJVxc5gFre1IkRxX89IT66zbc"
    }
  },
  {
    "id": "349289",
    "name": "ADVENTIST GRAMMAR SCHOOL EDE",
    "registration_area_id": "17779",
    "precise_location": null,
    "abbreviation": "020",
    "units": "020",
    "delimitation": "29/08/04/020",
    "remark": "NEW PU",
    "ward_id": "17779",
    "ward_name": "ALAJUE I",
    "local_government_id": "607",
    "local_government_name": "EDE SOUTH",
    "state_id": "29",
    "state_name": "OSUN",
    "location": {
      "latitude": 7.715538699999999,
      "longitude": 4.4448025,
      "viewport": {
        "northeast": {
          "lat": 7.71690907989272,
          "lng": 4.446142329892721
        },
        "southwest": {
          "lat": 7.714209420107276,
          "lng": 4.443442670107277
        }
      },
      "formatted_address": "PC8V+6W7, 232101, Ede, Nigeria",
      "google_map_url": "https://maps.google.com?q=7.715538699999999,4.4448025",
      "google_place_id": "ChIJUdVrZKwrOBAREQNMa_lJcCA"
    }
  },
  {
    "id": "349290",
    "name": "OPEN SPACE BY OLORUNSOGO COMMUNITY JUNCTION",
    "registration_area_id": "17779",
    "precise_location": null,
    "abbreviation": "021",
    "units": "021",
    "delimitation": "29/08/04/021",
    "remark": "NEW PU",
    "ward_id": "17779",
    "ward_name": "ALAJUE I",
    "local_government_id": "607",
    "local_government_name": "EDE SOUTH",
    "state_id": "29",
    "state_name": "OSUN",
    "location": {
      "latitude": 7.7377594,
      "longitude": 4.4315156,
      "viewport": {
        "northeast": {
          "lat": 7.739144779892722,
          "lng": 4.43286332989272
        },
        "southwest": {
          "lat": 7.736445120107278,
          "lng": 4.430163670107277
        }
      },
      "formatted_address": "16 Popo Street, Federal, Poly Road, 232101, Ede, Nigeria",
      "google_map_url": "https://maps.google.com?q=7.7377594,4.4315156",
      "google_place_id": "ChIJZ8eo-ckrOBARK48h7en1NaU"
    }
  },
  {
    "id": "349291",
    "name": "OPEN SPACE BY TRANSFORMER ILE AANU STREET, EDEDIMEJI CLOSE TO REDEEMED SCHOOL OF MISSIONS",
    "registration_area_id": "17779",
    "precise_location": null,
    "abbreviation": "022",
    "units": "022",
    "delimitation": "29/08/04/022",
    "remark": "NEW PU",
    "ward_id": "17779",
    "ward_name": "ALAJUE I",
    "local_government_id": "607",
    "local_government_name": "EDE SOUTH",
    "state_id": "29",
    "state_name": "OSUN",
    "location": {
      "latitude": 43.4528152,
      "longitude": -80.4889747,
      "viewport": {
        "northeast": {
          "lat": 43.45412667989272,
          "lng": -80.48765572010727
        },
        "southwest": {
          "lat": 43.45142702010727,
          "lng": -80.49035537989272
        }
      },
      "formatted_address": "32 Weber St W, Kitchener, ON N2H 3Z2, Canada",
      "google_map_url": "https://maps.google.com?q=43.4528152,-80.4889747",
      "google_place_id": "ChIJbdIrdRD0K4gR7SfxWYs6beQ"
    }
  }
]