[
  {
    "id": "60842",
    "name": "GOJE, KOFAR GOJE",
    "registration_area_id": "3294",
    "precise_location": null,
    "abbreviation": "001",
    "units": "001",
    "delimitation": "15/06/08/001",
    "remark": "EXISTING PU",
    "ward_id": "3294",
    "ward_name": "KUMBIYA - KUMBIYA",
    "local_government_id": "287",
    "local_government_name": "GOMBE",
    "state_id": "15",
    "state_name": "GOMBE",
    "location": {
      "latitude": 10.3042948,
      "longitude": 11.172793,
      "viewport": {
        "northeast": {
          "lat": 10.30544982989272,
          "lng": 11.17432297989272
        },
        "southwest": {
          "lat": 10.30275017010728,
          "lng": 11.17162332010728
        }
      },
      "formatted_address": "853F+P47 Gombe State University, 760253, Gombe, Nigeria",
      "google_map_url": "https://maps.google.com?q=10.3042948,11.172793",
      "google_place_id": "ChIJZdb3_JDQ_xAR2teAtUSwrNU"
    }
  },
  {
    "id": "60843",
    "name": "ALH. YAKUBU, HASSAN PRI. SCH.",
    "registration_area_id": "3294",
    "precise_location": null,
    "abbreviation": "002",
    "units": "002",
    "delimitation": "15/06/08/002",
    "remark": "EXISTING PU",
    "ward_id": "3294",
    "ward_name": "KUMBIYA - KUMBIYA",
    "local_government_id": "287",
    "local_government_name": "GOMBE",
    "state_id": "15",
    "state_name": "GOMBE",
    "location": {
      "latitude": 10.2870451,
      "longitude": 11.1682952,
      "viewport": {
        "northeast": {
          "lat": 10.28815572989272,
          "lng": 11.16956342989272
        },
        "southwest": {
          "lat": 10.28545607010728,
          "lng": 11.16686377010728
        }
      },
      "formatted_address": "75P9+R87, 760252, Gombe, Nigeria",
      "google_map_url": "https://maps.google.com?q=10.2870451,11.1682952",
      "google_place_id": "ChIJ4x75MHzQ_xARMIwwY0y2hS8"
    }
  },
  {
    "id": "60844",
    "name": "HASSAN PRI. SCH., HASSAN PRI. SCH.",
    "registration_area_id": "3294",
    "precise_location": null,
    "abbreviation": "003",
    "units": "003",
    "delimitation": "15/06/08/003",
    "remark": "EXISTING PU",
    "ward_id": "3294",
    "ward_name": "KUMBIYA - KUMBIYA",
    "local_government_id": "287",
    "local_government_name": "GOMBE",
    "state_id": "15",
    "state_name": "GOMBE",
    "location": {
      "latitude": 10.2870451,
      "longitude": 11.1682952,
      "viewport": {
        "northeast": {
          "lat": 10.28815572989272,
          "lng": 11.16956342989272
        },
        "southwest": {
          "lat": 10.28545607010728,
          "lng": 11.16686377010728
        }
      },
      "formatted_address": "75P9+R87, 760252, Gombe, Nigeria",
      "google_map_url": "https://maps.google.com?q=10.2870451,11.1682952",
      "google_place_id": "ChIJ4x75MHzQ_xARMIwwY0y2hS8"
    }
  },
  {
    "id": "60845",
    "name": "ALH. YAKUBU, HASSAN PRI. SCH.",
    "registration_area_id": "3294",
    "precise_location": null,
    "abbreviation": "004",
    "units": "004",
    "delimitation": "15/06/08/004",
    "remark": "EXISTING PU",
    "ward_id": "3294",
    "ward_name": "KUMBIYA - KUMBIYA",
    "local_government_id": "287",
    "local_government_name": "GOMBE",
    "state_id": "15",
    "state_name": "GOMBE",
    "location": {
      "latitude": 10.2870451,
      "longitude": 11.1682952,
      "viewport": {
        "northeast": {
          "lat": 10.28815572989272,
          "lng": 11.16956342989272
        },
        "southwest": {
          "lat": 10.28545607010728,
          "lng": 11.16686377010728
        }
      },
      "formatted_address": "75P9+R87, 760252, Gombe, Nigeria",
      "google_map_url": "https://maps.google.com?q=10.2870451,11.1682952",
      "google_place_id": "ChIJ4x75MHzQ_xARMIwwY0y2hS8"
    }
  },
  {
    "id": "60846",
    "name": "SARKIN DOKA, KOFAR S. DOKA",
    "registration_area_id": "3294",
    "precise_location": null,
    "abbreviation": "005",
    "units": "005",
    "delimitation": "15/06/08/005",
    "remark": "EXISTING PU",
    "ward_id": "3294",
    "ward_name": "KUMBIYA - KUMBIYA",
    "local_government_id": "287",
    "local_government_name": "GOMBE",
    "state_id": "15",
    "state_name": "GOMBE",
    "location": {
      "latitude": 8.480341200000002,
      "longitude": 10.7221161,
      "viewport": {
        "northeast": {
          "lat": 8.481869,
          "lng": 10.723546
        },
        "southwest": {
          "lat": 8.478534999999999,
          "lng": 10.720213
        }
      },
      "formatted_address": "672002, Gombe Doka, Nigeria",
      "google_map_url": "https://maps.google.com?q=8.480341200000002,10.7221161",
      "google_place_id": "ChIJgyKkbZCE-BAR-vhMD6fYPuE"
    }
  },
  {
    "id": "60847",
    "name": "AUDU BOJUDE  I, KOFAR  A. BOJUDE",
    "registration_area_id": "3294",
    "precise_location": null,
    "abbreviation": "006",
    "units": "006",
    "delimitation": "15/06/08/006",
    "remark": "EXISTING PU",
    "ward_id": "3294",
    "ward_name": "KUMBIYA - KUMBIYA",
    "local_government_id": "287",
    "local_government_name": "GOMBE",
    "state_id": "15",
    "state_name": "GOMBE",
    "location": {
      "latitude": 10.3318632,
      "longitude": 11.1315047,
      "viewport": {
        "northeast": {
          "lat": 10.3342977,
          "lng": 11.13253742989272
        },
        "southwest": {
          "lat": 10.3310517,
          "lng": 11.12983777010728
        }
      },
      "formatted_address": "Police station, Gombe, Dukku Road, near Bojude, Bojude, Nigeria",
      "google_map_url": "https://maps.google.com?q=10.3318632,11.1315047",
      "google_place_id": "ChIJDxVKwLDb_xAR_5X9Z4vtTT0"
    }
  },
  {
    "id": "60848",
    "name": "AUDU BOJUDE  II, KOFAR  A. BOJUDE",
    "registration_area_id": "3294",
    "precise_location": null,
    "abbreviation": "007",
    "units": "007",
    "delimitation": "15/06/08/007",
    "remark": "EXISTING PU",
    "ward_id": "3294",
    "ward_name": "KUMBIYA - KUMBIYA",
    "local_government_id": "287",
    "local_government_name": "GOMBE",
    "state_id": "15",
    "state_name": "GOMBE",
    "location": {
      "latitude": 10.3318632,
      "longitude": 11.1315047,
      "viewport": {
        "northeast": {
          "lat": 10.3342977,
          "lng": 11.13253742989272
        },
        "southwest": {
          "lat": 10.3310517,
          "lng": 11.12983777010728
        }
      },
      "formatted_address": "Police station, Gombe, Dukku Road, near Bojude, Bojude, Nigeria",
      "google_map_url": "https://maps.google.com?q=10.3318632,11.1315047",
      "google_place_id": "ChIJDxVKwLDb_xAR_5X9Z4vtTT0"
    }
  },
  {
    "id": "60849",
    "name": "NEPA OFFICE, K. NEPA OFFICE",
    "registration_area_id": "3294",
    "precise_location": null,
    "abbreviation": "008",
    "units": "008",
    "delimitation": "15/06/08/008",
    "remark": "EXISTING PU",
    "ward_id": "3294",
    "ward_name": "KUMBIYA - KUMBIYA",
    "local_government_id": "287",
    "local_government_name": "GOMBE",
    "state_id": "15",
    "state_name": "GOMBE",
    "location": {
      "latitude": 10.2855558,
      "longitude": 11.1662351,
      "viewport": {
        "northeast": {
          "lat": 10.28692202989272,
          "lng": 11.16752312989272
        },
        "southwest": {
          "lat": 10.28422237010728,
          "lng": 11.16482347010728
        }
      },
      "formatted_address": "75P8+6FH, 760252, Gombe, Nigeria",
      "google_map_url": "https://maps.google.com?q=10.2855558,11.1662351",
      "google_place_id": "ChIJucpgt37Q_xARKkxwgmnJsq0"
    }
  },
  {
    "id": "60850",
    "name": "ISHIYAKU, K.  NEPA OFFICE",
    "registration_area_id": "3294",
    "precise_location": null,
    "abbreviation": "009",
    "units": "009",
    "delimitation": "15/06/08/009",
    "remark": "EXISTING PU",
    "ward_id": "3294",
    "ward_name": "KUMBIYA - KUMBIYA",
    "local_government_id": "287",
    "local_government_name": "GOMBE",
    "state_id": "15",
    "state_name": "GOMBE",
    "location": {
      "latitude": 10.2855558,
      "longitude": 11.1662351,
      "viewport": {
        "northeast": {
          "lat": 10.28692202989272,
          "lng": 11.16752312989272
        },
        "southwest": {
          "lat": 10.28422237010728,
          "lng": 11.16482347010728
        }
      },
      "formatted_address": "75P8+6FH, 760252, Gombe, Nigeria",
      "google_map_url": "https://maps.google.com?q=10.2855558,11.1662351",
      "google_place_id": "ChIJucpgt37Q_xARKkxwgmnJsq0"
    }
  },
  {
    "id": "60851",
    "name": "CHIROMA, KOFAR  CHIROMA",
    "registration_area_id": "3294",
    "precise_location": null,
    "abbreviation": "010",
    "units": "010",
    "delimitation": "15/06/08/010",
    "remark": "EXISTING PU",
    "ward_id": "3294",
    "ward_name": "KUMBIYA - KUMBIYA",
    "local_government_id": "287",
    "local_government_name": "GOMBE",
    "state_id": "15",
    "state_name": "GOMBE",
    "location": {
      "latitude": 10.2841456,
      "longitude": 11.1681063,
      "viewport": {
        "northeast": {
          "lat": 10.2885539,
          "lng": 11.171732
        },
        "southwest": {
          "lat": 10.2814016,
          "lng": 11.1650541
        }
      },
      "formatted_address": "Kumbiya-Kumbiya, Gombe, Nigeria",
      "google_map_url": "https://maps.google.com?q=10.2841456,11.1681063",
      "google_place_id": "ChIJu6ueCXzQ_xARWHPaA6hf7wU"
    }
  },
  {
    "id": "60852",
    "name": "ADAMU MASINJA, KOFAR A. MASINJA",
    "registration_area_id": "3294",
    "precise_location": null,
    "abbreviation": "011",
    "units": "011",
    "delimitation": "15/06/08/011",
    "remark": "EXISTING PU",
    "ward_id": "3294",
    "ward_name": "KUMBIYA - KUMBIYA",
    "local_government_id": "287",
    "local_government_name": "GOMBE",
    "state_id": "15",
    "state_name": "GOMBE",
    "location": {
      "latitude": 10.2841456,
      "longitude": 11.1681063,
      "viewport": {
        "northeast": {
          "lat": 10.2885539,
          "lng": 11.171732
        },
        "southwest": {
          "lat": 10.2814016,
          "lng": 11.1650541
        }
      },
      "formatted_address": "Kumbiya-Kumbiya, Gombe, Nigeria",
      "google_map_url": "https://maps.google.com?q=10.2841456,11.1681063",
      "google_place_id": "ChIJu6ueCXzQ_xARWHPaA6hf7wU"
    }
  },
  {
    "id": "60853",
    "name": "UMARU MABUGA, K. U. MABUGA",
    "registration_area_id": "3294",
    "precise_location": null,
    "abbreviation": "012",
    "units": "012",
    "delimitation": "15/06/08/012",
    "remark": "EXISTING PU",
    "ward_id": "3294",
    "ward_name": "KUMBIYA - KUMBIYA",
    "local_government_id": "287",
    "local_government_name": "GOMBE",
    "state_id": "15",
    "state_name": "GOMBE",
    "location": {
      "latitude": 10.2841456,
      "longitude": 11.1681063,
      "viewport": {
        "northeast": {
          "lat": 10.2885539,
          "lng": 11.171732
        },
        "southwest": {
          "lat": 10.2814016,
          "lng": 11.1650541
        }
      },
      "formatted_address": "Kumbiya-Kumbiya, Gombe, Nigeria",
      "google_map_url": "https://maps.google.com?q=10.2841456,11.1681063",
      "google_place_id": "ChIJu6ueCXzQ_xARWHPaA6hf7wU"
    }
  },
  {
    "id": "60854",
    "name": "MAI  GISHIRI, KOFAR MAI GISHIRI",
    "registration_area_id": "3294",
    "precise_location": null,
    "abbreviation": "013",
    "units": "013",
    "delimitation": "15/06/08/013",
    "remark": "EXISTING PU",
    "ward_id": "3294",
    "ward_name": "KUMBIYA - KUMBIYA",
    "local_government_id": "287",
    "local_government_name": "GOMBE",
    "state_id": "15",
    "state_name": "GOMBE",
    "location": {
      "latitude": 9.9900722,
      "longitude": 11.153142,
      "viewport": {
        "northeast": {
          "lat": 9.991484479892723,
          "lng": 11.15465512989272
        },
        "southwest": {
          "lat": 9.988784820107279,
          "lng": 11.15195547010728
        }
      },
      "formatted_address": "X5R3+27C, 771102, Gombe, Nigeria",
      "google_map_url": "https://maps.google.com?q=9.9900722,11.153142",
      "google_place_id": "ChIJeeCeVPq5_xAR3uyiuoz3pp4"
    }
  },
  {
    "id": "60855",
    "name": "MIJINYAWA, ADULT EDUCATION",
    "registration_area_id": "3294",
    "precise_location": null,
    "abbreviation": "014",
    "units": "014",
    "delimitation": "15/06/08/014",
    "remark": "EXISTING PU",
    "ward_id": "3294",
    "ward_name": "KUMBIYA - KUMBIYA",
    "local_government_id": "287",
    "local_government_name": "GOMBE",
    "state_id": "15",
    "state_name": "GOMBE",
    "location": {
      "latitude": 43.4528649,
      "longitude": -80.49166509999999,
      "viewport": {
        "northeast": {
          "lat": 43.45447617989272,
          "lng": -80.4902547
        },
        "southwest": {
          "lat": 43.45177652010728,
          "lng": -80.4932355
        }
      },
      "formatted_address": "80 Young St, Kitchener, ON N2H 4Z1, Canada",
      "google_map_url": "https://maps.google.com?q=43.4528649,-80.49166509999999",
      "google_place_id": "ChIJnzkY1oz0K4gR79qSm9XVd5s"
    }
  },
  {
    "id": "60856",
    "name": "GOJE, KOFAR GOJE II",
    "registration_area_id": "3294",
    "precise_location": null,
    "abbreviation": "015",
    "units": "015",
    "delimitation": "15/06/08/015",
    "remark": "NEW PU",
    "ward_id": "3294",
    "ward_name": "KUMBIYA - KUMBIYA",
    "local_government_id": "287",
    "local_government_name": "GOMBE",
    "state_id": "15",
    "state_name": "GOMBE",
    "location": {
      "latitude": 10.3042948,
      "longitude": 11.172793,
      "viewport": {
        "northeast": {
          "lat": 10.30544982989272,
          "lng": 11.17432297989272
        },
        "southwest": {
          "lat": 10.30275017010728,
          "lng": 11.17162332010728
        }
      },
      "formatted_address": "853F+P47 Gombe State University, 760253, Gombe, Nigeria",
      "google_map_url": "https://maps.google.com?q=10.3042948,11.172793",
      "google_place_id": "ChIJZdb3_JDQ_xAR2teAtUSwrNU"
    }
  },
  {
    "id": "60857",
    "name": "HASSAN PRI. SCH II",
    "registration_area_id": "3294",
    "precise_location": null,
    "abbreviation": "016",
    "units": "016",
    "delimitation": "15/06/08/016",
    "remark": "NEW PU",
    "ward_id": "3294",
    "ward_name": "KUMBIYA - KUMBIYA",
    "local_government_id": "287",
    "local_government_name": "GOMBE",
    "state_id": "15",
    "state_name": "GOMBE",
    "location": {
      "latitude": 10.2870451,
      "longitude": 11.1682952,
      "viewport": {
        "northeast": {
          "lat": 10.28815572989272,
          "lng": 11.16956342989272
        },
        "southwest": {
          "lat": 10.28545607010728,
          "lng": 11.16686377010728
        }
      },
      "formatted_address": "75P9+R87, 760252, Gombe, Nigeria",
      "google_map_url": "https://maps.google.com?q=10.2870451,11.1682952",
      "google_place_id": "ChIJ4x75MHzQ_xARMIwwY0y2hS8"
    }
  },
  {
    "id": "60858",
    "name": "KOFAR ALH. YAKUBU",
    "registration_area_id": "3294",
    "precise_location": null,
    "abbreviation": "017",
    "units": "017",
    "delimitation": "15/06/08/017",
    "remark": "NEW PU",
    "ward_id": "3294",
    "ward_name": "KUMBIYA - KUMBIYA",
    "local_government_id": "287",
    "local_government_name": "GOMBE",
    "state_id": "15",
    "state_name": "GOMBE",
    "location": {
      "latitude": 10.2841456,
      "longitude": 11.1681063,
      "viewport": {
        "northeast": {
          "lat": 10.2885539,
          "lng": 11.171732
        },
        "southwest": {
          "lat": 10.2814016,
          "lng": 11.1650541
        }
      },
      "formatted_address": "Kumbiya-Kumbiya, Gombe, Nigeria",
      "google_map_url": "https://maps.google.com?q=10.2841456,11.1681063",
      "google_place_id": "ChIJu6ueCXzQ_xARWHPaA6hf7wU"
    }
  },
  {
    "id": "60859",
    "name": "SARKIN DOKA II",
    "registration_area_id": "3294",
    "precise_location": null,
    "abbreviation": "018",
    "units": "018",
    "delimitation": "15/06/08/018",
    "remark": "NEW PU",
    "ward_id": "3294",
    "ward_name": "KUMBIYA - KUMBIYA",
    "local_government_id": "287",
    "local_government_name": "GOMBE",
    "state_id": "15",
    "state_name": "GOMBE",
    "location": {
      "latitude": 10.2841456,
      "longitude": 11.1681063,
      "viewport": {
        "northeast": {
          "lat": 10.2885539,
          "lng": 11.171732
        },
        "southwest": {
          "lat": 10.2814016,
          "lng": 11.1650541
        }
      },
      "formatted_address": "Kumbiya-Kumbiya, Gombe, Nigeria",
      "google_map_url": "https://maps.google.com?q=10.2841456,11.1681063",
      "google_place_id": "ChIJu6ueCXzQ_xARWHPaA6hf7wU"
    }
  },
  {
    "id": "60860",
    "name": "NEW STATE LODGE",
    "registration_area_id": "3294",
    "precise_location": null,
    "abbreviation": "019",
    "units": "019",
    "delimitation": "15/06/08/019",
    "remark": "NEW PU",
    "ward_id": "3294",
    "ward_name": "KUMBIYA - KUMBIYA",
    "local_government_id": "287",
    "local_government_name": "GOMBE",
    "state_id": "15",
    "state_name": "GOMBE",
    "location": {
      "latitude": 10.2834519,
      "longitude": 11.1732867,
      "viewport": {
        "northeast": {
          "lat": 10.28473317989272,
          "lng": 11.17458917989272
        },
        "southwest": {
          "lat": 10.28203352010728,
          "lng": 11.17188952010728
        }
      },
      "formatted_address": "75MF+98F, Sabo Lane, 760251, Gombe, Nigeria",
      "google_map_url": "https://maps.google.com?q=10.2834519,11.1732867",
      "google_place_id": "ChIJudEsPnzR_xARARhX3c2NM7M"
    }
  },
  {
    "id": "60861",
    "name": "AUDU BOJUDE OPEN SPACE",
    "registration_area_id": "3294",
    "precise_location": null,
    "abbreviation": "020",
    "units": "020",
    "delimitation": "15/06/08/020",
    "remark": "NEW PU",
    "ward_id": "3294",
    "ward_name": "KUMBIYA - KUMBIYA",
    "local_government_id": "287",
    "local_government_name": "GOMBE",
    "state_id": "15",
    "state_name": "GOMBE",
    "location": {
      "latitude": 10.3318632,
      "longitude": 11.1315047,
      "viewport": {
        "northeast": {
          "lat": 10.3342977,
          "lng": 11.13253742989272
        },
        "southwest": {
          "lat": 10.3310517,
          "lng": 11.12983777010728
        }
      },
      "formatted_address": "Police station, Gombe, Dukku Road, near Bojude, Bojude, Nigeria",
      "google_map_url": "https://maps.google.com?q=10.3318632,11.1315047",
      "google_place_id": "ChIJDxVKwLDb_xAR_5X9Z4vtTT0"
    }
  },
  {
    "id": "60862",
    "name": "NEPA OFFICE II",
    "registration_area_id": "3294",
    "precise_location": null,
    "abbreviation": "021",
    "units": "021",
    "delimitation": "15/06/08/021",
    "remark": "NEW PU",
    "ward_id": "3294",
    "ward_name": "KUMBIYA - KUMBIYA",
    "local_government_id": "287",
    "local_government_name": "GOMBE",
    "state_id": "15",
    "state_name": "GOMBE",
    "location": {
      "latitude": 10.2855558,
      "longitude": 11.1662351,
      "viewport": {
        "northeast": {
          "lat": 10.28692202989272,
          "lng": 11.16752312989272
        },
        "southwest": {
          "lat": 10.28422237010728,
          "lng": 11.16482347010728
        }
      },
      "formatted_address": "75P8+6FH, 760252, Gombe, Nigeria",
      "google_map_url": "https://maps.google.com?q=10.2855558,11.1662351",
      "google_place_id": "ChIJucpgt37Q_xARKkxwgmnJsq0"
    }
  },
  {
    "id": "60863",
    "name": "OPEN SPACE BLACK TANK",
    "registration_area_id": "3294",
    "precise_location": null,
    "abbreviation": "022",
    "units": "022",
    "delimitation": "15/06/08/022",
    "remark": "NEW PU",
    "ward_id": "3294",
    "ward_name": "KUMBIYA - KUMBIYA",
    "local_government_id": "287",
    "local_government_name": "GOMBE",
    "state_id": "15",
    "state_name": "GOMBE",
    "location": {
      "latitude": 10.2841456,
      "longitude": 11.1681063,
      "viewport": {
        "northeast": {
          "lat": 10.2885539,
          "lng": 11.171732
        },
        "southwest": {
          "lat": 10.2814016,
          "lng": 11.1650541
        }
      },
      "formatted_address": "Kumbiya-Kumbiya, Gombe, Nigeria",
      "google_map_url": "https://maps.google.com?q=10.2841456,11.1681063",
      "google_place_id": "ChIJu6ueCXzQ_xARWHPaA6hf7wU"
    }
  },
  {
    "id": "60864",
    "name": "ADAMU MASINGA MATERNITY",
    "registration_area_id": "3294",
    "precise_location": null,
    "abbreviation": "023",
    "units": "023",
    "delimitation": "15/06/08/023",
    "remark": "NEW PU",
    "ward_id": "3294",
    "ward_name": "KUMBIYA - KUMBIYA",
    "local_government_id": "287",
    "local_government_name": "GOMBE",
    "state_id": "15",
    "state_name": "GOMBE",
    "location": {
      "latitude": 10.2881812,
      "longitude": 11.1578205,
      "viewport": {
        "northeast": {
          "lat": 10.28933447989272,
          "lng": 11.15931592989272
        },
        "southwest": {
          "lat": 10.28663482010728,
          "lng": 11.15661627010728
        }
      },
      "formatted_address": "75Q5+74G, 760252, Gombe, Nigeria",
      "google_map_url": "https://maps.google.com?q=10.2881812,11.1578205",
      "google_place_id": "ChIJPTmD9IDa_xARge-2jt86AoE"
    }
  },
  {
    "id": "60865",
    "name": "SALE GANI GANI, K/ SALE GANI GANI",
    "registration_area_id": "3294",
    "precise_location": null,
    "abbreviation": "024",
    "units": "024",
    "delimitation": "15/06/08/024",
    "remark": "NEW PU",
    "ward_id": "3294",
    "ward_name": "KUMBIYA - KUMBIYA",
    "local_government_id": "287",
    "local_government_name": "GOMBE",
    "state_id": "15",
    "state_name": "GOMBE",
    "location": null
  },
  {
    "id": "60866",
    "name": "KOFAR MAI KISHIRI MATERNITY",
    "registration_area_id": "3294",
    "precise_location": null,
    "abbreviation": "025",
    "units": "025",
    "delimitation": "15/06/08/025",
    "remark": "NEW PU",
    "ward_id": "3294",
    "ward_name": "KUMBIYA - KUMBIYA",
    "local_government_id": "287",
    "local_government_name": "GOMBE",
    "state_id": "15",
    "state_name": "GOMBE",
    "location": {
      "latitude": 10.2655383,
      "longitude": 11.1834067,
      "viewport": {
        "northeast": {
          "lat": 10.26691552989272,
          "lng": 11.18475197989272
        },
        "southwest": {
          "lat": 10.26421587010728,
          "lng": 11.18205232010728
        }
      },
      "formatted_address": "758M+697, 771104, Gombe, Nigeria",
      "google_map_url": "https://maps.google.com?q=10.2655383,11.1834067",
      "google_place_id": "ChIJoQj-cRXQ_xARBT8_9nYWRo4"
    }
  }
]