[
  {
    "id": "342168",
    "name": "MUSHIN MARKET SQUARE",
    "registration_area_id": "17353",
    "precise_location": null,
    "abbreviation": "001",
    "units": "001",
    "delimitation": "27/08/02/001",
    "remark": "EXISTING PU",
    "ward_id": "17353",
    "ward_name": "IJEBU MUSHIN  II",
    "local_government_id": "569",
    "local_government_name": "IJEBU EAST",
    "state_id": "27",
    "state_name": "OGUN",
    "location": {
      "latitude": 6.7972747,
      "longitude": 3.991267299999999,
      "viewport": {
        "northeast": {
          "lat": 6.798614929892722,
          "lng": 3.992604879892722
        },
        "southwest": {
          "lat": 6.795915270107278,
          "lng": 3.989905220107278
        }
      },
      "formatted_address": "Oke Oja, Ijebu Imushin, Nigeria",
      "google_map_url": "https://maps.google.com?q=6.7972747,3.991267299999999",
      "google_place_id": "ChIJQSL8Jt5rORARvmYIfAsYpCY"
    }
  },
  {
    "id": "342169",
    "name": "ST. MARY'S PRY OKEPO I",
    "registration_area_id": "17353",
    "precise_location": null,
    "abbreviation": "002",
    "units": "002",
    "delimitation": "27/08/02/002",
    "remark": "EXISTING PU",
    "ward_id": "17353",
    "ward_name": "IJEBU MUSHIN  II",
    "local_government_id": "569",
    "local_government_name": "IJEBU EAST",
    "state_id": "27",
    "state_name": "OGUN",
    "location": {
      "latitude": 6.798561299999999,
      "longitude": 3.9879784,
      "viewport": {
        "northeast": {
          "lat": 6.799931229892722,
          "lng": 3.989276629892722
        },
        "southwest": {
          "lat": 6.797231570107278,
          "lng": 3.986576970107278
        }
      },
      "formatted_address": "QXXQ+C66, Okepo Onilaton 122103, Ijebu Imushin, Nigeria",
      "google_map_url": "https://maps.google.com?q=6.798561299999999,3.9879784",
      "google_place_id": "ChIJgXwvH-BrORARw0qolghg5Yc"
    }
  },
  {
    "id": "342170",
    "name": "ST. MARY'S PRY OKEPO  II",
    "registration_area_id": "17353",
    "precise_location": null,
    "abbreviation": "003",
    "units": "003",
    "delimitation": "27/08/02/003",
    "remark": "EXISTING PU",
    "ward_id": "17353",
    "ward_name": "IJEBU MUSHIN  II",
    "local_government_id": "569",
    "local_government_name": "IJEBU EAST",
    "state_id": "27",
    "state_name": "OGUN",
    "location": {
      "latitude": 6.798561299999999,
      "longitude": 3.9879784,
      "viewport": {
        "northeast": {
          "lat": 6.799931229892722,
          "lng": 3.989276629892722
        },
        "southwest": {
          "lat": 6.797231570107278,
          "lng": 3.986576970107278
        }
      },
      "formatted_address": "QXXQ+C66, Okepo Onilaton 122103, Ijebu Imushin, Nigeria",
      "google_map_url": "https://maps.google.com?q=6.798561299999999,3.9879784",
      "google_place_id": "ChIJgXwvH-BrORARw0qolghg5Yc"
    }
  },
  {
    "id": "342171",
    "name": "L.G. SCHOOL, KOKUNESERE",
    "registration_area_id": "17353",
    "precise_location": null,
    "abbreviation": "004",
    "units": "004",
    "delimitation": "27/08/02/004",
    "remark": "EXISTING PU",
    "ward_id": "17353",
    "ward_name": "IJEBU MUSHIN  II",
    "local_government_id": "569",
    "local_government_name": "IJEBU EAST",
    "state_id": "27",
    "state_name": "OGUN",
    "location": {
      "latitude": 6.770570999999999,
      "longitude": 4.054282,
      "viewport": {
        "northeast": {
          "lat": 6.771935729892721,
          "lng": 4.055581979892723
        },
        "southwest": {
          "lat": 6.769236070107277,
          "lng": 4.052882320107279
        }
      },
      "formatted_address": "6FR6Q3C3+6PF, 122101, Ijebu Itele, Nigeria",
      "google_map_url": "https://maps.google.com?q=6.770570999999999,4.054282",
      "google_place_id": "ChIJ_____9NqORARjKZfnrDfp5c"
    }
  },
  {
    "id": "342172",
    "name": "NEAR HEALTH CENTRE ILODO",
    "registration_area_id": "17353",
    "precise_location": null,
    "abbreviation": "005",
    "units": "005",
    "delimitation": "27/08/02/005",
    "remark": "EXISTING PU",
    "ward_id": "17353",
    "ward_name": "IJEBU MUSHIN  II",
    "local_government_id": "569",
    "local_government_name": "IJEBU EAST",
    "state_id": "27",
    "state_name": "OGUN",
    "location": {
      "latitude": 6.820161,
      "longitude": 4.006104,
      "viewport": {
        "northeast": {
          "lat": 6.821475029892722,
          "lng": 4.007419929892722
        },
        "southwest": {
          "lat": 6.818775370107278,
          "lng": 4.004720270107278
        }
      },
      "formatted_address": "R2C4+3C9, 122103, Ijebu Ife, Nigeria",
      "google_map_url": "https://maps.google.com?q=6.820161,4.006104",
      "google_place_id": "ChIJawLC8wpsORARSxwiVlAtjck"
    }
  },
  {
    "id": "342173",
    "name": "AJEBO UNITED PRY. SCH. IKALA  -  006",
    "registration_area_id": "17353",
    "precise_location": null,
    "abbreviation": "006",
    "units": "006",
    "delimitation": "27/08/02/006",
    "remark": "EXISTING PU",
    "ward_id": "17353",
    "ward_name": "IJEBU MUSHIN  II",
    "local_government_id": "569",
    "local_government_name": "IJEBU EAST",
    "state_id": "27",
    "state_name": "OGUN",
    "location": null
  },
  {
    "id": "342174",
    "name": "OPEN SPACE INFORNT OF JEJENIWA'S HOUSE",
    "registration_area_id": "17353",
    "precise_location": null,
    "abbreviation": "007",
    "units": "007",
    "delimitation": "27/08/02/007",
    "remark": "EXISTING PU",
    "ward_id": "17353",
    "ward_name": "IJEBU MUSHIN  II",
    "local_government_id": "569",
    "local_government_name": "IJEBU EAST",
    "state_id": "27",
    "state_name": "OGUN",
    "location": {
      "latitude": 6.815894399999999,
      "longitude": 3.9139492,
      "viewport": {
        "northeast": {
          "lat": 6.817239729892722,
          "lng": 3.915314779892721
        },
        "southwest": {
          "lat": 6.814540070107278,
          "lng": 3.912615120107278
        }
      },
      "formatted_address": "RW87+9H4, 120101, Ijebu Ode, Nigeria",
      "google_map_url": "https://maps.google.com?q=6.815894399999999,3.9139492",
      "google_place_id": "ChIJFYS3sq1oORARdJ4W92Rmq8E"
    }
  },
  {
    "id": "342175",
    "name": "TOJORO JUNCTION",
    "registration_area_id": "17353",
    "precise_location": null,
    "abbreviation": "008",
    "units": "008",
    "delimitation": "27/08/02/008",
    "remark": "EXISTING PU",
    "ward_id": "17353",
    "ward_name": "IJEBU MUSHIN  II",
    "local_government_id": "569",
    "local_government_name": "IJEBU EAST",
    "state_id": "27",
    "state_name": "OGUN",
    "location": {
      "latitude": 6.813234,
      "longitude": 4.003152099999999,
      "viewport": {
        "northeast": {
          "lat": 6.8297646,
          "lng": 4.0304682
        },
        "southwest": {
          "lat": 6.789577299999999,
          "lng": 3.9748134
        }
      },
      "formatted_address": "Ijebu Mushin II, 122103, Nigeria",
      "google_map_url": "https://maps.google.com?q=6.813234,4.003152099999999",
      "google_place_id": "ChIJxW1bjvFrORARGjWZFWg46HA"
    }
  },
  {
    "id": "342176",
    "name": "ST. MARY'S SCH. EXTENSION",
    "registration_area_id": "17353",
    "precise_location": null,
    "abbreviation": "009",
    "units": "009",
    "delimitation": "27/08/02/009",
    "remark": "EXISTING PU",
    "ward_id": "17353",
    "ward_name": "IJEBU MUSHIN  II",
    "local_government_id": "569",
    "local_government_name": "IJEBU EAST",
    "state_id": "27",
    "state_name": "OGUN",
    "location": {
      "latitude": 6.798561299999999,
      "longitude": 3.9879784,
      "viewport": {
        "northeast": {
          "lat": 6.799931229892722,
          "lng": 3.989276629892722
        },
        "southwest": {
          "lat": 6.797231570107278,
          "lng": 3.986576970107278
        }
      },
      "formatted_address": "QXXQ+C66, Okepo Onilaton 122103, Ijebu Imushin, Nigeria",
      "google_map_url": "https://maps.google.com?q=6.798561299999999,3.9879784",
      "google_place_id": "ChIJgXwvH-BrORARw0qolghg5Yc"
    }
  },
  {
    "id": "342177",
    "name": "IDOKUNUSI CENTRE",
    "registration_area_id": "17353",
    "precise_location": null,
    "abbreviation": "010",
    "units": "010",
    "delimitation": "27/08/02/010",
    "remark": "EXISTING PU",
    "ward_id": "17353",
    "ward_name": "IJEBU MUSHIN  II",
    "local_government_id": "569",
    "local_government_name": "IJEBU EAST",
    "state_id": "27",
    "state_name": "OGUN",
    "location": {
      "latitude": 6.7945329,
      "longitude": 3.9908539,
      "viewport": {
        "northeast": {
          "lat": 6.795869429892721,
          "lng": 3.992190179892722
        },
        "southwest": {
          "lat": 6.793169770107277,
          "lng": 3.989490520107279
        }
      },
      "formatted_address": "122103, Ijebu Imushin, Nigeria",
      "google_map_url": "https://maps.google.com?q=6.7945329,3.9908539",
      "google_place_id": "ChIJRShx-N5rORARBGHLH_zRdAM"
    }
  },
  {
    "id": "342178",
    "name": "FRONTAGE OF ADESANYA'S HOUSE ILAGUNJO",
    "registration_area_id": "17353",
    "precise_location": null,
    "abbreviation": "011",
    "units": "011",
    "delimitation": "27/08/02/011",
    "remark": "EXISTING PU",
    "ward_id": "17353",
    "ward_name": "IJEBU MUSHIN  II",
    "local_government_id": "569",
    "local_government_name": "IJEBU EAST",
    "state_id": "27",
    "state_name": "OGUN",
    "location": {
      "latitude": 6.815894399999999,
      "longitude": 3.9139492,
      "viewport": {
        "northeast": {
          "lat": 6.817239729892722,
          "lng": 3.915314779892721
        },
        "southwest": {
          "lat": 6.814540070107278,
          "lng": 3.912615120107278
        }
      },
      "formatted_address": "RW87+9H4, 120101, Ijebu Ode, Nigeria",
      "google_map_url": "https://maps.google.com?q=6.815894399999999,3.9139492",
      "google_place_id": "ChIJFYS3sq1oORARdJ4W92Rmq8E"
    }
  },
  {
    "id": "342179",
    "name": "IMUSHIN HEALTH CENTER",
    "registration_area_id": "17353",
    "precise_location": null,
    "abbreviation": "012",
    "units": "012",
    "delimitation": "27/08/02/012",
    "remark": "NEW PU",
    "ward_id": "17353",
    "ward_name": "IJEBU MUSHIN  II",
    "local_government_id": "569",
    "local_government_name": "IJEBU EAST",
    "state_id": "27",
    "state_name": "OGUN",
    "location": {
      "latitude": 6.7995532,
      "longitude": 3.9752287,
      "viewport": {
        "northeast": {
          "lat": 6.800901929892722,
          "lng": 3.976565279892722
        },
        "southwest": {
          "lat": 6.798202270107279,
          "lng": 3.973865620107278
        }
      },
      "formatted_address": "5, Old Lagos-Ore-Benin Road, Ijebu Imushin, Nigeria",
      "google_map_url": "https://maps.google.com?q=6.7995532,3.9752287",
      "google_place_id": "ChIJs3zz-0JpORARb-sKe4FT6Gw"
    }
  },
  {
    "id": "342180",
    "name": "IDOKUNUSI TOWN HALL",
    "registration_area_id": "17353",
    "precise_location": null,
    "abbreviation": "013",
    "units": "013",
    "delimitation": "27/08/02/013",
    "remark": "NEW PU",
    "ward_id": "17353",
    "ward_name": "IJEBU MUSHIN  II",
    "local_government_id": "569",
    "local_government_name": "IJEBU EAST",
    "state_id": "27",
    "state_name": "OGUN",
    "location": {
      "latitude": 6.8003737,
      "longitude": 4.0043919,
      "viewport": {
        "northeast": {
          "lat": 6.801654629892721,
          "lng": 4.005800729892722
        },
        "southwest": {
          "lat": 6.798954970107277,
          "lng": 4.003101070107278
        }
      },
      "formatted_address": "R223+4QR, 122103, Ijebu Imushin, Nigeria",
      "google_map_url": "https://maps.google.com?q=6.8003737,4.0043919",
      "google_place_id": "ChIJI6GGSGdrORARija4bLop--Q"
    }
  }
]