[
  {
    "id": "63252",
    "name": "UMUARUGWU VILL. HALL",
    "registration_area_id": "3428",
    "precise_location": null,
    "abbreviation": "001",
    "units": "001",
    "delimitation": "16/07/03/001",
    "remark": "EXISTING PU",
    "ward_id": "3428",
    "ward_name": "AMAINYI",
    "local_government_id": "299",
    "local_government_name": "IHITTE/UBOMA (ISINWEKE)",
    "state_id": "16",
    "state_name": "IMO",
    "location": {
      "latitude": 5.6136501,
      "longitude": 7.390593600000001,
      "viewport": {
        "northeast": {
          "lat": 5.614828279892722,
          "lng": 7.39196632989272
        },
        "southwest": {
          "lat": 5.612128620107278,
          "lng": 7.389266670107276
        }
      },
      "formatted_address": "J97R+F68, 472123, Anainyi, Nigeria",
      "google_map_url": "https://maps.google.com?q=5.6136501,7.390593600000001",
      "google_place_id": "ChIJG2ZDvibhQhARoe3Jz13XArc"
    }
  },
  {
    "id": "63253",
    "name": "UMUEZEIGWE VILLAGE HALL",
    "registration_area_id": "3428",
    "precise_location": null,
    "abbreviation": "002",
    "units": "002",
    "delimitation": "16/07/03/002",
    "remark": "EXISTING PU",
    "ward_id": "3428",
    "ward_name": "AMAINYI",
    "local_government_id": "299",
    "local_government_name": "IHITTE/UBOMA (ISINWEKE)",
    "state_id": "16",
    "state_name": "IMO",
    "location": {
      "latitude": 5.6136501,
      "longitude": 7.390593600000001,
      "viewport": {
        "northeast": {
          "lat": 5.614828279892722,
          "lng": 7.39196632989272
        },
        "southwest": {
          "lat": 5.612128620107278,
          "lng": 7.389266670107276
        }
      },
      "formatted_address": "J97R+F68, 472123, Anainyi, Nigeria",
      "google_map_url": "https://maps.google.com?q=5.6136501,7.390593600000001",
      "google_place_id": "ChIJG2ZDvibhQhARoe3Jz13XArc"
    }
  },
  {
    "id": "63254",
    "name": "EKEIKPA MARKET SQ. I",
    "registration_area_id": "3428",
    "precise_location": null,
    "abbreviation": "003",
    "units": "003",
    "delimitation": "16/07/03/003",
    "remark": "EXISTING PU",
    "ward_id": "3428",
    "ward_name": "AMAINYI",
    "local_government_id": "299",
    "local_government_name": "IHITTE/UBOMA (ISINWEKE)",
    "state_id": "16",
    "state_name": "IMO",
    "location": {
      "latitude": 5.603282999999999,
      "longitude": 7.380508799999999,
      "viewport": {
        "northeast": {
          "lat": 5.604656929892722,
          "lng": 7.381886429892722
        },
        "southwest": {
          "lat": 5.601957270107278,
          "lng": 7.379186770107278
        }
      },
      "formatted_address": "J93J+866 nta, 472122, Anainyi, Nigeria",
      "google_map_url": "https://maps.google.com?q=5.603282999999999,7.380508799999999",
      "google_place_id": "ChIJTckqRUnhQhARfIKyNwKVDcc"
    }
  },
  {
    "id": "63255",
    "name": "EKEIKPA MARKET SQ. II",
    "registration_area_id": "3428",
    "precise_location": null,
    "abbreviation": "004",
    "units": "004",
    "delimitation": "16/07/03/004",
    "remark": "EXISTING PU",
    "ward_id": "3428",
    "ward_name": "AMAINYI",
    "local_government_id": "299",
    "local_government_name": "IHITTE/UBOMA (ISINWEKE)",
    "state_id": "16",
    "state_name": "IMO",
    "location": {
      "latitude": 5.603282999999999,
      "longitude": 7.380508799999999,
      "viewport": {
        "northeast": {
          "lat": 5.604656929892722,
          "lng": 7.381886429892722
        },
        "southwest": {
          "lat": 5.601957270107278,
          "lng": 7.379186770107278
        }
      },
      "formatted_address": "J93J+866 nta, 472122, Anainyi, Nigeria",
      "google_map_url": "https://maps.google.com?q=5.603282999999999,7.380508799999999",
      "google_place_id": "ChIJTckqRUnhQhARfIKyNwKVDcc"
    }
  },
  {
    "id": "63256",
    "name": "PRI. SCH. AMAINYINTA",
    "registration_area_id": "3428",
    "precise_location": null,
    "abbreviation": "005",
    "units": "005",
    "delimitation": "16/07/03/005",
    "remark": "EXISTING PU",
    "ward_id": "3428",
    "ward_name": "AMAINYI",
    "local_government_id": "299",
    "local_government_name": "IHITTE/UBOMA (ISINWEKE)",
    "state_id": "16",
    "state_name": "IMO",
    "location": {
      "latitude": 5.582978,
      "longitude": 7.3887992,
      "viewport": {
        "northeast": {
          "lat": 5.584413379892723,
          "lng": 7.390227529892722
        },
        "southwest": {
          "lat": 5.581713720107279,
          "lng": 7.387527870107278
        }
      },
      "formatted_address": "Amainyinta Central School, Mbaise Rd, 463106, Umuaweke, Nigeria",
      "google_map_url": "https://maps.google.com?q=5.582978,7.3887992",
      "google_place_id": "ChIJO-oSZojnQhARNnqON-3dLIQ"
    }
  },
  {
    "id": "63257",
    "name": "AMAINYINTA CENTRAL SCH.",
    "registration_area_id": "3428",
    "precise_location": null,
    "abbreviation": "006",
    "units": "006",
    "delimitation": "16/07/03/006",
    "remark": "EXISTING PU",
    "ward_id": "3428",
    "ward_name": "AMAINYI",
    "local_government_id": "299",
    "local_government_name": "IHITTE/UBOMA (ISINWEKE)",
    "state_id": "16",
    "state_name": "IMO",
    "location": {
      "latitude": 5.582978,
      "longitude": 7.3887992,
      "viewport": {
        "northeast": {
          "lat": 5.584413379892723,
          "lng": 7.390227529892722
        },
        "southwest": {
          "lat": 5.581713720107279,
          "lng": 7.387527870107278
        }
      },
      "formatted_address": "Amainyinta Central School, Mbaise Rd, 463106, Umuaweke, Nigeria",
      "google_map_url": "https://maps.google.com?q=5.582978,7.3887992",
      "google_place_id": "ChIJO-oSZojnQhARNnqON-3dLIQ"
    }
  },
  {
    "id": "63258",
    "name": "UMUALUBI VILL. SQ.",
    "registration_area_id": "3428",
    "precise_location": null,
    "abbreviation": "007",
    "units": "007",
    "delimitation": "16/07/03/007",
    "remark": "EXISTING PU",
    "ward_id": "3428",
    "ward_name": "AMAINYI",
    "local_government_id": "299",
    "local_government_name": "IHITTE/UBOMA (ISINWEKE)",
    "state_id": "16",
    "state_name": "IMO",
    "location": {
      "latitude": 5.6620259,
      "longitude": 7.3732655,
      "viewport": {
        "northeast": {
          "lat": 5.7148778,
          "lng": 7.431560699999999
        },
        "southwest": {
          "lat": 5.5842048,
          "lng": 7.2983465
        }
      },
      "formatted_address": "Ihitte/Uboma, Nigeria",
      "google_map_url": "https://maps.google.com?q=5.6620259,7.3732655",
      "google_place_id": "ChIJOZoF-ZrhQhARXBH2_xD82zs"
    }
  },
  {
    "id": "63259",
    "name": "ELUOKPU SQUARE",
    "registration_area_id": "3428",
    "precise_location": null,
    "abbreviation": "008",
    "units": "008",
    "delimitation": "16/07/03/008",
    "remark": "EXISTING PU",
    "ward_id": "3428",
    "ward_name": "AMAINYI",
    "local_government_id": "299",
    "local_government_name": "IHITTE/UBOMA (ISINWEKE)",
    "state_id": "16",
    "state_name": "IMO",
    "location": {
      "latitude": 5.622875,
      "longitude": 7.342431200000001,
      "viewport": {
        "northeast": {
          "lat": 5.624091929892722,
          "lng": 7.343766029892723
        },
        "southwest": {
          "lat": 5.621392270107278,
          "lng": 7.341066370107279
        }
      },
      "formatted_address": "J8FR+4XV, 472112, Ihitte-Uboma, Nigeria",
      "google_map_url": "https://maps.google.com?q=5.622875,7.342431200000001",
      "google_place_id": "ChIJaclBKi_jQhAR08H9ukIouMM"
    }
  },
  {
    "id": "63260",
    "name": "UMUECHETU SQ.",
    "registration_area_id": "3428",
    "precise_location": null,
    "abbreviation": "009",
    "units": "009",
    "delimitation": "16/07/03/009",
    "remark": "EXISTING PU",
    "ward_id": "3428",
    "ward_name": "AMAINYI",
    "local_government_id": "299",
    "local_government_name": "IHITTE/UBOMA (ISINWEKE)",
    "state_id": "16",
    "state_name": "IMO",
    "location": {
      "latitude": 5.622875,
      "longitude": 7.342431200000001,
      "viewport": {
        "northeast": {
          "lat": 5.624091929892722,
          "lng": 7.343766029892723
        },
        "southwest": {
          "lat": 5.621392270107278,
          "lng": 7.341066370107279
        }
      },
      "formatted_address": "J8FR+4XV, 472112, Ihitte-Uboma, Nigeria",
      "google_map_url": "https://maps.google.com?q=5.622875,7.342431200000001",
      "google_place_id": "ChIJaclBKi_jQhAR08H9ukIouMM"
    }
  },
  {
    "id": "63261",
    "name": "OGBOTO UMUTUADA",
    "registration_area_id": "3428",
    "precise_location": null,
    "abbreviation": "010",
    "units": "010",
    "delimitation": "16/07/03/010",
    "remark": "EXISTING PU",
    "ward_id": "3428",
    "ward_name": "AMAINYI",
    "local_government_id": "299",
    "local_government_name": "IHITTE/UBOMA (ISINWEKE)",
    "state_id": "16",
    "state_name": "IMO",
    "location": {
      "latitude": 5.622875,
      "longitude": 7.342431200000001,
      "viewport": {
        "northeast": {
          "lat": 5.624091929892722,
          "lng": 7.343766029892723
        },
        "southwest": {
          "lat": 5.621392270107278,
          "lng": 7.341066370107279
        }
      },
      "formatted_address": "J8FR+4XV, 472112, Ihitte-Uboma, Nigeria",
      "google_map_url": "https://maps.google.com?q=5.622875,7.342431200000001",
      "google_place_id": "ChIJaclBKi_jQhAR08H9ukIouMM"
    }
  },
  {
    "id": "63262",
    "name": "EKEAMAINYI MARKET SQ.",
    "registration_area_id": "3428",
    "precise_location": null,
    "abbreviation": "011",
    "units": "011",
    "delimitation": "16/07/03/011",
    "remark": "EXISTING PU",
    "ward_id": "3428",
    "ward_name": "AMAINYI",
    "local_government_id": "299",
    "local_government_name": "IHITTE/UBOMA (ISINWEKE)",
    "state_id": "16",
    "state_name": "IMO",
    "location": {
      "latitude": 5.6163115,
      "longitude": 7.341822999999999,
      "viewport": {
        "northeast": {
          "lat": 5.617657029892722,
          "lng": 7.343138529892721
        },
        "southwest": {
          "lat": 5.614957370107278,
          "lng": 7.340438870107277
        }
      },
      "formatted_address": "J88R+GPG, 472120, Ihitte-Uboma, Nigeria",
      "google_map_url": "https://maps.google.com?q=5.6163115,7.341822999999999",
      "google_place_id": "ChIJ6_ZvEebjQhARIlXRCcm_BoI"
    }
  },
  {
    "id": "63263",
    "name": "UMUMGBOGHOKE HALL",
    "registration_area_id": "3428",
    "precise_location": null,
    "abbreviation": "012",
    "units": "012",
    "delimitation": "16/07/03/012",
    "remark": "EXISTING PU",
    "ward_id": "3428",
    "ward_name": "AMAINYI",
    "local_government_id": "299",
    "local_government_name": "IHITTE/UBOMA (ISINWEKE)",
    "state_id": "16",
    "state_name": "IMO",
    "location": {
      "latitude": 5.6060772,
      "longitude": 7.356180800000001,
      "viewport": {
        "northeast": {
          "lat": 5.607352279892721,
          "lng": 7.357616479892722
        },
        "southwest": {
          "lat": 5.604652620107277,
          "lng": 7.354916820107278
        }
      },
      "formatted_address": "J944+CFM, 472120, Ihitte-Uboma, Nigeria",
      "google_map_url": "https://maps.google.com?q=5.6060772,7.356180800000001",
      "google_place_id": "ChIJN8qNuFbhQhARIjbko4QNOrk"
    }
  },
  {
    "id": "63264",
    "name": "COMMUNITY SCH., UMUNAHIHIE",
    "registration_area_id": "3428",
    "precise_location": null,
    "abbreviation": "013",
    "units": "013",
    "delimitation": "16/07/03/013",
    "remark": "EXISTING PU",
    "ward_id": "3428",
    "ward_name": "AMAINYI",
    "local_government_id": "299",
    "local_government_name": "IHITTE/UBOMA (ISINWEKE)",
    "state_id": "16",
    "state_name": "IMO",
    "location": {
      "latitude": 5.6474043,
      "longitude": 7.349929899999999,
      "viewport": {
        "northeast": {
          "lat": 5.648607179892722,
          "lng": 7.351327129892723
        },
        "southwest": {
          "lat": 5.645907520107278,
          "lng": 7.348627470107279
        }
      },
      "formatted_address": "J8WX+XX7, Umuchiaku, Okata Autonomous Community, Isinweke, Nigeria",
      "google_map_url": "https://maps.google.com?q=5.6474043,7.349929899999999",
      "google_place_id": "ChIJyXWNkSniQhARUogsKubuqMM"
    }
  }
]