[
  {
    "id": "336027",
    "name": "GBANGBAN",
    "registration_area_id": "17060",
    "precise_location": null,
    "abbreviation": "001",
    "units": "001",
    "delimitation": "26/07/06/001",
    "remark": "EXISTING PU",
    "ward_id": "17060",
    "ward_name": "GBANGBAN",
    "local_government_id": "543",
    "local_government_name": "EDATTI",
    "state_id": "26",
    "state_name": "NIGER",
    "location": {
      "latitude": 9.117129799999999,
      "longitude": 5.7352478,
      "viewport": {
        "northeast": {
          "lat": 9.138421,
          "lng": 5.766721
        },
        "southwest": {
          "lat": 9.095771599999999,
          "lng": 5.706086099999999
        }
      },
      "formatted_address": "Gbangban, 913102, Nigeria",
      "google_map_url": "https://maps.google.com?q=9.117129799999999,5.7352478",
      "google_place_id": "ChIJnT5-oI5_SRAR1z7CXJwx5fc"
    }
  },
  {
    "id": "336028",
    "name": "LUKORO",
    "registration_area_id": "17060",
    "precise_location": null,
    "abbreviation": "002",
    "units": "002",
    "delimitation": "26/07/06/002",
    "remark": "EXISTING PU",
    "ward_id": "17060",
    "ward_name": "GBANGBAN",
    "local_government_id": "543",
    "local_government_name": "EDATTI",
    "state_id": "26",
    "state_name": "NIGER",
    "location": {
      "latitude": 9.1697039,
      "longitude": 5.768447399999999,
      "viewport": {
        "northeast": {
          "lat": 9.171072429892721,
          "lng": 5.769784329892721
        },
        "southwest": {
          "lat": 9.168372770107277,
          "lng": 5.767084670107277
        }
      },
      "formatted_address": "5Q99+V9G, 913102, Seraka, Nigeria",
      "google_map_url": "https://maps.google.com?q=9.1697039,5.768447399999999",
      "google_place_id": "ChIJs2rGvAvVSxARfiuU6Tu20Sc"
    }
  },
  {
    "id": "336029",
    "name": "WUYA",
    "registration_area_id": "17060",
    "precise_location": null,
    "abbreviation": "003",
    "units": "003",
    "delimitation": "26/07/06/003",
    "remark": "EXISTING PU",
    "ward_id": "17060",
    "ward_name": "GBANGBAN",
    "local_government_id": "543",
    "local_government_name": "EDATTI",
    "state_id": "26",
    "state_name": "NIGER",
    "location": null
  },
  {
    "id": "336030",
    "name": "CHENGUDUGI",
    "registration_area_id": "17060",
    "precise_location": null,
    "abbreviation": "004",
    "units": "004",
    "delimitation": "26/07/06/004",
    "remark": "EXISTING PU",
    "ward_id": "17060",
    "ward_name": "GBANGBAN",
    "local_government_id": "543",
    "local_government_name": "EDATTI",
    "state_id": "26",
    "state_name": "NIGER",
    "location": null
  },
  {
    "id": "336031",
    "name": "WOTOKPAN",
    "registration_area_id": "17060",
    "precise_location": null,
    "abbreviation": "005",
    "units": "005",
    "delimitation": "26/07/06/005",
    "remark": "EXISTING PU",
    "ward_id": "17060",
    "ward_name": "GBANGBAN",
    "local_government_id": "543",
    "local_government_name": "EDATTI",
    "state_id": "26",
    "state_name": "NIGER",
    "location": null
  },
  {
    "id": "336032",
    "name": "YAGBANTI",
    "registration_area_id": "17060",
    "precise_location": null,
    "abbreviation": "006",
    "units": "006",
    "delimitation": "26/07/06/006",
    "remark": "EXISTING PU",
    "ward_id": "17060",
    "ward_name": "GBANGBAN",
    "local_government_id": "543",
    "local_government_name": "EDATTI",
    "state_id": "26",
    "state_name": "NIGER",
    "location": {
      "latitude": 9.1697039,
      "longitude": 5.768447399999999,
      "viewport": {
        "northeast": {
          "lat": 9.171072429892721,
          "lng": 5.769784329892721
        },
        "southwest": {
          "lat": 9.168372770107277,
          "lng": 5.767084670107277
        }
      },
      "formatted_address": "5Q99+V9G, 913102, Seraka, Nigeria",
      "google_map_url": "https://maps.google.com?q=9.1697039,5.768447399999999",
      "google_place_id": "ChIJs2rGvAvVSxARfiuU6Tu20Sc"
    }
  },
  {
    "id": "336033",
    "name": "GBAMACE",
    "registration_area_id": "17060",
    "precise_location": null,
    "abbreviation": "007",
    "units": "007",
    "delimitation": "26/07/06/007",
    "remark": "EXISTING PU",
    "ward_id": "17060",
    "ward_name": "GBANGBAN",
    "local_government_id": "543",
    "local_government_name": "EDATTI",
    "state_id": "26",
    "state_name": "NIGER",
    "location": {
      "latitude": 9.117129799999999,
      "longitude": 5.7352478,
      "viewport": {
        "northeast": {
          "lat": 9.138421,
          "lng": 5.766721
        },
        "southwest": {
          "lat": 9.095771599999999,
          "lng": 5.706086099999999
        }
      },
      "formatted_address": "Gbangban, 913102, Nigeria",
      "google_map_url": "https://maps.google.com?q=9.117129799999999,5.7352478",
      "google_place_id": "ChIJnT5-oI5_SRAR1z7CXJwx5fc"
    }
  },
  {
    "id": "336034",
    "name": "YAKUNTAGI",
    "registration_area_id": "17060",
    "precise_location": null,
    "abbreviation": "008",
    "units": "008",
    "delimitation": "26/07/06/008",
    "remark": "EXISTING PU",
    "ward_id": "17060",
    "ward_name": "GBANGBAN",
    "local_government_id": "543",
    "local_government_name": "EDATTI",
    "state_id": "26",
    "state_name": "NIGER",
    "location": {
      "latitude": 9.1697039,
      "longitude": 5.768447399999999,
      "viewport": {
        "northeast": {
          "lat": 9.171072429892721,
          "lng": 5.769784329892721
        },
        "southwest": {
          "lat": 9.168372770107277,
          "lng": 5.767084670107277
        }
      },
      "formatted_address": "5Q99+V9G, 913102, Seraka, Nigeria",
      "google_map_url": "https://maps.google.com?q=9.1697039,5.768447399999999",
      "google_place_id": "ChIJs2rGvAvVSxARfiuU6Tu20Sc"
    }
  },
  {
    "id": "336035",
    "name": "GBAPIN",
    "registration_area_id": "17060",
    "precise_location": null,
    "abbreviation": "009",
    "units": "009",
    "delimitation": "26/07/06/009",
    "remark": "EXISTING PU",
    "ward_id": "17060",
    "ward_name": "GBANGBAN",
    "local_government_id": "543",
    "local_government_name": "EDATTI",
    "state_id": "26",
    "state_name": "NIGER",
    "location": null
  },
  {
    "id": "336036",
    "name": "MALUNGI",
    "registration_area_id": "17060",
    "precise_location": null,
    "abbreviation": "010",
    "units": "010",
    "delimitation": "26/07/06/010",
    "remark": "EXISTING PU",
    "ward_id": "17060",
    "ward_name": "GBANGBAN",
    "local_government_id": "543",
    "local_government_name": "EDATTI",
    "state_id": "26",
    "state_name": "NIGER",
    "location": null
  },
  {
    "id": "336037",
    "name": "SHARUFU",
    "registration_area_id": "17060",
    "precise_location": null,
    "abbreviation": "011",
    "units": "011",
    "delimitation": "26/07/06/011",
    "remark": "EXISTING PU",
    "ward_id": "17060",
    "ward_name": "GBANGBAN",
    "local_government_id": "543",
    "local_government_name": "EDATTI",
    "state_id": "26",
    "state_name": "NIGER",
    "location": null
  },
  {
    "id": "336038",
    "name": "TSAWANYAGI",
    "registration_area_id": "17060",
    "precise_location": null,
    "abbreviation": "012",
    "units": "012",
    "delimitation": "26/07/06/012",
    "remark": "EXISTING PU",
    "ward_id": "17060",
    "ward_name": "GBANGBAN",
    "local_government_id": "543",
    "local_government_name": "EDATTI",
    "state_id": "26",
    "state_name": "NIGER",
    "location": null
  },
  {
    "id": "336039",
    "name": "CECEFU",
    "registration_area_id": "17060",
    "precise_location": null,
    "abbreviation": "013",
    "units": "013",
    "delimitation": "26/07/06/013",
    "remark": "EXISTING PU",
    "ward_id": "17060",
    "ward_name": "GBANGBAN",
    "local_government_id": "543",
    "local_government_name": "EDATTI",
    "state_id": "26",
    "state_name": "NIGER",
    "location": {
      "latitude": 43.0016966,
      "longitude": -78.7849312,
      "viewport": {
        "northeast": {
          "lat": 43.00323637989272,
          "lng": -78.78392837010728
        },
        "southwest": {
          "lat": 43.00053672010728,
          "lng": -78.78662802989273
        }
      },
      "formatted_address": "520 Lee Entrance #101A, Amherst, NY 14228, United States",
      "google_map_url": "https://maps.google.com?q=43.0016966,-78.7849312",
      "google_place_id": "ChIJS6cEodFz04kR5GxCsOgWa40"
    }
  },
  {
    "id": "336040",
    "name": "GBANGBAN PRY. SCHOOL",
    "registration_area_id": "17060",
    "precise_location": null,
    "abbreviation": "014",
    "units": "014",
    "delimitation": "26/07/06/014",
    "remark": "NEW PU",
    "ward_id": "17060",
    "ward_name": "GBANGBAN",
    "local_government_id": "543",
    "local_government_name": "EDATTI",
    "state_id": "26",
    "state_name": "NIGER",
    "location": {
      "latitude": 9.160554,
      "longitude": 5.755602,
      "viewport": {
        "northeast": {
          "lat": 9.16190187989272,
          "lng": 5.757059929892721
        },
        "southwest": {
          "lat": 9.159202220107277,
          "lng": 5.754360270107277
        }
      },
      "formatted_address": "6FX75Q64+66H Gbangbam Gbangbam, Seraka, Nigeria",
      "google_map_url": "https://maps.google.com?q=9.160554,5.755602",
      "google_place_id": "ChIJm-NvVGLVSxAR5j_CAI6CXK0"
    }
  }
]