[
  {
    "id": "109531",
    "name": "OPEN SPACE ODO-AGO ISAPA",
    "registration_area_id": "5693",
    "precise_location": null,
    "abbreviation": "001",
    "units": "001",
    "delimitation": "23/04/02/001",
    "remark": "EXISTING PU",
    "ward_id": "5693",
    "ward_name": "ISAPA",
    "local_government_id": "493",
    "local_government_name": "EKITI",
    "state_id": "23",
    "state_name": "KWARA",
    "location": {
      "latitude": 8.131917999999999,
      "longitude": 5.320706899999999,
      "viewport": {
        "northeast": {
          "lat": 8.173152199999999,
          "lng": 5.376626799999999
        },
        "southwest": {
          "lat": 8.102937299999999,
          "lng": 5.279758999999999
        }
      },
      "formatted_address": "Isapa, Nigeria",
      "google_map_url": "https://maps.google.com?q=8.131917999999999,5.320706899999999",
      "google_place_id": "ChIJA4rcJWE-SBAROIZFtRUHAzA"
    }
  },
  {
    "id": "109532",
    "name": "L.G.E.A SCH ISAPA",
    "registration_area_id": "5693",
    "precise_location": null,
    "abbreviation": "002",
    "units": "002",
    "delimitation": "23/04/02/002",
    "remark": "EXISTING PU",
    "ward_id": "5693",
    "ward_name": "ISAPA",
    "local_government_id": "493",
    "local_government_name": "EKITI",
    "state_id": "23",
    "state_name": "KWARA",
    "location": {
      "latitude": 8.137698499999999,
      "longitude": 5.329273,
      "viewport": {
        "northeast": {
          "lat": 8.139075929892721,
          "lng": 5.330689429892722
        },
        "southwest": {
          "lat": 8.136376270107277,
          "lng": 5.327989770107278
        }
      },
      "formatted_address": "48QH+3PC, 252105, Araromi Opin, Nigeria",
      "google_map_url": "https://maps.google.com?q=8.137698499999999,5.329273",
      "google_place_id": "ChIJF2r0z2A-SBAR-ZWUfNORnPM"
    }
  },
  {
    "id": "109533",
    "name": "OPEN SPACE IBERIKEDO ISAPA",
    "registration_area_id": "5693",
    "precise_location": null,
    "abbreviation": "003",
    "units": "003",
    "delimitation": "23/04/02/003",
    "remark": "EXISTING PU",
    "ward_id": "5693",
    "ward_name": "ISAPA",
    "local_government_id": "493",
    "local_government_name": "EKITI",
    "state_id": "23",
    "state_name": "KWARA",
    "location": null
  },
  {
    "id": "109534",
    "name": "OPEN SPACE ODO-ITAN ISAPA",
    "registration_area_id": "5693",
    "precise_location": null,
    "abbreviation": "004",
    "units": "004",
    "delimitation": "23/04/02/004",
    "remark": "EXISTING PU",
    "ward_id": "5693",
    "ward_name": "ISAPA",
    "local_government_id": "493",
    "local_government_name": "EKITI",
    "state_id": "23",
    "state_name": "KWARA",
    "location": {
      "latitude": 8.131917999999999,
      "longitude": 5.320706899999999,
      "viewport": {
        "northeast": {
          "lat": 8.173152199999999,
          "lng": 5.376626799999999
        },
        "southwest": {
          "lat": 8.102937299999999,
          "lng": 5.279758999999999
        }
      },
      "formatted_address": "Isapa, Nigeria",
      "google_map_url": "https://maps.google.com?q=8.131917999999999,5.320706899999999",
      "google_place_id": "ChIJA4rcJWE-SBAROIZFtRUHAzA"
    }
  },
  {
    "id": "109535",
    "name": "OPEN SPACE OKE-IPO  ISAPA",
    "registration_area_id": "5693",
    "precise_location": null,
    "abbreviation": "005",
    "units": "005",
    "delimitation": "23/04/02/005",
    "remark": "EXISTING PU",
    "ward_id": "5693",
    "ward_name": "ISAPA",
    "local_government_id": "493",
    "local_government_name": "EKITI",
    "state_id": "23",
    "state_name": "KWARA",
    "location": {
      "latitude": 8.131917999999999,
      "longitude": 5.320706899999999,
      "viewport": {
        "northeast": {
          "lat": 8.173152199999999,
          "lng": 5.376626799999999
        },
        "southwest": {
          "lat": 8.102937299999999,
          "lng": 5.279758999999999
        }
      },
      "formatted_address": "Isapa, Nigeria",
      "google_map_url": "https://maps.google.com?q=8.131917999999999,5.320706899999999",
      "google_place_id": "ChIJA4rcJWE-SBAROIZFtRUHAzA"
    }
  },
  {
    "id": "109536",
    "name": "OPEN SPACE OKESA/MISSION",
    "registration_area_id": "5693",
    "precise_location": null,
    "abbreviation": "006",
    "units": "006",
    "delimitation": "23/04/02/006",
    "remark": "EXISTING PU",
    "ward_id": "5693",
    "ward_name": "ISAPA",
    "local_government_id": "493",
    "local_government_name": "EKITI",
    "state_id": "23",
    "state_name": "KWARA",
    "location": null
  },
  {
    "id": "109537",
    "name": "TOWN HALL, OKE ODO-ORO",
    "registration_area_id": "5693",
    "precise_location": null,
    "abbreviation": "007",
    "units": "007",
    "delimitation": "23/04/02/007",
    "remark": "NEW PU",
    "ward_id": "5693",
    "ward_name": "ISAPA",
    "local_government_id": "493",
    "local_government_name": "EKITI",
    "state_id": "23",
    "state_name": "KWARA",
    "location": {
      "latitude": 7.8026001,
      "longitude": 5.52116,
      "viewport": {
        "northeast": {
          "lat": 7.804111529892721,
          "lng": 5.522505179892721
        },
        "southwest": {
          "lat": 7.801411870107277,
          "lng": 5.519805520107277
        }
      },
      "formatted_address": "370105, Ikole, Nigeria",
      "google_map_url": "https://maps.google.com?q=7.8026001,5.52116",
      "google_place_id": "ChIJS98zxwJ3SBARaA1DcRE7G20"
    }
  },
  {
    "id": "109538",
    "name": "OPEN SPACE OLD MARKET, IKIMO",
    "registration_area_id": "5693",
    "precise_location": null,
    "abbreviation": "008",
    "units": "008",
    "delimitation": "23/04/02/008",
    "remark": "NEW PU",
    "ward_id": "5693",
    "ward_name": "ISAPA",
    "local_government_id": "493",
    "local_government_name": "EKITI",
    "state_id": "23",
    "state_name": "KWARA",
    "location": null
  }
]