[
  {
    "id": "90032",
    "name": "BADA",
    "registration_area_id": "4603",
    "precise_location": null,
    "abbreviation": "001",
    "units": "001",
    "delimitation": "19/24/11/001",
    "remark": "EXISTING PU",
    "ward_id": "4603",
    "ward_name": "MARAKU",
    "local_government_id": "393",
    "local_government_name": "KIRU",
    "state_id": "19",
    "state_name": "KANO",
    "location": {
      "latitude": 11.6763958,
      "longitude": 8.0992062,
      "viewport": {
        "northeast": {
          "lat": 11.67776997989272,
          "lng": 8.100601079892723
        },
        "southwest": {
          "lat": 11.67507032010728,
          "lng": 8.097901420107279
        }
      },
      "formatted_address": "7F3CM3GX+HJ2, Bada, 711105, Kano, Nigeria",
      "google_map_url": "https://maps.google.com?q=11.6763958,8.0992062",
      "google_place_id": "ChIJPyH2PC_qrRERmgEpNBcpYZs"
    }
  },
  {
    "id": "90033",
    "name": "KWANKWARO I",
    "registration_area_id": "4603",
    "precise_location": null,
    "abbreviation": "002",
    "units": "002",
    "delimitation": "19/24/11/002",
    "remark": "EXISTING PU",
    "ward_id": "4603",
    "ward_name": "MARAKU",
    "local_government_id": "393",
    "local_government_name": "KIRU",
    "state_id": "19",
    "state_name": "KANO",
    "location": {
      "latitude": 11.7022386,
      "longitude": 8.1365868,
      "viewport": {
        "northeast": {
          "lat": 11.709024,
          "lng": 8.142942999999999
        },
        "southwest": {
          "lat": 11.696386,
          "lng": 8.120649
        }
      },
      "formatted_address": "711105, Kiru, Nigeria",
      "google_map_url": "https://maps.google.com?q=11.7022386,8.1365868",
      "google_place_id": "ChIJdaSsXwnCrRERgeGd1FhoKTc"
    }
  },
  {
    "id": "90034",
    "name": "KWANKWARO II",
    "registration_area_id": "4603",
    "precise_location": null,
    "abbreviation": "003",
    "units": "003",
    "delimitation": "19/24/11/003",
    "remark": "EXISTING PU",
    "ward_id": "4603",
    "ward_name": "MARAKU",
    "local_government_id": "393",
    "local_government_name": "KIRU",
    "state_id": "19",
    "state_name": "KANO",
    "location": {
      "latitude": 11.7022386,
      "longitude": 8.1365868,
      "viewport": {
        "northeast": {
          "lat": 11.709024,
          "lng": 8.142942999999999
        },
        "southwest": {
          "lat": 11.696386,
          "lng": 8.120649
        }
      },
      "formatted_address": "711105, Kiru, Nigeria",
      "google_map_url": "https://maps.google.com?q=11.7022386,8.1365868",
      "google_place_id": "ChIJdaSsXwnCrRERgeGd1FhoKTc"
    }
  },
  {
    "id": "90035",
    "name": "MARAKU CIKIN KUDU",
    "registration_area_id": "4603",
    "precise_location": null,
    "abbreviation": "004",
    "units": "004",
    "delimitation": "19/24/11/004",
    "remark": "EXISTING PU",
    "ward_id": "4603",
    "ward_name": "MARAKU",
    "local_government_id": "393",
    "local_government_name": "KIRU",
    "state_id": "19",
    "state_name": "KANO",
    "location": {
      "latitude": 12.008286,
      "longitude": 8.552306399999999,
      "viewport": {
        "northeast": {
          "lat": 12.00955982989272,
          "lng": 8.553646129892721
        },
        "southwest": {
          "lat": 12.00686017010728,
          "lng": 8.550946470107277
        }
      },
      "formatted_address": "1 Muritala Mohammed Way Opposite Kano Club, Murtala Mohammed Way, 700271, Kano, Nigeria",
      "google_map_url": "https://maps.google.com?q=12.008286,8.552306399999999",
      "google_place_id": "ChIJMeaR5SGBrhERTEYyPUKa97Y"
    }
  },
  {
    "id": "90036",
    "name": "MARKAKU CIKIN GARI",
    "registration_area_id": "4603",
    "precise_location": null,
    "abbreviation": "005",
    "units": "005",
    "delimitation": "19/24/11/005",
    "remark": "EXISTING PU",
    "ward_id": "4603",
    "ward_name": "MARAKU",
    "local_government_id": "393",
    "local_government_name": "KIRU",
    "state_id": "19",
    "state_name": "KANO",
    "location": {
      "latitude": 11.7067595,
      "longitude": 8.1471544,
      "viewport": {
        "northeast": {
          "lat": 11.70813202989272,
          "lng": 8.148517429892722
        },
        "southwest": {
          "lat": 11.70543237010728,
          "lng": 8.145817770107278
        }
      },
      "formatted_address": "7F3CP44W+PV2, 711105, Kiru, Nigeria",
      "google_map_url": "https://maps.google.com?q=11.7067595,8.1471544",
      "google_place_id": "ChIJxeJg7APDrRERUcTAsMVgiQw"
    }
  },
  {
    "id": "90037",
    "name": "RINJI",
    "registration_area_id": "4603",
    "precise_location": null,
    "abbreviation": "006",
    "units": "006",
    "delimitation": "19/24/11/006",
    "remark": "EXISTING PU",
    "ward_id": "4603",
    "ward_name": "MARAKU",
    "local_government_id": "393",
    "local_government_name": "KIRU",
    "state_id": "19",
    "state_name": "KANO",
    "location": {
      "latitude": 11.7022386,
      "longitude": 8.1365868,
      "viewport": {
        "northeast": {
          "lat": 11.709024,
          "lng": 8.142942999999999
        },
        "southwest": {
          "lat": 11.696386,
          "lng": 8.120649
        }
      },
      "formatted_address": "711105, Kiru, Nigeria",
      "google_map_url": "https://maps.google.com?q=11.7022386,8.1365868",
      "google_place_id": "ChIJdaSsXwnCrRERgeGd1FhoKTc"
    }
  },
  {
    "id": "90038",
    "name": "SARKAKIYA I",
    "registration_area_id": "4603",
    "precise_location": null,
    "abbreviation": "007",
    "units": "007",
    "delimitation": "19/24/11/007",
    "remark": "EXISTING PU",
    "ward_id": "4603",
    "ward_name": "MARAKU",
    "local_government_id": "393",
    "local_government_name": "KIRU",
    "state_id": "19",
    "state_name": "KANO",
    "location": {
      "latitude": 11.6543066,
      "longitude": 8.1484914,
      "viewport": {
        "northeast": {
          "lat": 11.65570337989272,
          "lng": 8.14985227989272
        },
        "southwest": {
          "lat": 11.65300372010728,
          "lng": 8.147152620107276
        }
      },
      "formatted_address": "7F3CM43X+P9W Sarkakiya Maraku Kano Yako, Nigeria",
      "google_map_url": "https://maps.google.com?q=11.6543066,8.1484914",
      "google_place_id": "ChIJn76RmWLBrRERH2ixyIQWMJY"
    }
  },
  {
    "id": "90039",
    "name": "SARKAKIYA II",
    "registration_area_id": "4603",
    "precise_location": null,
    "abbreviation": "008",
    "units": "008",
    "delimitation": "19/24/11/008",
    "remark": "EXISTING PU",
    "ward_id": "4603",
    "ward_name": "MARAKU",
    "local_government_id": "393",
    "local_government_name": "KIRU",
    "state_id": "19",
    "state_name": "KANO",
    "location": {
      "latitude": 11.6543066,
      "longitude": 8.1484914,
      "viewport": {
        "northeast": {
          "lat": 11.65570337989272,
          "lng": 8.14985227989272
        },
        "southwest": {
          "lat": 11.65300372010728,
          "lng": 8.147152620107276
        }
      },
      "formatted_address": "7F3CM43X+P9W Sarkakiya Maraku Kano Yako, Nigeria",
      "google_map_url": "https://maps.google.com?q=11.6543066,8.1484914",
      "google_place_id": "ChIJn76RmWLBrRERH2ixyIQWMJY"
    }
  },
  {
    "id": "90040",
    "name": "UNGUWAR MAKERA I",
    "registration_area_id": "4603",
    "precise_location": null,
    "abbreviation": "009",
    "units": "009",
    "delimitation": "19/24/11/009",
    "remark": "EXISTING PU",
    "ward_id": "4603",
    "ward_name": "MARAKU",
    "local_government_id": "393",
    "local_government_name": "KIRU",
    "state_id": "19",
    "state_name": "KANO",
    "location": {
      "latitude": 11.6802394,
      "longitude": 8.1517012,
      "viewport": {
        "northeast": {
          "lat": 11.68162187989272,
          "lng": 8.153031479892723
        },
        "southwest": {
          "lat": 11.67892222010728,
          "lng": 8.15033182010728
        }
      },
      "formatted_address": "7F3CM5J2+3P2 Ung makera, Kano, Nigeria",
      "google_map_url": "https://maps.google.com?q=11.6802394,8.1517012",
      "google_place_id": "ChIJZ5YWM1PBrRER3s4PAdg-I6Q"
    }
  },
  {
    "id": "90041",
    "name": "UNGUWAR MAKERA II",
    "registration_area_id": "4603",
    "precise_location": null,
    "abbreviation": "010",
    "units": "010",
    "delimitation": "19/24/11/010",
    "remark": "EXISTING PU",
    "ward_id": "4603",
    "ward_name": "MARAKU",
    "local_government_id": "393",
    "local_government_name": "KIRU",
    "state_id": "19",
    "state_name": "KANO",
    "location": {
      "latitude": 11.6802394,
      "longitude": 8.1517012,
      "viewport": {
        "northeast": {
          "lat": 11.68162187989272,
          "lng": 8.153031479892723
        },
        "southwest": {
          "lat": 11.67892222010728,
          "lng": 8.15033182010728
        }
      },
      "formatted_address": "7F3CM5J2+3P2 Ung makera, Kano, Nigeria",
      "google_map_url": "https://maps.google.com?q=11.6802394,8.1517012",
      "google_place_id": "ChIJZ5YWM1PBrRER3s4PAdg-I6Q"
    }
  },
  {
    "id": "90042",
    "name": "BADA II",
    "registration_area_id": "4603",
    "precise_location": null,
    "abbreviation": "011",
    "units": "011",
    "delimitation": "19/24/11/011",
    "remark": "NEW PU",
    "ward_id": "4603",
    "ward_name": "MARAKU",
    "local_government_id": "393",
    "local_government_name": "KIRU",
    "state_id": "19",
    "state_name": "KANO",
    "location": {
      "latitude": 11.6763958,
      "longitude": 8.0992062,
      "viewport": {
        "northeast": {
          "lat": 11.67776997989272,
          "lng": 8.100601079892723
        },
        "southwest": {
          "lat": 11.67507032010728,
          "lng": 8.097901420107279
        }
      },
      "formatted_address": "7F3CM3GX+HJ2, Bada, 711105, Kano, Nigeria",
      "google_map_url": "https://maps.google.com?q=11.6763958,8.0992062",
      "google_place_id": "ChIJPyH2PC_qrRERmgEpNBcpYZs"
    }
  },
  {
    "id": "90043",
    "name": "MARAKU ISLAMIYA",
    "registration_area_id": "4603",
    "precise_location": null,
    "abbreviation": "012",
    "units": "012",
    "delimitation": "19/24/11/012",
    "remark": "NEW PU",
    "ward_id": "4603",
    "ward_name": "MARAKU",
    "local_government_id": "393",
    "local_government_name": "KIRU",
    "state_id": "19",
    "state_name": "KANO",
    "location": null
  },
  {
    "id": "90044",
    "name": "U/MAKERA CO-EXIT J S S",
    "registration_area_id": "4603",
    "precise_location": null,
    "abbreviation": "013",
    "units": "013",
    "delimitation": "19/24/11/013",
    "remark": "NEW PU",
    "ward_id": "4603",
    "ward_name": "MARAKU",
    "local_government_id": "393",
    "local_government_name": "KIRU",
    "state_id": "19",
    "state_name": "KANO",
    "location": {
      "latitude": 12.0089967,
      "longitude": 8.5411275,
      "viewport": {
        "northeast": {
          "lat": 12.01032282989272,
          "lng": 8.542502029892724
        },
        "southwest": {
          "lat": 12.00762317010728,
          "lng": 8.53980237010728
        }
      },
      "formatted_address": "41A Niger Street, Off Murtala Mohammed Way, Kano, Nigeria",
      "google_map_url": "https://maps.google.com?q=12.0089967,8.5411275",
      "google_place_id": "ChIJs6212heBrhERn6T0Hnc7nfU"
    }
  }
]