[
  {
    "id": "107917",
    "name": "OPEN SPACE IBOKO CENTRE/IBOKO, OGBONOKO",
    "registration_area_id": "5576",
    "precise_location": null,
    "abbreviation": "001",
    "units": "001",
    "delimitation": "22/14/11/001",
    "remark": "EXISTING PU",
    "ward_id": "5576",
    "ward_name": "IBOKO/EFAKWU",
    "local_government_id": "482",
    "local_government_name": "OFU",
    "state_id": "22",
    "state_name": "KOGI",
    "location": null
  },
  {
    "id": "107918",
    "name": "OJUWO VILLAGE SQUARE/OJUWO, IBOKO",
    "registration_area_id": "5576",
    "precise_location": null,
    "abbreviation": "002",
    "units": "002",
    "delimitation": "22/14/11/002",
    "remark": "EXISTING PU",
    "ward_id": "5576",
    "ward_name": "IBOKO/EFAKWU",
    "local_government_id": "482",
    "local_government_name": "OFU",
    "state_id": "22",
    "state_name": "KOGI",
    "location": null
  },
  {
    "id": "107919",
    "name": "IGOTI JUNCTION/AGOJEJUATE 1 & 2, OGENE",
    "registration_area_id": "5576",
    "precise_location": null,
    "abbreviation": "003",
    "units": "003",
    "delimitation": "22/14/11/003",
    "remark": "EXISTING PU",
    "ward_id": "5576",
    "ward_name": "IBOKO/EFAKWU",
    "local_government_id": "482",
    "local_government_name": "OFU",
    "state_id": "22",
    "state_name": "KOGI",
    "location": null
  },
  {
    "id": "107920",
    "name": "LGEA SCH, AJODI/AGOJEJU IKONA, OJAPATA, AJODI",
    "registration_area_id": "5576",
    "precise_location": null,
    "abbreviation": "004",
    "units": "004",
    "delimitation": "22/14/11/004",
    "remark": "EXISTING PU",
    "ward_id": "5576",
    "ward_name": "IBOKO/EFAKWU",
    "local_government_id": "482",
    "local_government_name": "OFU",
    "state_id": "22",
    "state_name": "KOGI",
    "location": {
      "latitude": 7.6780532,
      "longitude": 6.4160552,
      "viewport": {
        "northeast": {
          "lat": 7.679424079892721,
          "lng": 6.417480179892721
        },
        "southwest": {
          "lat": 7.676724420107277,
          "lng": 6.414780520107278
        }
      },
      "formatted_address": "MCH8+6CF, 264103, Osara, Nigeria",
      "google_map_url": "https://maps.google.com?q=7.6780532,6.4160552",
      "google_place_id": "ChIJ-_-BhiT-RRARPIaqmDF37Sk"
    }
  },
  {
    "id": "107921",
    "name": "LGEA SCH. UGBAMAKA/EFAKWU/UGBAMAKA 1 & 2",
    "registration_area_id": "5576",
    "precise_location": null,
    "abbreviation": "005",
    "units": "005",
    "delimitation": "22/14/11/005",
    "remark": "EXISTING PU",
    "ward_id": "5576",
    "ward_name": "IBOKO/EFAKWU",
    "local_government_id": "482",
    "local_government_name": "OFU",
    "state_id": "22",
    "state_name": "KOGI",
    "location": null
  },
  {
    "id": "107922",
    "name": "TOWN HALL FIELD/ALODO, ANIKE",
    "registration_area_id": "5576",
    "precise_location": null,
    "abbreviation": "006",
    "units": "006",
    "delimitation": "22/14/11/006",
    "remark": "EXISTING PU",
    "ward_id": "5576",
    "ward_name": "IBOKO/EFAKWU",
    "local_government_id": "482",
    "local_government_name": "OFU",
    "state_id": "22",
    "state_name": "KOGI",
    "location": {
      "latitude": 7.1170512,
      "longitude": 6.733966400000001,
      "viewport": {
        "northeast": {
          "lat": 7.118276079892722,
          "lng": 6.735451629892722
        },
        "southwest": {
          "lat": 7.115576420107279,
          "lng": 6.732751970107278
        }
      },
      "formatted_address": "giri abuja idah local govenment, Idah, Nigeria",
      "google_map_url": "https://maps.google.com?q=7.1170512,6.733966400000001",
      "google_place_id": "ChIJZ5AQIRHKRRARm6Xax0gt8Oo"
    }
  },
  {
    "id": "107923",
    "name": "IGOTI CENTRE/IGOTI, EFILO",
    "registration_area_id": "5576",
    "precise_location": null,
    "abbreviation": "007",
    "units": "007",
    "delimitation": "22/14/11/007",
    "remark": "EXISTING PU",
    "ward_id": "5576",
    "ward_name": "IBOKO/EFAKWU",
    "local_government_id": "482",
    "local_government_name": "OFU",
    "state_id": "22",
    "state_name": "KOGI",
    "location": null
  },
  {
    "id": "107924",
    "name": "LGEA SCH. ATIYA/ATIYA, OGO",
    "registration_area_id": "5576",
    "precise_location": null,
    "abbreviation": "008",
    "units": "008",
    "delimitation": "22/14/11/008",
    "remark": "EXISTING PU",
    "ward_id": "5576",
    "ward_name": "IBOKO/EFAKWU",
    "local_government_id": "482",
    "local_government_name": "OFU",
    "state_id": "22",
    "state_name": "KOGI",
    "location": {
      "latitude": 7.6780532,
      "longitude": 6.4160552,
      "viewport": {
        "northeast": {
          "lat": 7.679424079892721,
          "lng": 6.417480179892721
        },
        "southwest": {
          "lat": 7.676724420107277,
          "lng": 6.414780520107278
        }
      },
      "formatted_address": "MCH8+6CF, 264103, Osara, Nigeria",
      "google_map_url": "https://maps.google.com?q=7.6780532,6.4160552",
      "google_place_id": "ChIJ-_-BhiT-RRARPIaqmDF37Sk"
    }
  },
  {
    "id": "107925",
    "name": "LGEA SCH. OHIELEWU/OHIELEWU",
    "registration_area_id": "5576",
    "precise_location": null,
    "abbreviation": "009",
    "units": "009",
    "delimitation": "22/14/11/009",
    "remark": "EXISTING PU",
    "ward_id": "5576",
    "ward_name": "IBOKO/EFAKWU",
    "local_government_id": "482",
    "local_government_name": "OFU",
    "state_id": "22",
    "state_name": "KOGI",
    "location": {
      "latitude": 7.3819795,
      "longitude": 7.1246323,
      "viewport": {
        "northeast": {
          "lat": 7.38336022989272,
          "lng": 7.125995729892721
        },
        "southwest": {
          "lat": 7.380660570107276,
          "lng": 7.123296070107277
        }
      },
      "formatted_address": "94JF+QRH, 271106, Sanioko, Nigeria",
      "google_map_url": "https://maps.google.com?q=7.3819795,7.1246323",
      "google_place_id": "ChIJmVfHrzJ1RRARIsYtYxLuqJs"
    }
  },
  {
    "id": "107926",
    "name": "LGEA SCH. AGOJEJU/ATE AKPOTO",
    "registration_area_id": "5576",
    "precise_location": null,
    "abbreviation": "010",
    "units": "010",
    "delimitation": "22/14/11/010",
    "remark": "EXISTING PU",
    "ward_id": "5576",
    "ward_name": "IBOKO/EFAKWU",
    "local_government_id": "482",
    "local_government_name": "OFU",
    "state_id": "22",
    "state_name": "KOGI",
    "location": {
      "latitude": 7.3819795,
      "longitude": 7.1246323,
      "viewport": {
        "northeast": {
          "lat": 7.38336022989272,
          "lng": 7.125995729892721
        },
        "southwest": {
          "lat": 7.380660570107276,
          "lng": 7.123296070107277
        }
      },
      "formatted_address": "94JF+QRH, 271106, Sanioko, Nigeria",
      "google_map_url": "https://maps.google.com?q=7.3819795,7.1246323",
      "google_place_id": "ChIJmVfHrzJ1RRARIsYtYxLuqJs"
    }
  },
  {
    "id": "107927",
    "name": "COMMUNITY SEC. SCH. ATE-ANEDE",
    "registration_area_id": "5576",
    "precise_location": null,
    "abbreviation": "011",
    "units": "011",
    "delimitation": "22/14/11/011",
    "remark": "NEW PU",
    "ward_id": "5576",
    "ward_name": "IBOKO/EFAKWU",
    "local_government_id": "482",
    "local_government_name": "OFU",
    "state_id": "22",
    "state_name": "KOGI",
    "location": {
      "latitude": 7.365807599999999,
      "longitude": 7.1129457,
      "viewport": {
        "northeast": {
          "lat": 7.36680862989272,
          "lng": 7.113907929892721
        },
        "southwest": {
          "lat": 7.364108970107276,
          "lng": 7.111208270107277
        }
      },
      "formatted_address": "9487+85J, 271106, Ejule, Nigeria",
      "google_map_url": "https://maps.google.com?q=7.365807599999999,7.1129457",
      "google_place_id": "ChIJA6Md5TULRRARmIqULFrjMvk"
    }
  },
  {
    "id": "107928",
    "name": "ETIFOJA AGOJEJU",
    "registration_area_id": "5576",
    "precise_location": null,
    "abbreviation": "012",
    "units": "012",
    "delimitation": "22/14/11/012",
    "remark": "NEW PU",
    "ward_id": "5576",
    "ward_name": "IBOKO/EFAKWU",
    "local_government_id": "482",
    "local_government_name": "OFU",
    "state_id": "22",
    "state_name": "KOGI",
    "location": {
      "latitude": 7.2735472,
      "longitude": 7.1574784,
      "viewport": {
        "northeast": {
          "lat": 7.367584899999999,
          "lng": 7.212631900000001
        },
        "southwest": {
          "lat": 7.236074599999998,
          "lng": 7.1114693
        }
      },
      "formatted_address": "Iboko/Efakwu, Nigeria",
      "google_map_url": "https://maps.google.com?q=7.2735472,7.1574784",
      "google_place_id": "ChIJnz4bl-YLRRARbKpKIj7tGgU"
    }
  }
]