[
  {
    "id": "104471",
    "name": "DOKA PRIMARY SCHOOL (DOKA)",
    "registration_area_id": "5355",
    "precise_location": null,
    "abbreviation": "001",
    "units": "001",
    "delimitation": "21/16/03/001",
    "remark": "EXISTING PU",
    "ward_id": "5355",
    "ward_name": "DOKA/BERE",
    "local_government_id": "463",
    "local_government_name": "SAKABA",
    "state_id": "21",
    "state_name": "KEBBI",
    "location": null
  },
  {
    "id": "104472",
    "name": "UNG. MANGA PRIMARY SCHOOL (UNG. MANGA)",
    "registration_area_id": "5355",
    "precise_location": null,
    "abbreviation": "002",
    "units": "002",
    "delimitation": "21/16/03/002",
    "remark": "EXISTING PU",
    "ward_id": "5355",
    "ward_name": "DOKA/BERE",
    "local_government_id": "463",
    "local_government_name": "SAKABA",
    "state_id": "21",
    "state_name": "KEBBI",
    "location": {
      "latitude": 11.1816057,
      "longitude": 4.1208125,
      "viewport": {
        "northeast": {
          "lat": 11.18295177989272,
          "lng": 4.122142929892723
        },
        "southwest": {
          "lat": 11.18025212010728,
          "lng": 4.119443270107279
        }
      },
      "formatted_address": "54JC+J7X, Kaoje Bagudo local government, Kaoge, Nigeria",
      "google_map_url": "https://maps.google.com?q=11.1816057,4.1208125",
      "google_place_id": "ChIJQ8r1f00MyxERoTZnZf0W9CI"
    }
  },
  {
    "id": "104473",
    "name": "RUKUKUJI PRIMARY SCHOOL (RUKURKUJI)",
    "registration_area_id": "5355",
    "precise_location": null,
    "abbreviation": "003",
    "units": "003",
    "delimitation": "21/16/03/003",
    "remark": "EXISTING PU",
    "ward_id": "5355",
    "ward_name": "DOKA/BERE",
    "local_government_id": "463",
    "local_government_name": "SAKABA",
    "state_id": "21",
    "state_name": "KEBBI",
    "location": {
      "latitude": 12.4530713,
      "longitude": 4.1902307,
      "viewport": {
        "northeast": {
          "lat": 12.45471137989272,
          "lng": 4.191531279892722
        },
        "southwest": {
          "lat": 12.45201172010728,
          "lng": 4.188831620107278
        }
      },
      "formatted_address": "F53R+63H, 860101, Birnin Kebbi, Nigeria",
      "google_map_url": "https://maps.google.com?q=12.4530713,4.1902307",
      "google_place_id": "ChIJSzyc9ysTyRERxNr7mwE7hVQ"
    }
  },
  {
    "id": "104474",
    "name": "MARI PRIMARY SCHOOL (GARKAR MARI)",
    "registration_area_id": "5355",
    "precise_location": null,
    "abbreviation": "004",
    "units": "004",
    "delimitation": "21/16/03/004",
    "remark": "EXISTING PU",
    "ward_id": "5355",
    "ward_name": "DOKA/BERE",
    "local_government_id": "463",
    "local_government_name": "SAKABA",
    "state_id": "21",
    "state_name": "KEBBI",
    "location": {
      "latitude": 12.4530713,
      "longitude": 4.1902307,
      "viewport": {
        "northeast": {
          "lat": 12.45471137989272,
          "lng": 4.191531279892722
        },
        "southwest": {
          "lat": 12.45201172010728,
          "lng": 4.188831620107278
        }
      },
      "formatted_address": "F53R+63H, 860101, Birnin Kebbi, Nigeria",
      "google_map_url": "https://maps.google.com?q=12.4530713,4.1902307",
      "google_place_id": "ChIJSzyc9ysTyRERxNr7mwE7hVQ"
    }
  },
  {
    "id": "104475",
    "name": "OPEN SPACE (GARKAR GUJIYA)",
    "registration_area_id": "5355",
    "precise_location": null,
    "abbreviation": "005",
    "units": "005",
    "delimitation": "21/16/03/005",
    "remark": "EXISTING PU",
    "ward_id": "5355",
    "ward_name": "DOKA/BERE",
    "local_government_id": "463",
    "local_government_name": "SAKABA",
    "state_id": "21",
    "state_name": "KEBBI",
    "location": null
  },
  {
    "id": "104476",
    "name": "TUNGAN BERE BINDI (TUNGAN BERE DINDI)",
    "registration_area_id": "5355",
    "precise_location": null,
    "abbreviation": "006",
    "units": "006",
    "delimitation": "21/16/03/006",
    "remark": "EXISTING PU",
    "ward_id": "5355",
    "ward_name": "DOKA/BERE",
    "local_government_id": "463",
    "local_government_name": "SAKABA",
    "state_id": "21",
    "state_name": "KEBBI",
    "location": null
  },
  {
    "id": "104477",
    "name": "BERE PRIMARY SCHOOL (BERE)",
    "registration_area_id": "5355",
    "precise_location": null,
    "abbreviation": "007",
    "units": "007",
    "delimitation": "21/16/03/007",
    "remark": "EXISTING PU",
    "ward_id": "5355",
    "ward_name": "DOKA/BERE",
    "local_government_id": "463",
    "local_government_name": "SAKABA",
    "state_id": "21",
    "state_name": "KEBBI",
    "location": {
      "latitude": 50.4818934,
      "longitude": -4.194624699999999,
      "viewport": {
        "northeast": {
          "lat": 50.48309242989271,
          "lng": -4.193392520107277
        },
        "southwest": {
          "lat": 50.48039277010727,
          "lng": -4.196092179892721
        }
      },
      "formatted_address": "Station Rd, Bere Alston, Yelverton PL20 7AU, United Kingdom",
      "google_map_url": "https://maps.google.com?q=50.4818934,-4.194624699999999",
      "google_place_id": "ChIJkYsEpf2MbEgRqQqOG7NIlBo"
    }
  },
  {
    "id": "104478",
    "name": "P.H.C DOKA",
    "registration_area_id": "5355",
    "precise_location": null,
    "abbreviation": "008",
    "units": "008",
    "delimitation": "21/16/03/008",
    "remark": "NEW PU",
    "ward_id": "5355",
    "ward_name": "DOKA/BERE",
    "local_government_id": "463",
    "local_government_name": "SAKABA",
    "state_id": "21",
    "state_name": "KEBBI",
    "location": {
      "latitude": 12.433839,
      "longitude": 4.188951,
      "viewport": {
        "northeast": {
          "lat": 12.43571687989272,
          "lng": 4.190160429892721
        },
        "southwest": {
          "lat": 12.43301722010728,
          "lng": 4.187460770107277
        }
      },
      "formatted_address": "860101, Birnin Kebbi, Nigeria",
      "google_map_url": "https://maps.google.com?q=12.433839,4.188951",
      "google_place_id": "ChIJBd52NxwTyRERt6livGgCyRc"
    }
  }
]