[
  {
    "id": "106278",
    "name": "OGANE IYALE ULAJA ROAD IYALE",
    "registration_area_id": "5464",
    "precise_location": null,
    "abbreviation": "001",
    "units": "001",
    "delimitation": "22/05/02/001",
    "remark": "EXISTING PU",
    "ward_id": "5464",
    "ward_name": "IYALE",
    "local_government_id": "473",
    "local_government_name": "DEKINA",
    "state_id": "22",
    "state_name": "KOGI",
    "location": null
  },
  {
    "id": "106279",
    "name": "ATE OJUWO LGEA SCHOOL",
    "registration_area_id": "5464",
    "precise_location": null,
    "abbreviation": "002",
    "units": "002",
    "delimitation": "22/05/02/002",
    "remark": "EXISTING PU",
    "ward_id": "5464",
    "ward_name": "IYALE",
    "local_government_id": "473",
    "local_government_name": "DEKINA",
    "state_id": "22",
    "state_name": "KOGI",
    "location": {
      "latitude": 7.6401552,
      "longitude": 7.438102100000001,
      "viewport": {
        "northeast": {
          "lat": 7.641480529892722,
          "lng": 7.439426279892722
        },
        "southwest": {
          "lat": 7.638780870107278,
          "lng": 7.436726620107279
        }
      },
      "formatted_address": "JCRQ+369, 272101, Oje, Nigeria",
      "google_map_url": "https://maps.google.com?q=7.6401552,7.438102100000001",
      "google_place_id": "ChIJExtl_algRRARYK4zDfniuf0"
    }
  },
  {
    "id": "106280",
    "name": "ETIAJA MAIN MARKET IYALE",
    "registration_area_id": "5464",
    "precise_location": null,
    "abbreviation": "003",
    "units": "003",
    "delimitation": "22/05/02/003",
    "remark": "EXISTING PU",
    "ward_id": "5464",
    "ward_name": "IYALE",
    "local_government_id": "473",
    "local_government_name": "DEKINA",
    "state_id": "22",
    "state_name": "KOGI",
    "location": null
  },
  {
    "id": "106281",
    "name": "OWALA IYALE OPEN SPACE",
    "registration_area_id": "5464",
    "precise_location": null,
    "abbreviation": "004",
    "units": "004",
    "delimitation": "22/05/02/004",
    "remark": "EXISTING PU",
    "ward_id": "5464",
    "ward_name": "IYALE",
    "local_government_id": "473",
    "local_government_name": "DEKINA",
    "state_id": "22",
    "state_name": "KOGI",
    "location": null
  },
  {
    "id": "106282",
    "name": "AJEDIME OPPOSITE WATER PUMP",
    "registration_area_id": "5464",
    "precise_location": null,
    "abbreviation": "005",
    "units": "005",
    "delimitation": "22/05/02/005",
    "remark": "EXISTING PU",
    "ward_id": "5464",
    "ward_name": "IYALE",
    "local_government_id": "473",
    "local_government_name": "DEKINA",
    "state_id": "22",
    "state_name": "KOGI",
    "location": {
      "latitude": 7.732109599999998,
      "longitude": 6.7432574,
      "viewport": {
        "northeast": {
          "lat": 7.73351917989272,
          "lng": 6.74461772989272
        },
        "southwest": {
          "lat": 7.730819520107276,
          "lng": 6.741918070107277
        }
      },
      "formatted_address": "PPJV+R8J, 263106, Lokoja, Nigeria",
      "google_map_url": "https://maps.google.com?q=7.732109599999998,6.7432574",
      "google_place_id": "ChIJ2yiNYCFfTxARY6KedxC4Fv0"
    }
  },
  {
    "id": "106283",
    "name": "UGBABO OJODA MARKET SQUARE",
    "registration_area_id": "5464",
    "precise_location": null,
    "abbreviation": "006",
    "units": "006",
    "delimitation": "22/05/02/006",
    "remark": "EXISTING PU",
    "ward_id": "5464",
    "ward_name": "IYALE",
    "local_government_id": "473",
    "local_government_name": "DEKINA",
    "state_id": "22",
    "state_name": "KOGI",
    "location": {
      "latitude": 7.8007226,
      "longitude": 7.3204917,
      "viewport": {
        "northeast": {
          "lat": 7.802079979892722,
          "lng": 7.321812029892723
        },
        "southwest": {
          "lat": 7.799380320107278,
          "lng": 7.31911237010728
        }
      },
      "formatted_address": "R82C+75Q, 272101, Aloko, Nigeria",
      "google_map_url": "https://maps.google.com?q=7.8007226,7.3204917",
      "google_place_id": "ChIJDxzPyjGJTxARJL2itBmji0g"
    }
  },
  {
    "id": "106284",
    "name": "ULAJA, OPEN SPACE",
    "registration_area_id": "5464",
    "precise_location": null,
    "abbreviation": "007",
    "units": "007",
    "delimitation": "22/05/02/007",
    "remark": "EXISTING PU",
    "ward_id": "5464",
    "ward_name": "IYALE",
    "local_government_id": "473",
    "local_government_name": "DEKINA",
    "state_id": "22",
    "state_name": "KOGI",
    "location": {
      "latitude": 7.8023256,
      "longitude": 6.733435,
      "viewport": {
        "northeast": {
          "lat": 7.803590029892721,
          "lng": 6.734788679892723
        },
        "southwest": {
          "lat": 7.800890370107277,
          "lng": 6.732089020107279
        }
      },
      "formatted_address": "Suit 14, Lokongoma Plaza Lokoja, 260101, Lokoja, Nigeria",
      "google_map_url": "https://maps.google.com?q=7.8023256,6.733435",
      "google_place_id": "ChIJ7yjgfhhfTxAR1DAbwm2zN-w"
    }
  },
  {
    "id": "106285",
    "name": "ETUTEKPE ANGWA I MARKET SQUARE",
    "registration_area_id": "5464",
    "precise_location": null,
    "abbreviation": "008",
    "units": "008",
    "delimitation": "22/05/02/008",
    "remark": "EXISTING PU",
    "ward_id": "5464",
    "ward_name": "IYALE",
    "local_government_id": "473",
    "local_government_name": "DEKINA",
    "state_id": "22",
    "state_name": "KOGI",
    "location": null
  },
  {
    "id": "106286",
    "name": "ATE-UGE,OPEN SPACE",
    "registration_area_id": "5464",
    "precise_location": null,
    "abbreviation": "009",
    "units": "009",
    "delimitation": "22/05/02/009",
    "remark": "EXISTING PU",
    "ward_id": "5464",
    "ward_name": "IYALE",
    "local_government_id": "473",
    "local_government_name": "DEKINA",
    "state_id": "22",
    "state_name": "KOGI",
    "location": {
      "latitude": 7.8023256,
      "longitude": 6.733435,
      "viewport": {
        "northeast": {
          "lat": 7.803590029892721,
          "lng": 6.734788679892723
        },
        "southwest": {
          "lat": 7.800890370107277,
          "lng": 6.732089020107279
        }
      },
      "formatted_address": "Suit 14, Lokongoma Plaza Lokoja, 260101, Lokoja, Nigeria",
      "google_map_url": "https://maps.google.com?q=7.8023256,6.733435",
      "google_place_id": "ChIJ7yjgfhhfTxAR1DAbwm2zN-w"
    }
  },
  {
    "id": "106287",
    "name": "ADUMU AJADIKE, OPEN SPACE",
    "registration_area_id": "5464",
    "precise_location": null,
    "abbreviation": "010",
    "units": "010",
    "delimitation": "22/05/02/010",
    "remark": "EXISTING PU",
    "ward_id": "5464",
    "ward_name": "IYALE",
    "local_government_id": "473",
    "local_government_name": "DEKINA",
    "state_id": "22",
    "state_name": "KOGI",
    "location": {
      "latitude": 7.485843699999999,
      "longitude": 7.187395599999999,
      "viewport": {
        "northeast": {
          "lat": 7.487135729892722,
          "lng": 7.188881829892721
        },
        "southwest": {
          "lat": 7.484436070107278,
          "lng": 7.186182170107277
        }
      },
      "formatted_address": "University, Anyigba, Nigeria",
      "google_map_url": "https://maps.google.com?q=7.485843699999999,7.187395599999999",
      "google_place_id": "ChIJ8Sc_5nsLThARDZHeroLI0Bc"
    }
  },
  {
    "id": "106288",
    "name": "IKPAKPALA LGEA PRIMARY SCHOOL",
    "registration_area_id": "5464",
    "precise_location": null,
    "abbreviation": "011",
    "units": "011",
    "delimitation": "22/05/02/011",
    "remark": "EXISTING PU",
    "ward_id": "5464",
    "ward_name": "IYALE",
    "local_government_id": "473",
    "local_government_name": "DEKINA",
    "state_id": "22",
    "state_name": "KOGI",
    "location": {
      "latitude": 7.845434499999999,
      "longitude": 6.7487745,
      "viewport": {
        "northeast": {
          "lat": 7.846787479892722,
          "lng": 6.750067479892722
        },
        "southwest": {
          "lat": 7.844087820107278,
          "lng": 6.747367820107278
        }
      },
      "formatted_address": "RPWX+5GC, 260101, Lokoja, Nigeria",
      "google_map_url": "https://maps.google.com?q=7.845434499999999,6.7487745",
      "google_place_id": "ChIJ1cLw-IldTxARKpxoidxdtBU"
    }
  },
  {
    "id": "106289",
    "name": "ATOCHI ,OPEN SPACE",
    "registration_area_id": "5464",
    "precise_location": null,
    "abbreviation": "012",
    "units": "012",
    "delimitation": "22/05/02/012",
    "remark": "EXISTING PU",
    "ward_id": "5464",
    "ward_name": "IYALE",
    "local_government_id": "473",
    "local_government_name": "DEKINA",
    "state_id": "22",
    "state_name": "KOGI",
    "location": {
      "latitude": 7.8023256,
      "longitude": 6.733435,
      "viewport": {
        "northeast": {
          "lat": 7.803590029892721,
          "lng": 6.734788679892723
        },
        "southwest": {
          "lat": 7.800890370107277,
          "lng": 6.732089020107279
        }
      },
      "formatted_address": "Suit 14, Lokongoma Plaza Lokoja, 260101, Lokoja, Nigeria",
      "google_map_url": "https://maps.google.com?q=7.8023256,6.733435",
      "google_place_id": "ChIJ7yjgfhhfTxAR1DAbwm2zN-w"
    }
  },
  {
    "id": "106290",
    "name": "AJIDENYI, OPEN SPACE",
    "registration_area_id": "5464",
    "precise_location": null,
    "abbreviation": "013",
    "units": "013",
    "delimitation": "22/05/02/013",
    "remark": "EXISTING PU",
    "ward_id": "5464",
    "ward_name": "IYALE",
    "local_government_id": "473",
    "local_government_name": "DEKINA",
    "state_id": "22",
    "state_name": "KOGI",
    "location": {
      "latitude": 7.524473299999999,
      "longitude": 7.163939999999998,
      "viewport": {
        "northeast": {
          "lat": 7.52574612989272,
          "lng": 7.165339179892722
        },
        "southwest": {
          "lat": 7.523046470107277,
          "lng": 7.162639520107279
        }
      },
      "formatted_address": "G5F7+QHP, 272102, Anyigba, Nigeria",
      "google_map_url": "https://maps.google.com?q=7.524473299999999,7.163939999999998",
      "google_place_id": "ChIJ9Qf9VA13RRAR8aLdI5ag7ps"
    }
  },
  {
    "id": "106291",
    "name": "OLOGBA I G.S.S. OLOGBA",
    "registration_area_id": "5464",
    "precise_location": null,
    "abbreviation": "014",
    "units": "014",
    "delimitation": "22/05/02/014",
    "remark": "EXISTING PU",
    "ward_id": "5464",
    "ward_name": "IYALE",
    "local_government_id": "473",
    "local_government_name": "DEKINA",
    "state_id": "22",
    "state_name": "KOGI",
    "location": {
      "latitude": 7.616584100000001,
      "longitude": 7.2281827,
      "viewport": {
        "northeast": {
          "lat": 7.617950979892723,
          "lng": 7.229551829892723
        },
        "southwest": {
          "lat": 7.615251320107279,
          "lng": 7.226852170107279
        }
      },
      "formatted_address": "ALONG ABEJUKOLO RD, AGBEJI 900284, Ologba, Nigeria",
      "google_map_url": "https://maps.google.com?q=7.616584100000001,7.2281827",
      "google_place_id": "ChIJhTehlYh7RRARpFpUZMLg7Sk"
    }
  },
  {
    "id": "106292",
    "name": "OLOGBA II LGEA PRIM. SCHOOL",
    "registration_area_id": "5464",
    "precise_location": null,
    "abbreviation": "015",
    "units": "015",
    "delimitation": "22/05/02/015",
    "remark": "EXISTING PU",
    "ward_id": "5464",
    "ward_name": "IYALE",
    "local_government_id": "473",
    "local_government_name": "DEKINA",
    "state_id": "22",
    "state_name": "KOGI",
    "location": {
      "latitude": 7.503582100000001,
      "longitude": 7.173434599999999,
      "viewport": {
        "northeast": {
          "lat": 7.504876029892722,
          "lng": 7.174827829892722
        },
        "southwest": {
          "lat": 7.502176370107278,
          "lng": 7.172128170107278
        }
      },
      "formatted_address": "G53F+C9P, 272102, Anyigba, Nigeria",
      "google_map_url": "https://maps.google.com?q=7.503582100000001,7.173434599999999",
      "google_place_id": "ChIJ7c9pm_V3RRARjxn_3wnzjGg"
    }
  },
  {
    "id": "106293",
    "name": "OLOGBA III LGEA PRIM. SCHOOL",
    "registration_area_id": "5464",
    "precise_location": null,
    "abbreviation": "016",
    "units": "016",
    "delimitation": "22/05/02/016",
    "remark": "EXISTING PU",
    "ward_id": "5464",
    "ward_name": "IYALE",
    "local_government_id": "473",
    "local_government_name": "DEKINA",
    "state_id": "22",
    "state_name": "KOGI",
    "location": {
      "latitude": 7.617724,
      "longitude": 7.826277,
      "viewport": {
        "northeast": {
          "lat": 7.619032129892721,
          "lng": 7.827517329892721
        },
        "southwest": {
          "lat": 7.616332470107277,
          "lng": 7.824817670107278
        }
      },
      "formatted_address": "6FV9JR9G+3GJ Olobadu Ojope, Ifoke, Nigeria",
      "google_map_url": "https://maps.google.com?q=7.617724,7.826277",
      "google_place_id": "ChIJz1zFHzatWhARhaY7hdKORJM"
    }
  },
  {
    "id": "106294",
    "name": "ETUTEKPE ANGWA II, OPEN SPACE",
    "registration_area_id": "5464",
    "precise_location": null,
    "abbreviation": "017",
    "units": "017",
    "delimitation": "22/05/02/017",
    "remark": "EXISTING PU",
    "ward_id": "5464",
    "ward_name": "IYALE",
    "local_government_id": "473",
    "local_government_name": "DEKINA",
    "state_id": "22",
    "state_name": "KOGI",
    "location": null
  },
  {
    "id": "106295",
    "name": "OPEN SPACE AJOGIJO ATA",
    "registration_area_id": "5464",
    "precise_location": null,
    "abbreviation": "018",
    "units": "018",
    "delimitation": "22/05/02/018",
    "remark": "NEW PU",
    "ward_id": "5464",
    "ward_name": "IYALE",
    "local_government_id": "473",
    "local_government_name": "DEKINA",
    "state_id": "22",
    "state_name": "KOGI",
    "location": {
      "latitude": 7.8023256,
      "longitude": 6.733435,
      "viewport": {
        "northeast": {
          "lat": 7.803590029892721,
          "lng": 6.734788679892723
        },
        "southwest": {
          "lat": 7.800890370107277,
          "lng": 6.732089020107279
        }
      },
      "formatted_address": "Suit 14, Lokongoma Plaza Lokoja, 260101, Lokoja, Nigeria",
      "google_map_url": "https://maps.google.com?q=7.8023256,6.733435",
      "google_place_id": "ChIJ7yjgfhhfTxAR1DAbwm2zN-w"
    }
  },
  {
    "id": "106296",
    "name": "OPEN SPACE ODOETITO",
    "registration_area_id": "5464",
    "precise_location": null,
    "abbreviation": "019",
    "units": "019",
    "delimitation": "22/05/02/019",
    "remark": "NEW PU",
    "ward_id": "5464",
    "ward_name": "IYALE",
    "local_government_id": "473",
    "local_government_name": "DEKINA",
    "state_id": "22",
    "state_name": "KOGI",
    "location": {
      "latitude": 7.8023256,
      "longitude": 6.733435,
      "viewport": {
        "northeast": {
          "lat": 7.803590029892721,
          "lng": 6.734788679892723
        },
        "southwest": {
          "lat": 7.800890370107277,
          "lng": 6.732089020107279
        }
      },
      "formatted_address": "Suit 14, Lokongoma Plaza Lokoja, 260101, Lokoja, Nigeria",
      "google_map_url": "https://maps.google.com?q=7.8023256,6.733435",
      "google_place_id": "ChIJ7yjgfhhfTxAR1DAbwm2zN-w"
    }
  },
  {
    "id": "106297",
    "name": "LGEA PRIMARY SCHOOL AGUDOKO IYALE",
    "registration_area_id": "5464",
    "precise_location": null,
    "abbreviation": "020",
    "units": "020",
    "delimitation": "22/05/02/020",
    "remark": "NEW PU",
    "ward_id": "5464",
    "ward_name": "IYALE",
    "local_government_id": "473",
    "local_government_name": "DEKINA",
    "state_id": "22",
    "state_name": "KOGI",
    "location": {
      "latitude": 7.503582100000001,
      "longitude": 7.173434599999999,
      "viewport": {
        "northeast": {
          "lat": 7.504876029892722,
          "lng": 7.174827829892722
        },
        "southwest": {
          "lat": 7.502176370107278,
          "lng": 7.172128170107278
        }
      },
      "formatted_address": "G53F+C9P, 272102, Anyigba, Nigeria",
      "google_map_url": "https://maps.google.com?q=7.503582100000001,7.173434599999999",
      "google_place_id": "ChIJ7c9pm_V3RRARjxn_3wnzjGg"
    }
  },
  {
    "id": "106298",
    "name": "OPEN SPACE OWALA OFABO",
    "registration_area_id": "5464",
    "precise_location": null,
    "abbreviation": "021",
    "units": "021",
    "delimitation": "22/05/02/021",
    "remark": "NEW PU",
    "ward_id": "5464",
    "ward_name": "IYALE",
    "local_government_id": "473",
    "local_government_name": "DEKINA",
    "state_id": "22",
    "state_name": "KOGI",
    "location": {
      "latitude": 7.8023256,
      "longitude": 6.733435,
      "viewport": {
        "northeast": {
          "lat": 7.803590029892721,
          "lng": 6.734788679892723
        },
        "southwest": {
          "lat": 7.800890370107277,
          "lng": 6.732089020107279
        }
      },
      "formatted_address": "Suit 14, Lokongoma Plaza Lokoja, 260101, Lokoja, Nigeria",
      "google_map_url": "https://maps.google.com?q=7.8023256,6.733435",
      "google_place_id": "ChIJ7yjgfhhfTxAR1DAbwm2zN-w"
    }
  },
  {
    "id": "106299",
    "name": "OPEN SPACE ERE-ANE",
    "registration_area_id": "5464",
    "precise_location": null,
    "abbreviation": "022",
    "units": "022",
    "delimitation": "22/05/02/022",
    "remark": "NEW PU",
    "ward_id": "5464",
    "ward_name": "IYALE",
    "local_government_id": "473",
    "local_government_name": "DEKINA",
    "state_id": "22",
    "state_name": "KOGI",
    "location": {
      "latitude": 7.4499702,
      "longitude": 7.1548565,
      "viewport": {
        "northeast": {
          "lat": 7.451325729892724,
          "lng": 7.156142279892721
        },
        "southwest": {
          "lat": 7.44862607010728,
          "lng": 7.153442620107277
        }
      },
      "formatted_address": "Local Government, Km 4 Anyigba, Ajaokuta - Ayangba Rd, 272101, Agbeji, Nigeria",
      "google_map_url": "https://maps.google.com?q=7.4499702,7.1548565",
      "google_place_id": "ChIJx0HYGmaBRRARovoJSVeX5fM"
    }
  },
  {
    "id": "106300",
    "name": "OPEN SPACE ATE IYALE OFE-ULOKO JUNCTION",
    "registration_area_id": "5464",
    "precise_location": null,
    "abbreviation": "023",
    "units": "023",
    "delimitation": "22/05/02/023",
    "remark": "NEW PU",
    "ward_id": "5464",
    "ward_name": "IYALE",
    "local_government_id": "473",
    "local_government_name": "DEKINA",
    "state_id": "22",
    "state_name": "KOGI",
    "location": {
      "latitude": 7.8023256,
      "longitude": 6.733435,
      "viewport": {
        "northeast": {
          "lat": 7.803590029892721,
          "lng": 6.734788679892723
        },
        "southwest": {
          "lat": 7.800890370107277,
          "lng": 6.732089020107279
        }
      },
      "formatted_address": "Suit 14, Lokongoma Plaza Lokoja, 260101, Lokoja, Nigeria",
      "google_map_url": "https://maps.google.com?q=7.8023256,6.733435",
      "google_place_id": "ChIJ7yjgfhhfTxAR1DAbwm2zN-w"
    }
  },
  {
    "id": "106301",
    "name": "LGEA PRIMARY SCHOOL ULAJA",
    "registration_area_id": "5464",
    "precise_location": null,
    "abbreviation": "024",
    "units": "024",
    "delimitation": "22/05/02/024",
    "remark": "NEW PU",
    "ward_id": "5464",
    "ward_name": "IYALE",
    "local_government_id": "473",
    "local_government_name": "DEKINA",
    "state_id": "22",
    "state_name": "KOGI",
    "location": {
      "latitude": 7.845434499999999,
      "longitude": 6.7487745,
      "viewport": {
        "northeast": {
          "lat": 7.846787479892722,
          "lng": 6.750067479892722
        },
        "southwest": {
          "lat": 7.844087820107278,
          "lng": 6.747367820107278
        }
      },
      "formatted_address": "RPWX+5GC, 260101, Lokoja, Nigeria",
      "google_map_url": "https://maps.google.com?q=7.845434499999999,6.7487745",
      "google_place_id": "ChIJ1cLw-IldTxARKpxoidxdtBU"
    }
  },
  {
    "id": "106302",
    "name": "LGEA PRIMARY SCHOOL ETUTU-EKPE",
    "registration_area_id": "5464",
    "precise_location": null,
    "abbreviation": "025",
    "units": "025",
    "delimitation": "22/05/02/025",
    "remark": "NEW PU",
    "ward_id": "5464",
    "ward_name": "IYALE",
    "local_government_id": "473",
    "local_government_name": "DEKINA",
    "state_id": "22",
    "state_name": "KOGI",
    "location": {
      "latitude": 7.561384499999999,
      "longitude": 6.242967800000001,
      "viewport": {
        "northeast": {
          "lat": 7.562691479892721,
          "lng": 6.244417629892722
        },
        "southwest": {
          "lat": 7.559991820107277,
          "lng": 6.241717970107278
        }
      },
      "formatted_address": "H66V+H54, beside Dehiro Hotel INIKE, 264103, Okene, Nigeria",
      "google_map_url": "https://maps.google.com?q=7.561384499999999,6.242967800000001",
      "google_place_id": "ChIJq6qqqv4PRhARbOYs8LHsn-U"
    }
  },
  {
    "id": "106303",
    "name": "OPEN SPACE AYE UGE II",
    "registration_area_id": "5464",
    "precise_location": null,
    "abbreviation": "026",
    "units": "026",
    "delimitation": "22/05/02/026",
    "remark": "NEW PU",
    "ward_id": "5464",
    "ward_name": "IYALE",
    "local_government_id": "473",
    "local_government_name": "DEKINA",
    "state_id": "22",
    "state_name": "KOGI",
    "location": {
      "latitude": 7.485843699999999,
      "longitude": 7.187395599999999,
      "viewport": {
        "northeast": {
          "lat": 7.487135729892722,
          "lng": 7.188881829892721
        },
        "southwest": {
          "lat": 7.484436070107278,
          "lng": 7.186182170107277
        }
      },
      "formatted_address": "University, Anyigba, Nigeria",
      "google_map_url": "https://maps.google.com?q=7.485843699999999,7.187395599999999",
      "google_place_id": "ChIJ8Sc_5nsLThARDZHeroLI0Bc"
    }
  },
  {
    "id": "106304",
    "name": "OPEN SPACE OLD MOTOR PARK IKPAKPALA",
    "registration_area_id": "5464",
    "precise_location": null,
    "abbreviation": "027",
    "units": "027",
    "delimitation": "22/05/02/027",
    "remark": "NEW PU",
    "ward_id": "5464",
    "ward_name": "IYALE",
    "local_government_id": "473",
    "local_government_name": "DEKINA",
    "state_id": "22",
    "state_name": "KOGI",
    "location": {
      "latitude": 7.478229699999999,
      "longitude": 7.248401599999999,
      "viewport": {
        "northeast": {
          "lat": 7.479581529892723,
          "lng": 7.249773879892722
        },
        "southwest": {
          "lat": 7.476881870107279,
          "lng": 7.247074220107279
        }
      },
      "formatted_address": "F6HX+79R, 272101, Anyigba, Nigeria",
      "google_map_url": "https://maps.google.com?q=7.478229699999999,7.248401599999999",
      "google_place_id": "ChIJoe4uzu1xRRAR9TtXovwplMQ"
    }
  },
  {
    "id": "106305",
    "name": "OPEN SPACE AJIGBEGWU",
    "registration_area_id": "5464",
    "precise_location": null,
    "abbreviation": "028",
    "units": "028",
    "delimitation": "22/05/02/028",
    "remark": "NEW PU",
    "ward_id": "5464",
    "ward_name": "IYALE",
    "local_government_id": "473",
    "local_government_name": "DEKINA",
    "state_id": "22",
    "state_name": "KOGI",
    "location": {
      "latitude": 7.485843699999999,
      "longitude": 7.187395599999999,
      "viewport": {
        "northeast": {
          "lat": 7.487135729892722,
          "lng": 7.188881829892721
        },
        "southwest": {
          "lat": 7.484436070107278,
          "lng": 7.186182170107277
        }
      },
      "formatted_address": "University, Anyigba, Nigeria",
      "google_map_url": "https://maps.google.com?q=7.485843699999999,7.187395599999999",
      "google_place_id": "ChIJ8Sc_5nsLThARDZHeroLI0Bc"
    }
  },
  {
    "id": "106306",
    "name": "OPEN SPACE OFE-ULOKO EFIKPO",
    "registration_area_id": "5464",
    "precise_location": null,
    "abbreviation": "029",
    "units": "029",
    "delimitation": "22/05/02/029",
    "remark": "NEW PU",
    "ward_id": "5464",
    "ward_name": "IYALE",
    "local_government_id": "473",
    "local_government_name": "DEKINA",
    "state_id": "22",
    "state_name": "KOGI",
    "location": {
      "latitude": 7.8023256,
      "longitude": 6.733435,
      "viewport": {
        "northeast": {
          "lat": 7.803590029892721,
          "lng": 6.734788679892723
        },
        "southwest": {
          "lat": 7.800890370107277,
          "lng": 6.732089020107279
        }
      },
      "formatted_address": "Suit 14, Lokongoma Plaza Lokoja, 260101, Lokoja, Nigeria",
      "google_map_url": "https://maps.google.com?q=7.8023256,6.733435",
      "google_place_id": "ChIJ7yjgfhhfTxAR1DAbwm2zN-w"
    }
  },
  {
    "id": "106307",
    "name": "OPEN SPACE AGBEJI OCHELE ROAD",
    "registration_area_id": "5464",
    "precise_location": null,
    "abbreviation": "030",
    "units": "030",
    "delimitation": "22/05/02/030",
    "remark": "NEW PU",
    "ward_id": "5464",
    "ward_name": "IYALE",
    "local_government_id": "473",
    "local_government_name": "DEKINA",
    "state_id": "22",
    "state_name": "KOGI",
    "location": {
      "latitude": 7.4499702,
      "longitude": 7.1548565,
      "viewport": {
        "northeast": {
          "lat": 7.451325729892724,
          "lng": 7.156142279892721
        },
        "southwest": {
          "lat": 7.44862607010728,
          "lng": 7.153442620107277
        }
      },
      "formatted_address": "Local Government, Km 4 Anyigba, Ajaokuta - Ayangba Rd, 272101, Agbeji, Nigeria",
      "google_map_url": "https://maps.google.com?q=7.4499702,7.1548565",
      "google_place_id": "ChIJx0HYGmaBRRARovoJSVeX5fM"
    }
  },
  {
    "id": "106308",
    "name": "OPEN SPACE ATANE, OLOGBA",
    "registration_area_id": "5464",
    "precise_location": null,
    "abbreviation": "031",
    "units": "031",
    "delimitation": "22/05/02/031",
    "remark": "NEW PU",
    "ward_id": "5464",
    "ward_name": "IYALE",
    "local_government_id": "473",
    "local_government_name": "DEKINA",
    "state_id": "22",
    "state_name": "KOGI",
    "location": {
      "latitude": 7.8023256,
      "longitude": 6.733435,
      "viewport": {
        "northeast": {
          "lat": 7.803590029892721,
          "lng": 6.734788679892723
        },
        "southwest": {
          "lat": 7.800890370107277,
          "lng": 6.732089020107279
        }
      },
      "formatted_address": "Suit 14, Lokongoma Plaza Lokoja, 260101, Lokoja, Nigeria",
      "google_map_url": "https://maps.google.com?q=7.8023256,6.733435",
      "google_place_id": "ChIJ7yjgfhhfTxAR1DAbwm2zN-w"
    }
  },
  {
    "id": "106309",
    "name": "OPEN SPACE OFE  ULE",
    "registration_area_id": "5464",
    "precise_location": null,
    "abbreviation": "032",
    "units": "032",
    "delimitation": "22/05/02/032",
    "remark": "NEW PU",
    "ward_id": "5464",
    "ward_name": "IYALE",
    "local_government_id": "473",
    "local_government_name": "DEKINA",
    "state_id": "22",
    "state_name": "KOGI",
    "location": {
      "latitude": 7.8023256,
      "longitude": 6.733435,
      "viewport": {
        "northeast": {
          "lat": 7.803590029892721,
          "lng": 6.734788679892723
        },
        "southwest": {
          "lat": 7.800890370107277,
          "lng": 6.732089020107279
        }
      },
      "formatted_address": "Suit 14, Lokongoma Plaza Lokoja, 260101, Lokoja, Nigeria",
      "google_map_url": "https://maps.google.com?q=7.8023256,6.733435",
      "google_place_id": "ChIJ7yjgfhhfTxAR1DAbwm2zN-w"
    }
  },
  {
    "id": "106310",
    "name": "OPEN SPACE ETUTU-EKPE ATE",
    "registration_area_id": "5464",
    "precise_location": null,
    "abbreviation": "033",
    "units": "033",
    "delimitation": "22/05/02/033",
    "remark": "NEW PU",
    "ward_id": "5464",
    "ward_name": "IYALE",
    "local_government_id": "473",
    "local_government_name": "DEKINA",
    "state_id": "22",
    "state_name": "KOGI",
    "location": null
  }
]