[
  {
    "id": "80727",
    "name": "KAKUDE  K/G MAIUNGUWA",
    "registration_area_id": "4237",
    "precise_location": null,
    "abbreviation": "001",
    "units": "001",
    "delimitation": "18/14/03/001",
    "remark": "EXISTING PU",
    "ward_id": "4237",
    "ward_name": "DAWAKI",
    "local_government_id": "360",
    "local_government_name": "KAURU",
    "state_id": "18",
    "state_name": "KADUNA",
    "location": {
      "latitude": 10.2543334,
      "longitude": 7.872159999999999,
      "viewport": {
        "northeast": {
          "lat": 10.5547094,
          "lng": 8.2174483
        },
        "southwest": {
          "lat": 10.0296421,
          "lng": 7.5642982
        }
      },
      "formatted_address": "Kauru, Nigeria",
      "google_map_url": "https://maps.google.com?q=10.2543334,7.872159999999999",
      "google_place_id": "ChIJTZoHhjakUhARuQTqKx025Po"
    }
  },
  {
    "id": "80728",
    "name": "KWARE DISPENSARY",
    "registration_area_id": "4237",
    "precise_location": null,
    "abbreviation": "002",
    "units": "002",
    "delimitation": "18/14/03/002",
    "remark": "EXISTING PU",
    "ward_id": "4237",
    "ward_name": "DAWAKI",
    "local_government_id": "360",
    "local_government_name": "KAURU",
    "state_id": "18",
    "state_name": "KADUNA",
    "location": {
      "latitude": 10.5270261,
      "longitude": 7.4683347,
      "viewport": {
        "northeast": {
          "lat": 10.52845852989272,
          "lng": 7.469690029892721
        },
        "southwest": {
          "lat": 10.52575887010728,
          "lng": 7.466990370107277
        }
      },
      "formatted_address": "u/k, Urimi Police Station, 2 Emir Rd, Ungwan Rimi 802125, Kaduna, Nigeria",
      "google_map_url": "https://maps.google.com?q=10.5270261,7.4683347",
      "google_place_id": "ChIJ8w5c_HNLTRARVfbKOVjr4IQ"
    }
  },
  {
    "id": "80729",
    "name": "KADAGE I L.E.A. PRY SCHOOL",
    "registration_area_id": "4237",
    "precise_location": null,
    "abbreviation": "003",
    "units": "003",
    "delimitation": "18/14/03/003",
    "remark": "EXISTING PU",
    "ward_id": "4237",
    "ward_name": "DAWAKI",
    "local_government_id": "360",
    "local_government_name": "KAURU",
    "state_id": "18",
    "state_name": "KADUNA",
    "location": {
      "latitude": 10.7167125,
      "longitude": 7.961499099999999,
      "viewport": {
        "northeast": {
          "lat": 10.71812397989272,
          "lng": 7.962910179892723
        },
        "southwest": {
          "lat": 10.71542432010728,
          "lng": 7.960210520107279
        }
      },
      "formatted_address": "7F29PX86+MHQ Kadage Gamagira Kaduna Bawa, Nigeria",
      "google_map_url": "https://maps.google.com?q=10.7167125,7.961499099999999",
      "google_place_id": "ChIJc9Ft1Z1FrRERWWKXZHvpQms"
    }
  },
  {
    "id": "80730",
    "name": "KADACEII  L.E.A. PRY SCHOOL",
    "registration_area_id": "4237",
    "precise_location": null,
    "abbreviation": "004",
    "units": "004",
    "delimitation": "18/14/03/004",
    "remark": "EXISTING PU",
    "ward_id": "4237",
    "ward_name": "DAWAKI",
    "local_government_id": "360",
    "local_government_name": "KAURU",
    "state_id": "18",
    "state_name": "KADUNA",
    "location": {
      "latitude": 10.3973509,
      "longitude": 8.4520818,
      "viewport": {
        "northeast": {
          "lat": 10.39868027989272,
          "lng": 8.453717979892723
        },
        "southwest": {
          "lat": 10.39598062010728,
          "lng": 8.451018320107279
        }
      },
      "formatted_address": "7F2C9FW2+VRR KUDURU GURE KAHUGU Kaduna, Ungwan Pa Hausawa, Nigeria",
      "google_map_url": "https://maps.google.com?q=10.3973509,8.4520818",
      "google_place_id": "ChIJhZKOtRLXUhARs5zCjeXWugo"
    }
  },
  {
    "id": "80731",
    "name": "MATARKAKO K/G MAIUNGUWA",
    "registration_area_id": "4237",
    "precise_location": null,
    "abbreviation": "005",
    "units": "005",
    "delimitation": "18/14/03/005",
    "remark": "EXISTING PU",
    "ward_id": "4237",
    "ward_name": "DAWAKI",
    "local_government_id": "360",
    "local_government_name": "KAURU",
    "state_id": "18",
    "state_name": "KADUNA",
    "location": {
      "latitude": 10.5278033,
      "longitude": 7.420698499999999,
      "viewport": {
        "northeast": {
          "lat": 10.52941307989272,
          "lng": 7.421885679892721
        },
        "southwest": {
          "lat": 10.52671342010728,
          "lng": 7.419186020107277
        }
      },
      "formatted_address": "Kaduna polytechnic Quarters, Tudun Wada, Kaduna, Nigeria",
      "google_map_url": "https://maps.google.com?q=10.5278033,7.420698499999999",
      "google_place_id": "ChIJza1CQTg1TRARx5c15PllRZs"
    }
  },
  {
    "id": "80732",
    "name": "MASAMA  K/GMAIUNGUWA",
    "registration_area_id": "4237",
    "precise_location": null,
    "abbreviation": "006",
    "units": "006",
    "delimitation": "18/14/03/006",
    "remark": "EXISTING PU",
    "ward_id": "4237",
    "ward_name": "DAWAKI",
    "local_government_id": "360",
    "local_government_name": "KAURU",
    "state_id": "18",
    "state_name": "KADUNA",
    "location": {
      "latitude": 10.3781039,
      "longitude": 8.265058,
      "viewport": {
        "northeast": {
          "lat": 10.5270253,
          "lng": 8.4216718
        },
        "southwest": {
          "lat": 10.2784793,
          "lng": 8.1702659
        }
      },
      "formatted_address": "Kwassam, 800106, Nigeria",
      "google_map_url": "https://maps.google.com?q=10.3781039,8.265058",
      "google_place_id": "ChIJ-QQwDxfOUhAR28637n8K2w0"
    }
  },
  {
    "id": "80733",
    "name": "KAN MAKAMA K/G MAIUNGUWA",
    "registration_area_id": "4237",
    "precise_location": null,
    "abbreviation": "007",
    "units": "007",
    "delimitation": "18/14/03/007",
    "remark": "EXISTING PU",
    "ward_id": "4237",
    "ward_name": "DAWAKI",
    "local_government_id": "360",
    "local_government_name": "KAURU",
    "state_id": "18",
    "state_name": "KADUNA",
    "location": {
      "latitude": 9.797742699999999,
      "longitude": 6.6011983,
      "viewport": {
        "northeast": {
          "lat": 9.7979801,
          "lng": 6.602990999999999
        },
        "southwest": {
          "lat": 9.7943689,
          "lng": 6.5996581
        }
      },
      "formatted_address": "920102, Ungwan Makama, Nigeria",
      "google_map_url": "https://maps.google.com?q=9.797742699999999,6.6011983",
      "google_place_id": "ChIJiYMDXudiTBARM0kQkL9HOkU"
    }
  },
  {
    "id": "80734",
    "name": "ANG/MAIJAMA.A K/GMAIUNGUWA",
    "registration_area_id": "4237",
    "precise_location": null,
    "abbreviation": "008",
    "units": "008",
    "delimitation": "18/14/03/008",
    "remark": "EXISTING PU",
    "ward_id": "4237",
    "ward_name": "DAWAKI",
    "local_government_id": "360",
    "local_government_name": "KAURU",
    "state_id": "18",
    "state_name": "KADUNA",
    "location": {
      "latitude": 10.53368,
      "longitude": 7.462009999999999,
      "viewport": {
        "northeast": {
          "lat": 10.53503612989272,
          "lng": 7.463394129892721
        },
        "southwest": {
          "lat": 10.53233647010728,
          "lng": 7.460694470107277
        }
      },
      "formatted_address": "# 11, Yakubu Avenue, Alkali Road, Unguwar Rimi GRA, Kaduna, Kaduna, Nigeria",
      "google_map_url": "https://maps.google.com?q=10.53368,7.462009999999999",
      "google_place_id": "ChIJhwUGGzW1shERCkVApJPCyys"
    }
  },
  {
    "id": "80735",
    "name": "TURUNKAWA  K/GMAIUNGUWA",
    "registration_area_id": "4237",
    "precise_location": null,
    "abbreviation": "009",
    "units": "009",
    "delimitation": "18/14/03/009",
    "remark": "EXISTING PU",
    "ward_id": "4237",
    "ward_name": "DAWAKI",
    "local_government_id": "360",
    "local_government_name": "KAURU",
    "state_id": "18",
    "state_name": "KADUNA",
    "location": {
      "latitude": 10.5278033,
      "longitude": 7.420698499999999,
      "viewport": {
        "northeast": {
          "lat": 10.52941307989272,
          "lng": 7.421885679892721
        },
        "southwest": {
          "lat": 10.52671342010728,
          "lng": 7.419186020107277
        }
      },
      "formatted_address": "Kaduna polytechnic Quarters, Tudun Wada, Kaduna, Nigeria",
      "google_map_url": "https://maps.google.com?q=10.5278033,7.420698499999999",
      "google_place_id": "ChIJza1CQTg1TRARx5c15PllRZs"
    }
  },
  {
    "id": "80736",
    "name": "ANG/MAITALATA  L.E.A. PRY SCHOOL",
    "registration_area_id": "4237",
    "precise_location": null,
    "abbreviation": "010",
    "units": "010",
    "delimitation": "18/14/03/010",
    "remark": "EXISTING PU",
    "ward_id": "4237",
    "ward_name": "DAWAKI",
    "local_government_id": "360",
    "local_government_name": "KAURU",
    "state_id": "18",
    "state_name": "KADUNA",
    "location": {
      "latitude": 10.7025397,
      "longitude": 8.0426091,
      "viewport": {
        "northeast": {
          "lat": 10.70388952989272,
          "lng": 8.043958929892725
        },
        "southwest": {
          "lat": 10.70118987010728,
          "lng": 8.041259270107279
        }
      },
      "formatted_address": "7F2CP23V+229 Kagadama Rahama Kaduna, Ungwan Mallam Amadu, Nigeria",
      "google_map_url": "https://maps.google.com?q=10.7025397,8.0426091",
      "google_place_id": "ChIJb388LVdFrRERN8AUZbl1JkE"
    }
  },
  {
    "id": "80737",
    "name": "MAJIDADI DISPENSARY",
    "registration_area_id": "4237",
    "precise_location": null,
    "abbreviation": "011",
    "units": "011",
    "delimitation": "18/14/03/011",
    "remark": "EXISTING PU",
    "ward_id": "4237",
    "ward_name": "DAWAKI",
    "local_government_id": "360",
    "local_government_name": "KAURU",
    "state_id": "18",
    "state_name": "KADUNA",
    "location": {
      "latitude": 10.5454471,
      "longitude": 7.4469956,
      "viewport": {
        "northeast": {
          "lat": 10.54687267989272,
          "lng": 7.44830522989272
        },
        "southwest": {
          "lat": 10.54417302010728,
          "lng": 7.445605570107277
        }
      },
      "formatted_address": "GCWW+5QH, Isa Kaita Road, City Centre 800283, Kaduna, Nigeria",
      "google_map_url": "https://maps.google.com?q=10.5454471,7.4469956",
      "google_place_id": "ChIJlWNh-1q1shERWSMfeQNJeUQ"
    }
  },
  {
    "id": "80738",
    "name": "WUGAMA  K/GMAIUNGUWA",
    "registration_area_id": "4237",
    "precise_location": null,
    "abbreviation": "012",
    "units": "012",
    "delimitation": "18/14/03/012",
    "remark": "EXISTING PU",
    "ward_id": "4237",
    "ward_name": "DAWAKI",
    "local_government_id": "360",
    "local_government_name": "KAURU",
    "state_id": "18",
    "state_name": "KADUNA",
    "location": {
      "latitude": 10.3781039,
      "longitude": 8.265058,
      "viewport": {
        "northeast": {
          "lat": 10.5270253,
          "lng": 8.4216718
        },
        "southwest": {
          "lat": 10.2784793,
          "lng": 8.1702659
        }
      },
      "formatted_address": "Kwassam, 800106, Nigeria",
      "google_map_url": "https://maps.google.com?q=10.3781039,8.265058",
      "google_place_id": "ChIJ-QQwDxfOUhAR28637n8K2w0"
    }
  },
  {
    "id": "80739",
    "name": "DOKAN  YAHAYA K/GMAIUNGUWA",
    "registration_area_id": "4237",
    "precise_location": null,
    "abbreviation": "013",
    "units": "013",
    "delimitation": "18/14/03/013",
    "remark": "EXISTING PU",
    "ward_id": "4237",
    "ward_name": "DAWAKI",
    "local_government_id": "360",
    "local_government_name": "KAURU",
    "state_id": "18",
    "state_name": "KADUNA",
    "location": {
      "latitude": 10.4548808,
      "longitude": 7.4056928,
      "viewport": {
        "northeast": {
          "lat": 10.45624087989272,
          "lng": 7.407053729892721
        },
        "southwest": {
          "lat": 10.45354122010728,
          "lng": 7.404354070107277
        }
      },
      "formatted_address": "No 7 Dutsenma Road, Tudun Wada 800282, Kaduna, Nigeria",
      "google_map_url": "https://maps.google.com?q=10.4548808,7.4056928",
      "google_place_id": "ChIJu6zfEIU1TRARPRGNMsR4bFM"
    }
  },
  {
    "id": "80740",
    "name": "RI MAYE  K/GMAIUNGUWA",
    "registration_area_id": "4237",
    "precise_location": null,
    "abbreviation": "014",
    "units": "014",
    "delimitation": "18/14/03/014",
    "remark": "EXISTING PU",
    "ward_id": "4237",
    "ward_name": "DAWAKI",
    "local_government_id": "360",
    "local_government_name": "KAURU",
    "state_id": "18",
    "state_name": "KADUNA",
    "location": {
      "latitude": 10.5002602,
      "longitude": 7.4282813,
      "viewport": {
        "northeast": {
          "lat": 10.5027877,
          "lng": 7.429338429892722
        },
        "southwest": {
          "lat": 10.4994177,
          "lng": 7.426638770107278
        }
      },
      "formatted_address": "NR 27 Constitution Rd, Kakuri 800211, Kaduna, Nigeria",
      "google_map_url": "https://maps.google.com?q=10.5002602,7.4282813",
      "google_place_id": "ChIJiTIyQmU1TRAR9crApvLgRU0"
    }
  },
  {
    "id": "80741",
    "name": "ANG/DAURAWA  K/GMAIUNGUWA",
    "registration_area_id": "4237",
    "precise_location": null,
    "abbreviation": "015",
    "units": "015",
    "delimitation": "18/14/03/015",
    "remark": "EXISTING PU",
    "ward_id": "4237",
    "ward_name": "DAWAKI",
    "local_government_id": "360",
    "local_government_name": "KAURU",
    "state_id": "18",
    "state_name": "KADUNA",
    "location": {
      "latitude": 10.514205,
      "longitude": 7.4057506,
      "viewport": {
        "northeast": {
          "lat": 10.51555237989272,
          "lng": 7.407085679892721
        },
        "southwest": {
          "lat": 10.51285272010728,
          "lng": 7.404386020107277
        }
      },
      "formatted_address": "GC74+M7Q, Tudun Wada 800282, Kaduna, Nigeria",
      "google_map_url": "https://maps.google.com?q=10.514205,7.4057506",
      "google_place_id": "ChIJ44-n0jw1TRAR1nCfkCmnUhY"
    }
  },
  {
    "id": "80742",
    "name": "DOKANKARJI  L.E.A. PRY SCHOOL",
    "registration_area_id": "4237",
    "precise_location": null,
    "abbreviation": "016",
    "units": "016",
    "delimitation": "18/14/03/016",
    "remark": "EXISTING PU",
    "ward_id": "4237",
    "ward_name": "DAWAKI",
    "local_government_id": "360",
    "local_government_name": "KAURU",
    "state_id": "18",
    "state_name": "KADUNA",
    "location": {
      "latitude": 10.6760605,
      "longitude": 7.8986771,
      "viewport": {
        "northeast": {
          "lat": 10.67743447989272,
          "lng": 7.900147629892722
        },
        "southwest": {
          "lat": 10.67473482010728,
          "lng": 7.897447970107279
        }
      },
      "formatted_address": "7F29MVGX+CFH Dawaki Dawaki Kaduna Gamagira, Nigeria",
      "google_map_url": "https://maps.google.com?q=10.6760605,7.8986771",
      "google_place_id": "ChIJJdta1F5RrRER52cxS7l2bLA"
    }
  },
  {
    "id": "80743",
    "name": "MAKAU  K/GMAIUNGUWA",
    "registration_area_id": "4237",
    "precise_location": null,
    "abbreviation": "017",
    "units": "017",
    "delimitation": "18/14/03/017",
    "remark": "EXISTING PU",
    "ward_id": "4237",
    "ward_name": "DAWAKI",
    "local_government_id": "360",
    "local_government_name": "KAURU",
    "state_id": "18",
    "state_name": "KADUNA",
    "location": {
      "latitude": 10.453569,
      "longitude": 7.423361000000001,
      "viewport": {
        "northeast": {
          "lat": 10.45493617989272,
          "lng": 7.424714979892721
        },
        "southwest": {
          "lat": 10.45223652010728,
          "lng": 7.422015320107277
        }
      },
      "formatted_address": "No. L10 link road ungwan, Kaduna, Nigeria",
      "google_map_url": "https://maps.google.com?q=10.453569,7.423361000000001",
      "google_place_id": "ChIJoxd8BIc1TRARsxmZkbEi1Hk"
    }
  },
  {
    "id": "80744",
    "name": "KABARI  K/GMAIUNGUWA",
    "registration_area_id": "4237",
    "precise_location": null,
    "abbreviation": "018",
    "units": "018",
    "delimitation": "18/14/03/018",
    "remark": "EXISTING PU",
    "ward_id": "4237",
    "ward_name": "DAWAKI",
    "local_government_id": "360",
    "local_government_name": "KAURU",
    "state_id": "18",
    "state_name": "KADUNA",
    "location": null
  },
  {
    "id": "80745",
    "name": "KUNKURAI  K/GMAIUNGUWA",
    "registration_area_id": "4237",
    "precise_location": null,
    "abbreviation": "019",
    "units": "019",
    "delimitation": "18/14/03/019",
    "remark": "EXISTING PU",
    "ward_id": "4237",
    "ward_name": "DAWAKI",
    "local_government_id": "360",
    "local_government_name": "KAURU",
    "state_id": "18",
    "state_name": "KADUNA",
    "location": {
      "latitude": 10.5278033,
      "longitude": 7.420698499999999,
      "viewport": {
        "northeast": {
          "lat": 10.52941307989272,
          "lng": 7.421885679892721
        },
        "southwest": {
          "lat": 10.52671342010728,
          "lng": 7.419186020107277
        }
      },
      "formatted_address": "Kaduna polytechnic Quarters, Tudun Wada, Kaduna, Nigeria",
      "google_map_url": "https://maps.google.com?q=10.5278033,7.420698499999999",
      "google_place_id": "ChIJza1CQTg1TRARx5c15PllRZs"
    }
  },
  {
    "id": "80746",
    "name": "ANG/TEILAMATARKAKO  K/G MAIUNGUWA",
    "registration_area_id": "4237",
    "precise_location": null,
    "abbreviation": "020",
    "units": "020",
    "delimitation": "18/14/03/020",
    "remark": "EXISTING PU",
    "ward_id": "4237",
    "ward_name": "DAWAKI",
    "local_government_id": "360",
    "local_government_name": "KAURU",
    "state_id": "18",
    "state_name": "KADUNA",
    "location": {
      "latitude": 10.5765619,
      "longitude": 7.420275900000001,
      "viewport": {
        "northeast": {
          "lat": 10.57785757989272,
          "lng": 7.421612229892723
        },
        "southwest": {
          "lat": 10.57515792010728,
          "lng": 7.418912570107279
        }
      },
      "formatted_address": "RB 18, Nnamdi Azikiwe Rd, Ungwar Muazu, Kaduna, Nigeria",
      "google_map_url": "https://maps.google.com?q=10.5765619,7.420275900000001",
      "google_place_id": "ChIJ8eD71IPLshER56clRIIx3UM"
    }
  },
  {
    "id": "80747",
    "name": "D/KARJI ANG/KUDU  K/GMAIUNGUWA",
    "registration_area_id": "4237",
    "precise_location": null,
    "abbreviation": "021",
    "units": "021",
    "delimitation": "18/14/03/021",
    "remark": "EXISTING PU",
    "ward_id": "4237",
    "ward_name": "DAWAKI",
    "local_government_id": "360",
    "local_government_name": "KAURU",
    "state_id": "18",
    "state_name": "KADUNA",
    "location": {
      "latitude": 10.5278033,
      "longitude": 7.420698499999999,
      "viewport": {
        "northeast": {
          "lat": 10.52941307989272,
          "lng": 7.421885679892721
        },
        "southwest": {
          "lat": 10.52671342010728,
          "lng": 7.419186020107277
        }
      },
      "formatted_address": "Kaduna polytechnic Quarters, Tudun Wada, Kaduna, Nigeria",
      "google_map_url": "https://maps.google.com?q=10.5278033,7.420698499999999",
      "google_place_id": "ChIJza1CQTg1TRARx5c15PllRZs"
    }
  },
  {
    "id": "80748",
    "name": "KWARE",
    "registration_area_id": "4237",
    "precise_location": null,
    "abbreviation": "022",
    "units": "022",
    "delimitation": "18/14/03/022",
    "remark": "NEW PU",
    "ward_id": "4237",
    "ward_name": "DAWAKI",
    "local_government_id": "360",
    "local_government_name": "KAURU",
    "state_id": "18",
    "state_name": "KADUNA",
    "location": {
      "latitude": 10.451325,
      "longitude": 8.191137699999999,
      "viewport": {
        "northeast": {
          "lat": 10.4559799,
          "lng": 8.196907099999999
        },
        "southwest": {
          "lat": 10.445548,
          "lng": 8.182991
        }
      },
      "formatted_address": "800106, Kware, Nigeria",
      "google_map_url": "https://maps.google.com?q=10.451325,8.191137699999999",
      "google_place_id": "ChIJyZYThZXLUhAR3yrLG2dXU4Y"
    }
  },
  {
    "id": "80749",
    "name": "ANGUWAN LIMAN",
    "registration_area_id": "4237",
    "precise_location": null,
    "abbreviation": "023",
    "units": "023",
    "delimitation": "18/14/03/023",
    "remark": "NEW PU",
    "ward_id": "4237",
    "ward_name": "DAWAKI",
    "local_government_id": "360",
    "local_government_name": "KAURU",
    "state_id": "18",
    "state_name": "KADUNA",
    "location": {
      "latitude": 10.5738889,
      "longitude": 7.4516578,
      "viewport": {
        "northeast": {
          "lat": 10.584287,
          "lng": 7.460276899999998
        },
        "southwest": {
          "lat": 10.561433,
          "lng": 7.4425
        }
      },
      "formatted_address": "800283, Ungwan Liman, Nigeria",
      "google_map_url": "https://maps.google.com?q=10.5738889,7.4516578",
      "google_place_id": "ChIJN_MeHHe1shERxI5816NhxQ8"
    }
  },
  {
    "id": "80750",
    "name": "KIBOLLO KADAGE",
    "registration_area_id": "4237",
    "precise_location": null,
    "abbreviation": "024",
    "units": "024",
    "delimitation": "18/14/03/024",
    "remark": "NEW PU",
    "ward_id": "4237",
    "ward_name": "DAWAKI",
    "local_government_id": "360",
    "local_government_name": "KAURU",
    "state_id": "18",
    "state_name": "KADUNA",
    "location": {
      "latitude": 10.5002602,
      "longitude": 7.4282813,
      "viewport": {
        "northeast": {
          "lat": 10.5027877,
          "lng": 7.429338429892722
        },
        "southwest": {
          "lat": 10.4994177,
          "lng": 7.426638770107278
        }
      },
      "formatted_address": "NR 27 Constitution Rd, Kakuri 800211, Kaduna, Nigeria",
      "google_map_url": "https://maps.google.com?q=10.5002602,7.4282813",
      "google_place_id": "ChIJiTIyQmU1TRAR9crApvLgRU0"
    }
  },
  {
    "id": "80751",
    "name": "ANG. SARKI MAJIDADI",
    "registration_area_id": "4237",
    "precise_location": null,
    "abbreviation": "025",
    "units": "025",
    "delimitation": "18/14/03/025",
    "remark": "NEW PU",
    "ward_id": "4237",
    "ward_name": "DAWAKI",
    "local_government_id": "360",
    "local_government_name": "KAURU",
    "state_id": "18",
    "state_name": "KADUNA",
    "location": {
      "latitude": 10.547767,
      "longitude": 7.45688,
      "viewport": {
        "northeast": {
          "lat": 10.54915027989272,
          "lng": 7.458235829892723
        },
        "southwest": {
          "lat": 10.54645062010728,
          "lng": 7.455536170107279
        }
      },
      "formatted_address": "Isa Kaita Road, Ungwan Sarki Muslimi 800283, Kaduna, Nigeria",
      "google_map_url": "https://maps.google.com?q=10.547767,7.45688",
      "google_place_id": "ChIJf_qr2Ua1shER-STGZS7m5Qk"
    }
  },
  {
    "id": "80752",
    "name": "MAHUTA",
    "registration_area_id": "4237",
    "precise_location": null,
    "abbreviation": "026",
    "units": "026",
    "delimitation": "18/14/03/026",
    "remark": "NEW PU",
    "ward_id": "4237",
    "ward_name": "DAWAKI",
    "local_government_id": "360",
    "local_government_name": "KAURU",
    "state_id": "18",
    "state_name": "KADUNA",
    "location": {
      "latitude": 10.4414699,
      "longitude": 7.4992467,
      "viewport": {
        "northeast": {
          "lat": 10.44265817989272,
          "lng": 7.500519929892722
        },
        "southwest": {
          "lat": 10.43995852010728,
          "lng": 7.497820270107278
        }
      },
      "formatted_address": "CFRX+HMQ, Kachia Road, 800104, Kaduna, Nigeria",
      "google_map_url": "https://maps.google.com?q=10.4414699,7.4992467",
      "google_place_id": "ChIJd9lr32FJTRARS6Uth3FsBCM"
    }
  },
  {
    "id": "80753",
    "name": "MAKAU KASA",
    "registration_area_id": "4237",
    "precise_location": null,
    "abbreviation": "027",
    "units": "027",
    "delimitation": "18/14/03/027",
    "remark": "NEW PU",
    "ward_id": "4237",
    "ward_name": "DAWAKI",
    "local_government_id": "360",
    "local_government_name": "KAURU",
    "state_id": "18",
    "state_name": "KADUNA",
    "location": {
      "latitude": 10.2543334,
      "longitude": 7.872159999999999,
      "viewport": {
        "northeast": {
          "lat": 10.5547094,
          "lng": 8.2174483
        },
        "southwest": {
          "lat": 10.0296421,
          "lng": 7.5642982
        }
      },
      "formatted_address": "Kauru, Nigeria",
      "google_map_url": "https://maps.google.com?q=10.2543334,7.872159999999999",
      "google_place_id": "ChIJTZoHhjakUhARuQTqKx025Po"
    }
  },
  {
    "id": "80754",
    "name": "TUDUN WADA DOKA",
    "registration_area_id": "4237",
    "precise_location": null,
    "abbreviation": "028",
    "units": "028",
    "delimitation": "18/14/03/028",
    "remark": "NEW PU",
    "ward_id": "4237",
    "ward_name": "DAWAKI",
    "local_government_id": "360",
    "local_government_name": "KAURU",
    "state_id": "18",
    "state_name": "KADUNA",
    "location": {
      "latitude": 11.2496719,
      "longitude": 8.4047163,
      "viewport": {
        "northeast": {
          "lat": 11.2589819,
          "lng": 8.411363
        },
        "southwest": {
          "lat": 11.2365909,
          "lng": 8.3751549
        }
      },
      "formatted_address": "801136, Tudun Wada, Nigeria",
      "google_map_url": "https://maps.google.com?q=11.2496719,8.4047163",
      "google_place_id": "ChIJE2ofjBmqrRERXnjAQQSFCBI"
    }
  }
]