[
  {
    "id": "57119",
    "name": "UMUOGBO SQUARE",
    "registration_area_id": "3091",
    "precise_location": null,
    "abbreviation": "001",
    "units": "001",
    "delimitation": "14/08/18/001",
    "remark": "EXISTING PU",
    "ward_id": "3091",
    "ward_name": "UMUOZZI VIII",
    "local_government_id": "266",
    "local_government_name": "IGBO EZE NORTH",
    "state_id": "14",
    "state_name": "ENUGU",
    "location": {
      "latitude": 6.9757411,
      "longitude": 7.476857,
      "viewport": {
        "northeast": {
          "lat": 6.977081629892721,
          "lng": 7.47819902989272
        },
        "southwest": {
          "lat": 6.974381970107277,
          "lng": 7.475499370107276
        }
      },
      "formatted_address": "413110 Igbelle, Umuogbo-Amachala route, LGA, Enugu-Ezike, Nigeria",
      "google_map_url": "https://maps.google.com?q=6.9757411,7.476857",
      "google_place_id": "ChIJedBeYeHfRBARxw2v9tsq-1w"
    }
  },
  {
    "id": "57120",
    "name": "C.P.S. AJARA ODONU I",
    "registration_area_id": "3091",
    "precise_location": null,
    "abbreviation": "002",
    "units": "002",
    "delimitation": "14/08/18/002",
    "remark": "EXISTING PU",
    "ward_id": "3091",
    "ward_name": "UMUOZZI VIII",
    "local_government_id": "266",
    "local_government_name": "IGBO EZE NORTH",
    "state_id": "14",
    "state_name": "ENUGU",
    "location": {
      "latitude": 6.9835975,
      "longitude": 7.4565347,
      "viewport": {
        "northeast": {
          "lat": 6.984878179892722,
          "lng": 7.457847229892722
        },
        "southwest": {
          "lat": 6.982178520107278,
          "lng": 7.455147570107278
        }
      },
      "formatted_address": "XFM4+CHF, Ogurute to Igogoro Road,, Enugu-ezike, Nigeria",
      "google_map_url": "https://maps.google.com?q=6.9835975,7.4565347",
      "google_place_id": "ChIJ9YcJ8DbeRBARTJY0Q3maNio"
    }
  },
  {
    "id": "57121",
    "name": "C.P.S. AJARA ODONU  II",
    "registration_area_id": "3091",
    "precise_location": null,
    "abbreviation": "003",
    "units": "003",
    "delimitation": "14/08/18/003",
    "remark": "EXISTING PU",
    "ward_id": "3091",
    "ward_name": "UMUOZZI VIII",
    "local_government_id": "266",
    "local_government_name": "IGBO EZE NORTH",
    "state_id": "14",
    "state_name": "ENUGU",
    "location": {
      "latitude": 6.9835975,
      "longitude": 7.4565347,
      "viewport": {
        "northeast": {
          "lat": 6.984878179892722,
          "lng": 7.457847229892722
        },
        "southwest": {
          "lat": 6.982178520107278,
          "lng": 7.455147570107278
        }
      },
      "formatted_address": "XFM4+CHF, Ogurute to Igogoro Road,, Enugu-ezike, Nigeria",
      "google_map_url": "https://maps.google.com?q=6.9835975,7.4565347",
      "google_place_id": "ChIJ9YcJ8DbeRBARTJY0Q3maNio"
    }
  },
  {
    "id": "57122",
    "name": "C.P.S. ISIUGWU (UMUODAJA SQUARE)",
    "registration_area_id": "3091",
    "precise_location": null,
    "abbreviation": "004",
    "units": "004",
    "delimitation": "14/08/18/004",
    "remark": "EXISTING PU",
    "ward_id": "3091",
    "ward_name": "UMUOZZI VIII",
    "local_government_id": "266",
    "local_government_name": "IGBO EZE NORTH",
    "state_id": "14",
    "state_name": "ENUGU",
    "location": {
      "latitude": 7.0386,
      "longitude": 7.472499999999999,
      "viewport": {
        "northeast": {
          "lat": 7.040195879892721,
          "lng": 7.473976879892722
        },
        "southwest": {
          "lat": 7.037496220107277,
          "lng": 7.471277220107278
        }
      },
      "formatted_address": "2FQC+CXX, 413110, Enugu, Nigeria",
      "google_map_url": "https://maps.google.com?q=7.0386,7.472499999999999",
      "google_place_id": "ChIJb7mIJ3ogRRARhDDlLAN_iyU"
    }
  },
  {
    "id": "57123",
    "name": "C.P.S. AJARA I",
    "registration_area_id": "3091",
    "precise_location": null,
    "abbreviation": "005",
    "units": "005",
    "delimitation": "14/08/18/005",
    "remark": "EXISTING PU",
    "ward_id": "3091",
    "ward_name": "UMUOZZI VIII",
    "local_government_id": "266",
    "local_government_name": "IGBO EZE NORTH",
    "state_id": "14",
    "state_name": "ENUGU",
    "location": {
      "latitude": 7.0037277,
      "longitude": 7.482784499999999,
      "viewport": {
        "northeast": {
          "lat": 7.005224529892723,
          "lng": 7.483879579892722
        },
        "southwest": {
          "lat": 7.002524870107279,
          "lng": 7.481179920107278
        }
      },
      "formatted_address": "2F3M+F4V, Igogoro, Enugu-ezike, Nigeria",
      "google_map_url": "https://maps.google.com?q=7.0037277,7.482784499999999",
      "google_place_id": "ChIJfaCrSgjfRBARIPzD2wfWed0"
    }
  },
  {
    "id": "57124",
    "name": "C.P.S. AJARA II",
    "registration_area_id": "3091",
    "precise_location": null,
    "abbreviation": "006",
    "units": "006",
    "delimitation": "14/08/18/006",
    "remark": "EXISTING PU",
    "ward_id": "3091",
    "ward_name": "UMUOZZI VIII",
    "local_government_id": "266",
    "local_government_name": "IGBO EZE NORTH",
    "state_id": "14",
    "state_name": "ENUGU",
    "location": {
      "latitude": 6.9835975,
      "longitude": 7.4565347,
      "viewport": {
        "northeast": {
          "lat": 6.984878179892722,
          "lng": 7.457847229892722
        },
        "southwest": {
          "lat": 6.982178520107278,
          "lng": 7.455147570107278
        }
      },
      "formatted_address": "XFM4+CHF, Ogurute to Igogoro Road,, Enugu-ezike, Nigeria",
      "google_map_url": "https://maps.google.com?q=6.9835975,7.4565347",
      "google_place_id": "ChIJ9YcJ8DbeRBARTJY0Q3maNio"
    }
  },
  {
    "id": "57125",
    "name": "C.P.S. AGUOGBALA",
    "registration_area_id": "3091",
    "precise_location": null,
    "abbreviation": "007",
    "units": "007",
    "delimitation": "14/08/18/007",
    "remark": "EXISTING PU",
    "ward_id": "3091",
    "ward_name": "UMUOZZI VIII",
    "local_government_id": "266",
    "local_government_name": "IGBO EZE NORTH",
    "state_id": "14",
    "state_name": "ENUGU",
    "location": {
      "latitude": 6.9835975,
      "longitude": 7.4565347,
      "viewport": {
        "northeast": {
          "lat": 6.984878179892722,
          "lng": 7.457847229892722
        },
        "southwest": {
          "lat": 6.982178520107278,
          "lng": 7.455147570107278
        }
      },
      "formatted_address": "XFM4+CHF, Ogurute to Igogoro Road,, Enugu-ezike, Nigeria",
      "google_map_url": "https://maps.google.com?q=6.9835975,7.4565347",
      "google_place_id": "ChIJ9YcJ8DbeRBARTJY0Q3maNio"
    }
  },
  {
    "id": "57126",
    "name": "C.P.S. OWEREZE",
    "registration_area_id": "3091",
    "precise_location": null,
    "abbreviation": "008",
    "units": "008",
    "delimitation": "14/08/18/008",
    "remark": "EXISTING PU",
    "ward_id": "3091",
    "ward_name": "UMUOZZI VIII",
    "local_government_id": "266",
    "local_government_name": "IGBO EZE NORTH",
    "state_id": "14",
    "state_name": "ENUGU",
    "location": {
      "latitude": 7.0037277,
      "longitude": 7.482784499999999,
      "viewport": {
        "northeast": {
          "lat": 7.005224529892723,
          "lng": 7.483879579892722
        },
        "southwest": {
          "lat": 7.002524870107279,
          "lng": 7.481179920107278
        }
      },
      "formatted_address": "2F3M+F4V, Igogoro, Enugu-ezike, Nigeria",
      "google_map_url": "https://maps.google.com?q=7.0037277,7.482784499999999",
      "google_place_id": "ChIJfaCrSgjfRBARIPzD2wfWed0"
    }
  },
  {
    "id": "57127",
    "name": "C.P.S. AMAJA",
    "registration_area_id": "3091",
    "precise_location": null,
    "abbreviation": "009",
    "units": "009",
    "delimitation": "14/08/18/009",
    "remark": "EXISTING PU",
    "ward_id": "3091",
    "ward_name": "UMUOZZI VIII",
    "local_government_id": "266",
    "local_government_name": "IGBO EZE NORTH",
    "state_id": "14",
    "state_name": "ENUGU",
    "location": {
      "latitude": 6.9835975,
      "longitude": 7.4565347,
      "viewport": {
        "northeast": {
          "lat": 6.984878179892722,
          "lng": 7.457847229892722
        },
        "southwest": {
          "lat": 6.982178520107278,
          "lng": 7.455147570107278
        }
      },
      "formatted_address": "XFM4+CHF, Ogurute to Igogoro Road,, Enugu-ezike, Nigeria",
      "google_map_url": "https://maps.google.com?q=6.9835975,7.4565347",
      "google_place_id": "ChIJ9YcJ8DbeRBARTJY0Q3maNio"
    }
  },
  {
    "id": "57128",
    "name": "C.S.S. ISIUGWU",
    "registration_area_id": "3091",
    "precise_location": null,
    "abbreviation": "010",
    "units": "010",
    "delimitation": "14/08/18/010",
    "remark": "NEW PU",
    "ward_id": "3091",
    "ward_name": "UMUOZZI VIII",
    "local_government_id": "266",
    "local_government_name": "IGBO EZE NORTH",
    "state_id": "14",
    "state_name": "ENUGU",
    "location": {
      "latitude": 7.0386,
      "longitude": 7.472499999999999,
      "viewport": {
        "northeast": {
          "lat": 7.040195879892721,
          "lng": 7.473976879892722
        },
        "southwest": {
          "lat": 7.037496220107277,
          "lng": 7.471277220107278
        }
      },
      "formatted_address": "2FQC+CXX, 413110, Enugu, Nigeria",
      "google_map_url": "https://maps.google.com?q=7.0386,7.472499999999999",
      "google_place_id": "ChIJb7mIJ3ogRRARhDDlLAN_iyU"
    }
  },
  {
    "id": "57129",
    "name": "AGBENOKPA HALL",
    "registration_area_id": "3091",
    "precise_location": null,
    "abbreviation": "011",
    "units": "011",
    "delimitation": "14/08/18/011",
    "remark": "NEW PU",
    "ward_id": "3091",
    "ward_name": "UMUOZZI VIII",
    "local_government_id": "266",
    "local_government_name": "IGBO EZE NORTH",
    "state_id": "14",
    "state_name": "ENUGU",
    "location": {
      "latitude": 7.0663081,
      "longitude": 7.4475654,
      "viewport": {
        "northeast": {
          "lat": 7.06780822989272,
          "lng": 7.448949979892722
        },
        "southwest": {
          "lat": 7.065108570107276,
          "lng": 7.446250320107278
        }
      },
      "formatted_address": "Nsuka, 413105, Enugu, Nigeria",
      "google_map_url": "https://maps.google.com?q=7.0663081,7.4475654",
      "google_place_id": "ChIJY_ZQjS8gRRARpcHVQcZkjhQ"
    }
  },
  {
    "id": "57130",
    "name": "OWEREZE HEALTH CENTRE",
    "registration_area_id": "3091",
    "precise_location": null,
    "abbreviation": "012",
    "units": "012",
    "delimitation": "14/08/18/012",
    "remark": "NEW PU",
    "ward_id": "3091",
    "ward_name": "UMUOZZI VIII",
    "local_government_id": "266",
    "local_government_name": "IGBO EZE NORTH",
    "state_id": "14",
    "state_name": "ENUGU",
    "location": {
      "latitude": 7.024497999999999,
      "longitude": 7.4089312,
      "viewport": {
        "northeast": {
          "lat": 7.025820379892721,
          "lng": 7.41023067989272
        },
        "southwest": {
          "lat": 7.023120720107277,
          "lng": 7.407531020107276
        }
      },
      "formatted_address": "2CF5+QHV, beside Dozen Filling Station, Aguibeje 413109, Enugu-ezike, Nigeria",
      "google_map_url": "https://maps.google.com?q=7.024497999999999,7.4089312",
      "google_place_id": "ChIJg-M-BczhRBARxbjb8P38-20"
    }
  },
  {
    "id": "57131",
    "name": "ULONCHE UGBOGBO I",
    "registration_area_id": "3091",
    "precise_location": null,
    "abbreviation": "013",
    "units": "013",
    "delimitation": "14/08/18/013",
    "remark": "NEW PU",
    "ward_id": "3091",
    "ward_name": "UMUOZZI VIII",
    "local_government_id": "266",
    "local_government_name": "IGBO EZE NORTH",
    "state_id": "14",
    "state_name": "ENUGU",
    "location": {
      "latitude": 7.0278537,
      "longitude": 7.476004700000001,
      "viewport": {
        "northeast": {
          "lat": 7.0658565,
          "lng": 7.501046499999999
        },
        "southwest": {
          "lat": 7.0074112,
          "lng": 7.460127399999999
        }
      },
      "formatted_address": "Umuozzi VIII, Nigeria",
      "google_map_url": "https://maps.google.com?q=7.0278537,7.476004700000001",
      "google_place_id": "ChIJG2sBO34gRRARCsHhBUz6KEA"
    }
  },
  {
    "id": "57132",
    "name": "AMAJA HEALTH CENTRE",
    "registration_area_id": "3091",
    "precise_location": null,
    "abbreviation": "014",
    "units": "014",
    "delimitation": "14/08/18/014",
    "remark": "NEW PU",
    "ward_id": "3091",
    "ward_name": "UMUOZZI VIII",
    "local_government_id": "266",
    "local_government_name": "IGBO EZE NORTH",
    "state_id": "14",
    "state_name": "ENUGU",
    "location": {
      "latitude": 7.0415,
      "longitude": 7.525099999999999,
      "viewport": {
        "northeast": {
          "lat": 7.042889129892721,
          "lng": 7.526360129892721
        },
        "southwest": {
          "lat": 7.040189470107277,
          "lng": 7.523660470107277
        }
      },
      "formatted_address": "2GRG+H2X, 270109, Enugu, Nigeria",
      "google_map_url": "https://maps.google.com?q=7.0415,7.525099999999999",
      "google_place_id": "ChIJd8dnyVInRRARQZ3C4qMfRE0"
    }
  }
]