[
  {
    "id": "11673",
    "name": "MARKET SQUARE, EYOBIOSIO EDIKOR I",
    "registration_area_id": "695",
    "precise_location": null,
    "abbreviation": "001",
    "units": "001",
    "delimitation": "03/27/09/001",
    "remark": "EXISTING PU",
    "ward_id": "695",
    "ward_name": "UDUNG UKO IX",
    "local_government_id": "65",
    "local_government_name": "UDUNG UKO",
    "state_id": "3",
    "state_name": "AKWA IBOM",
    "location": {
      "latitude": 4.7507369,
      "longitude": 8.2541155,
      "viewport": {
        "northeast": {
          "lat": 4.781293799999999,
          "lng": 8.3168212
        },
        "southwest": {
          "lat": 4.7199803,
          "lng": 8.198616
        }
      },
      "formatted_address": "Udung Uko, Nigeria",
      "google_map_url": "https://maps.google.com?q=4.7507369,8.2541155",
      "google_place_id": "ChIJTZozdtqWZxARTraa4BijiQ4"
    }
  },
  {
    "id": "11674",
    "name": "MARKET SQUARE, EYOBIOSIO EDIKOR II",
    "registration_area_id": "695",
    "precise_location": null,
    "abbreviation": "002",
    "units": "002",
    "delimitation": "03/27/09/002",
    "remark": "EXISTING PU",
    "ward_id": "695",
    "ward_name": "UDUNG UKO IX",
    "local_government_id": "65",
    "local_government_name": "UDUNG UKO",
    "state_id": "3",
    "state_name": "AKWA IBOM",
    "location": {
      "latitude": 4.7507369,
      "longitude": 8.2541155,
      "viewport": {
        "northeast": {
          "lat": 4.781293799999999,
          "lng": 8.3168212
        },
        "southwest": {
          "lat": 4.7199803,
          "lng": 8.198616
        }
      },
      "formatted_address": "Udung Uko, Nigeria",
      "google_map_url": "https://maps.google.com?q=4.7507369,8.2541155",
      "google_place_id": "ChIJTZozdtqWZxARTraa4BijiQ4"
    }
  },
  {
    "id": "11675",
    "name": "VILLAGE  SQUARE, EYOBIOSIO EDIKOR",
    "registration_area_id": "695",
    "precise_location": null,
    "abbreviation": "003",
    "units": "003",
    "delimitation": "03/27/09/003",
    "remark": "EXISTING PU",
    "ward_id": "695",
    "ward_name": "UDUNG UKO IX",
    "local_government_id": "65",
    "local_government_name": "UDUNG UKO",
    "state_id": "3",
    "state_name": "AKWA IBOM",
    "location": null
  },
  {
    "id": "11676",
    "name": "PRIMARY SCHOOL, EYO BIOSIO",
    "registration_area_id": "695",
    "precise_location": null,
    "abbreviation": "004",
    "units": "004",
    "delimitation": "03/27/09/004",
    "remark": "NEW PU",
    "ward_id": "695",
    "ward_name": "UDUNG UKO IX",
    "local_government_id": "65",
    "local_government_name": "UDUNG UKO",
    "state_id": "3",
    "state_name": "AKWA IBOM",
    "location": {
      "latitude": 4.7477472,
      "longitude": 8.2312471,
      "viewport": {
        "northeast": {
          "lat": 4.748942829892722,
          "lng": 8.232616029892721
        },
        "southwest": {
          "lat": 4.746243170107278,
          "lng": 8.229916370107278
        }
      },
      "formatted_address": "P6XJ+4F9, Eyosung, Udung Uko, Ediko, Nigeria",
      "google_map_url": "https://maps.google.com?q=4.7477472,8.2312471",
      "google_place_id": "ChIJq2OuxKSWZxARw4c35XERTb8"
    }
  }
]