[
  {
    "id": "341691",
    "name": "ST. JOHN SCHOOL AYEDERE",
    "registration_area_id": "17340",
    "precise_location": null,
    "abbreviation": "001",
    "units": "001",
    "delimitation": "27/06/10/001",
    "remark": "EXISTING PU",
    "ward_id": "17340",
    "ward_name": "OBADA-OKO",
    "local_government_id": "567",
    "local_government_name": "EWEKORO",
    "state_id": "27",
    "state_name": "OGUN",
    "location": {
      "latitude": 7.135418,
      "longitude": 3.3512656,
      "viewport": {
        "northeast": {
          "lat": 7.136763829892722,
          "lng": 3.352570279892723
        },
        "southwest": {
          "lat": 7.134064170107278,
          "lng": 3.349870620107279
        }
      },
      "formatted_address": "49P2+5G6, Kuto, 111102, Abeokuta, Nigeria",
      "google_map_url": "https://maps.google.com?q=7.135418,3.3512656",
      "google_place_id": "ChIJG_7zYpBLOhARBmxQgPjmQpI"
    }
  },
  {
    "id": "341692",
    "name": "IWOKUN VILLAGE",
    "registration_area_id": "17340",
    "precise_location": null,
    "abbreviation": "002",
    "units": "002",
    "delimitation": "27/06/10/002",
    "remark": "EXISTING PU",
    "ward_id": "17340",
    "ward_name": "OBADA-OKO",
    "local_government_id": "567",
    "local_government_name": "EWEKORO",
    "state_id": "27",
    "state_name": "OGUN",
    "location": {
      "latitude": 7.070838299999999,
      "longitude": 3.2885948,
      "viewport": {
        "northeast": {
          "lat": 7.072129279892722,
          "lng": 3.289907829892722
        },
        "southwest": {
          "lat": 7.069429620107278,
          "lng": 3.287208170107277
        }
      },
      "formatted_address": "37CQ+6CV, 110106, Abeokuta, Nigeria",
      "google_map_url": "https://maps.google.com?q=7.070838299999999,3.2885948",
      "google_place_id": "ChIJoVPtNlWzOxARfsutbyGNYbM"
    }
  },
  {
    "id": "341693",
    "name": "PAKUDI",
    "registration_area_id": "17340",
    "precise_location": null,
    "abbreviation": "003",
    "units": "003",
    "delimitation": "27/06/10/003",
    "remark": "EXISTING PU",
    "ward_id": "17340",
    "ward_name": "OBADA-OKO",
    "local_government_id": "567",
    "local_government_name": "EWEKORO",
    "state_id": "27",
    "state_name": "OGUN",
    "location": {
      "latitude": 7.070572299999999,
      "longitude": 3.2885455,
      "viewport": {
        "northeast": {
          "lat": 7.117732299999999,
          "lng": 3.3231085
        },
        "southwest": {
          "lat": 7.0225287,
          "lng": 3.2679331
        }
      },
      "formatted_address": "Obada-Oko, Nigeria",
      "google_map_url": "https://maps.google.com?q=7.070572299999999,3.2885455",
      "google_place_id": "ChIJt8O70NmyOxARjX5rpEefKOo"
    }
  },
  {
    "id": "341694",
    "name": "TOWN HALL OBADA-OKO",
    "registration_area_id": "17340",
    "precise_location": null,
    "abbreviation": "004",
    "units": "004",
    "delimitation": "27/06/10/004",
    "remark": "EXISTING PU",
    "ward_id": "17340",
    "ward_name": "OBADA-OKO",
    "local_government_id": "567",
    "local_government_name": "EWEKORO",
    "state_id": "27",
    "state_name": "OGUN",
    "location": {
      "latitude": 7.070572299999999,
      "longitude": 3.2885455,
      "viewport": {
        "northeast": {
          "lat": 7.117732299999999,
          "lng": 3.3231085
        },
        "southwest": {
          "lat": 7.0225287,
          "lng": 3.2679331
        }
      },
      "formatted_address": "Obada-Oko, Nigeria",
      "google_map_url": "https://maps.google.com?q=7.070572299999999,3.2885455",
      "google_place_id": "ChIJt8O70NmyOxARjX5rpEefKOo"
    }
  },
  {
    "id": "341695",
    "name": "OGUNSOLU",
    "registration_area_id": "17340",
    "precise_location": null,
    "abbreviation": "005",
    "units": "005",
    "delimitation": "27/06/10/005",
    "remark": "EXISTING PU",
    "ward_id": "17340",
    "ward_name": "OBADA-OKO",
    "local_government_id": "567",
    "local_government_name": "EWEKORO",
    "state_id": "27",
    "state_name": "OGUN",
    "location": {
      "latitude": 7.080017,
      "longitude": 3.2822559,
      "viewport": {
        "northeast": {
          "lat": 7.084677999999999,
          "lng": 3.293219
        },
        "southwest": {
          "lat": 7.073302,
          "lng": 3.278326
        }
      },
      "formatted_address": "Ogunsolu, Nigeria",
      "google_map_url": "https://maps.google.com?q=7.080017,3.2822559",
      "google_place_id": "ChIJa-cd_MyyOxARaTURRVQPKO4"
    }
  },
  {
    "id": "341696",
    "name": "IYANA IKEREKU",
    "registration_area_id": "17340",
    "precise_location": null,
    "abbreviation": "006",
    "units": "006",
    "delimitation": "27/06/10/006",
    "remark": "EXISTING PU",
    "ward_id": "17340",
    "ward_name": "OBADA-OKO",
    "local_government_id": "567",
    "local_government_name": "EWEKORO",
    "state_id": "27",
    "state_name": "OGUN",
    "location": {
      "latitude": 7.1729589,
      "longitude": 3.3470778,
      "viewport": {
        "northeast": {
          "lat": 7.174982600000001,
          "lng": 3.3517776
        },
        "southwest": {
          "lat": 7.169497700000001,
          "lng": 3.3409162
        }
      },
      "formatted_address": "Ikereku, Abeokuta, Nigeria",
      "google_map_url": "https://maps.google.com?q=7.1729589,3.3470778",
      "google_place_id": "ChIJazI61VZJOhARu7wNXUR2H_4"
    }
  },
  {
    "id": "341697",
    "name": "MARKET AREA OBADA-OKO",
    "registration_area_id": "17340",
    "precise_location": null,
    "abbreviation": "007",
    "units": "007",
    "delimitation": "27/06/10/007",
    "remark": "EXISTING PU",
    "ward_id": "17340",
    "ward_name": "OBADA-OKO",
    "local_government_id": "567",
    "local_government_name": "EWEKORO",
    "state_id": "27",
    "state_name": "OGUN",
    "location": {
      "latitude": 7.0671186,
      "longitude": 3.2906336,
      "viewport": {
        "northeast": {
          "lat": 7.068436179892722,
          "lng": 3.292039079892723
        },
        "southwest": {
          "lat": 7.065736520107278,
          "lng": 3.289339420107278
        }
      },
      "formatted_address": "108 Abeokuta Expy, Dopemu 110104, Lagos, Nigeria",
      "google_map_url": "https://maps.google.com?q=7.0671186,3.2906336",
      "google_place_id": "ChIJd5dVANuyOxAR0ftOyXfmLWw"
    }
  },
  {
    "id": "341698",
    "name": "ASIPA VILLAGE",
    "registration_area_id": "17340",
    "precise_location": null,
    "abbreviation": "008",
    "units": "008",
    "delimitation": "27/06/10/008",
    "remark": "EXISTING PU",
    "ward_id": "17340",
    "ward_name": "OBADA-OKO",
    "local_government_id": "567",
    "local_government_name": "EWEKORO",
    "state_id": "27",
    "state_name": "OGUN",
    "location": {
      "latitude": 7.047897,
      "longitude": 3.267164,
      "viewport": {
        "northeast": {
          "lat": 7.0556489,
          "lng": 3.274709
        },
        "southwest": {
          "lat": 7.0453901,
          "lng": 3.259018
        }
      },
      "formatted_address": "110106, Asipa, Nigeria",
      "google_map_url": "https://maps.google.com?q=7.047897,3.267164",
      "google_place_id": "ChIJwyP0wZqyOxARkX-7vACF24w"
    }
  },
  {
    "id": "341699",
    "name": "BANJOKO",
    "registration_area_id": "17340",
    "precise_location": null,
    "abbreviation": "009",
    "units": "009",
    "delimitation": "27/06/10/009",
    "remark": "EXISTING PU",
    "ward_id": "17340",
    "ward_name": "OBADA-OKO",
    "local_government_id": "567",
    "local_government_name": "EWEKORO",
    "state_id": "27",
    "state_name": "OGUN",
    "location": {
      "latitude": 7.113184,
      "longitude": 3.2988279,
      "viewport": {
        "northeast": {
          "lat": 7.114540229892721,
          "lng": 3.30123805
        },
        "southwest": {
          "lat": 7.111840570107277,
          "lng": 3.29635545
        }
      },
      "formatted_address": "Banjoko Street, Ijapo, Nigeria",
      "google_map_url": "https://maps.google.com?q=7.113184,3.2988279",
      "google_place_id": "Eh5CYW5qb2tvIFN0cmVldCwgSWphcG8sIE5pZ2VyaWEiLiosChQKEglDbhtUHU06EBHfzRwgMTSrmBIUChIJt8O70NmyOxARjX5rpEefKOo"
    }
  },
  {
    "id": "341700",
    "name": "COMMUNITY NURSERY / PRY SCHOOL, IGBORE",
    "registration_area_id": "17340",
    "precise_location": null,
    "abbreviation": "010",
    "units": "010",
    "delimitation": "27/06/10/010",
    "remark": "NEW PU",
    "ward_id": "17340",
    "ward_name": "OBADA-OKO",
    "local_government_id": "567",
    "local_government_name": "EWEKORO",
    "state_id": "27",
    "state_name": "OGUN",
    "location": {
      "latitude": 7.1458773,
      "longitude": 3.3339628,
      "viewport": {
        "northeast": {
          "lat": 7.147283329892722,
          "lng": 3.335326429892723
        },
        "southwest": {
          "lat": 7.144583670107278,
          "lng": 3.332626770107278
        }
      },
      "formatted_address": "6FV548WM+9HH, Ijeja Road, Owu 111102, Abeokuta, Nigeria",
      "google_map_url": "https://maps.google.com?q=7.1458773,3.3339628",
      "google_place_id": "ChIJuYmIliFNOhAREg2URnx4-DA"
    }
  },
  {
    "id": "341701",
    "name": "OWIWI NURSERY/PRY SCHOOL, OBADA",
    "registration_area_id": "17340",
    "precise_location": null,
    "abbreviation": "011",
    "units": "011",
    "delimitation": "27/06/10/011",
    "remark": "NEW PU",
    "ward_id": "17340",
    "ward_name": "OBADA-OKO",
    "local_government_id": "567",
    "local_government_name": "EWEKORO",
    "state_id": "27",
    "state_name": "OGUN",
    "location": {
      "latitude": 7.0666677,
      "longitude": 3.2842275,
      "viewport": {
        "northeast": {
          "lat": 7.068043479892721,
          "lng": 3.285761729892722
        },
        "southwest": {
          "lat": 7.065343820107277,
          "lng": 3.283062070107277
        }
      },
      "formatted_address": "378M+MM9, Expressway, Lagos 110106, Abeokuta, Nigeria",
      "google_map_url": "https://maps.google.com?q=7.0666677,3.2842275",
      "google_place_id": "ChIJwwrH0k-zOxAR2D0VuEXsbfI"
    }
  },
  {
    "id": "341702",
    "name": "OPEN SPACE BESIDE TOWN HALL, ABULE AKE",
    "registration_area_id": "17340",
    "precise_location": null,
    "abbreviation": "012",
    "units": "012",
    "delimitation": "27/06/10/012",
    "remark": "NEW PU",
    "ward_id": "17340",
    "ward_name": "OBADA-OKO",
    "local_government_id": "567",
    "local_government_name": "EWEKORO",
    "state_id": "27",
    "state_name": "OGUN",
    "location": {
      "latitude": 7.070838299999999,
      "longitude": 3.2885948,
      "viewport": {
        "northeast": {
          "lat": 7.072129279892722,
          "lng": 3.289907829892722
        },
        "southwest": {
          "lat": 7.069429620107278,
          "lng": 3.287208170107277
        }
      },
      "formatted_address": "37CQ+6CV, 110106, Abeokuta, Nigeria",
      "google_map_url": "https://maps.google.com?q=7.070838299999999,3.2885948",
      "google_place_id": "ChIJoVPtNlWzOxARfsutbyGNYbM"
    }
  },
  {
    "id": "341703",
    "name": "OLUMO NURSERY/ PRY SCHOOL, AYELOJA",
    "registration_area_id": "17340",
    "precise_location": null,
    "abbreviation": "013",
    "units": "013",
    "delimitation": "27/06/10/013",
    "remark": "NEW PU",
    "ward_id": "17340",
    "ward_name": "OBADA-OKO",
    "local_government_id": "567",
    "local_government_name": "EWEKORO",
    "state_id": "27",
    "state_name": "OGUN",
    "location": {
      "latitude": 7.077125,
      "longitude": 3.2897128,
      "viewport": {
        "northeast": {
          "lat": 7.078474629892721,
          "lng": 3.291068679892722
        },
        "southwest": {
          "lat": 7.075774970107277,
          "lng": 3.288369020107277
        }
      },
      "formatted_address": "37GQ+RW7, 110104, Abeokuta, Nigeria",
      "google_map_url": "https://maps.google.com?q=7.077125,3.2897128",
      "google_place_id": "ChIJ3yGCFdKyOxARpWIpvMrJ3RQ"
    }
  },
  {
    "id": "341704",
    "name": "IN FRONT OF MTN MAST KONDO ELEJA VILLAGE",
    "registration_area_id": "17340",
    "precise_location": null,
    "abbreviation": "014",
    "units": "014",
    "delimitation": "27/06/10/014",
    "remark": "NEW PU",
    "ward_id": "17340",
    "ward_name": "OBADA-OKO",
    "local_government_id": "567",
    "local_government_name": "EWEKORO",
    "state_id": "27",
    "state_name": "OGUN",
    "location": {
      "latitude": 7.019612,
      "longitude": 3.287694,
      "viewport": {
        "northeast": {
          "lat": 7.020961829892722,
          "lng": 3.289043829892722
        },
        "southwest": {
          "lat": 7.018262170107278,
          "lng": 3.286344170107277
        }
      },
      "formatted_address": "279Q+R3W, Palmfront Avenue, Sawmill Papalanto, Ogun, Nigeria",
      "google_map_url": "https://maps.google.com?q=7.019612,3.287694",
      "google_place_id": "ChIJx9g5M0ayOxARY2aJFG94TEA"
    }
  },
  {
    "id": "341705",
    "name": "OPEN SPACE ADJACENT O-SQUARE HOTEL",
    "registration_area_id": "17340",
    "precise_location": null,
    "abbreviation": "015",
    "units": "015",
    "delimitation": "27/06/10/015",
    "remark": "NEW PU",
    "ward_id": "17340",
    "ward_name": "OBADA-OKO",
    "local_government_id": "567",
    "local_government_name": "EWEKORO",
    "state_id": "27",
    "state_name": "OGUN",
    "location": {
      "latitude": 7.0595623,
      "longitude": 3.2905851,
      "viewport": {
        "northeast": {
          "lat": 7.060891729892722,
          "lng": 3.291912079892722
        },
        "southwest": {
          "lat": 7.058192070107278,
          "lng": 3.289212420107277
        }
      },
      "formatted_address": "375R+R7R, 110104, Aroge, Nigeria",
      "google_map_url": "https://maps.google.com?q=7.0595623,3.2905851",
      "google_place_id": "ChIJM5iC7XKzOxARYYVLBLzHGhA"
    }
  },
  {
    "id": "341706",
    "name": "L.G PRY HEALTH CENTRE, OBADA OKO",
    "registration_area_id": "17340",
    "precise_location": null,
    "abbreviation": "016",
    "units": "016",
    "delimitation": "27/06/10/016",
    "remark": "NEW PU",
    "ward_id": "17340",
    "ward_name": "OBADA-OKO",
    "local_government_id": "567",
    "local_government_name": "EWEKORO",
    "state_id": "27",
    "state_name": "OGUN",
    "location": {
      "latitude": 7.0613433,
      "longitude": 3.2875334,
      "viewport": {
        "northeast": {
          "lat": 7.062693129892721,
          "lng": 3.288883229892723
        },
        "southwest": {
          "lat": 7.059993470107277,
          "lng": 3.286183570107278
        }
      },
      "formatted_address": "Along Old, Lagos - Abeokuta Rd, Nigeria",
      "google_map_url": "https://maps.google.com?q=7.0613433,3.2875334",
      "google_place_id": "ChIJHfkuZx6zOxARfbhFSvCzJvo"
    }
  },
  {
    "id": "341707",
    "name": "L.G HEALTH CENTRE, BANJOKO",
    "registration_area_id": "17340",
    "precise_location": null,
    "abbreviation": "017",
    "units": "017",
    "delimitation": "27/06/10/017",
    "remark": "NEW PU",
    "ward_id": "17340",
    "ward_name": "OBADA-OKO",
    "local_government_id": "567",
    "local_government_name": "EWEKORO",
    "state_id": "27",
    "state_name": "OGUN",
    "location": {
      "latitude": 6.7091888,
      "longitude": 3.236507,
      "viewport": {
        "northeast": {
          "lat": 6.710585129892721,
          "lng": 3.237758979892722
        },
        "southwest": {
          "lat": 6.707885470107277,
          "lng": 3.235059320107278
        }
      },
      "formatted_address": "P65P+MJC, Lagos-Abeokuta Expy, 112104, Ota, Nigeria",
      "google_map_url": "https://maps.google.com?q=6.7091888,3.236507",
      "google_place_id": "ChIJq_rmpkeYOxAR-VouWExzAT4"
    }
  }
]