[
  {
    "id": "49576",
    "name": "UGBEDOGUN PRY. SCHOOL, OGUTE",
    "registration_area_id": "2682",
    "precise_location": null,
    "abbreviation": "001",
    "units": "001",
    "delimitation": "12/08/06/001",
    "remark": "EXISTING PU",
    "ward_id": "2682",
    "ward_name": "OKPELLA II",
    "local_government_id": "232",
    "local_government_name": "ETSAKO EAST",
    "state_id": "12",
    "state_name": "EDO",
    "location": {
      "latitude": 7.254411399999999,
      "longitude": 6.2725425,
      "viewport": {
        "northeast": {
          "lat": 7.255707729892722,
          "lng": 6.273728879892722
        },
        "southwest": {
          "lat": 7.253008070107279,
          "lng": 6.271029220107279
        }
      },
      "formatted_address": "Okpella II, 312107, Oku, Nigeria",
      "google_map_url": "https://maps.google.com?q=7.254411399999999,6.2725425",
      "google_place_id": "ChIJH5u7gVBwRhAR8KSizD2AIE0"
    }
  },
  {
    "id": "49577",
    "name": "UGBEDOGUN PRY. SCHOOL, UDIEGWA",
    "registration_area_id": "2682",
    "precise_location": null,
    "abbreviation": "002",
    "units": "002",
    "delimitation": "12/08/06/002",
    "remark": "EXISTING PU",
    "ward_id": "2682",
    "ward_name": "OKPELLA II",
    "local_government_id": "232",
    "local_government_name": "ETSAKO EAST",
    "state_id": "12",
    "state_name": "EDO",
    "location": {
      "latitude": 7.254411399999999,
      "longitude": 6.2725425,
      "viewport": {
        "northeast": {
          "lat": 7.255707729892722,
          "lng": 6.273728879892722
        },
        "southwest": {
          "lat": 7.253008070107279,
          "lng": 6.271029220107279
        }
      },
      "formatted_address": "Okpella II, 312107, Oku, Nigeria",
      "google_map_url": "https://maps.google.com?q=7.254411399999999,6.2725425",
      "google_place_id": "ChIJH5u7gVBwRhAR8KSizD2AIE0"
    }
  },
  {
    "id": "49578",
    "name": "EKURI PRY. SCHOOL, IGHIATSE/IMHIRHOKHO/IMANABA   I",
    "registration_area_id": "2682",
    "precise_location": null,
    "abbreviation": "003",
    "units": "003",
    "delimitation": "12/08/06/003",
    "remark": "EXISTING PU",
    "ward_id": "2682",
    "ward_name": "OKPELLA II",
    "local_government_id": "232",
    "local_government_name": "ETSAKO EAST",
    "state_id": "12",
    "state_name": "EDO",
    "location": {
      "latitude": 7.254411399999999,
      "longitude": 6.2725425,
      "viewport": {
        "northeast": {
          "lat": 7.255707729892722,
          "lng": 6.273728879892722
        },
        "southwest": {
          "lat": 7.253008070107279,
          "lng": 6.271029220107279
        }
      },
      "formatted_address": "Okpella II, 312107, Oku, Nigeria",
      "google_map_url": "https://maps.google.com?q=7.254411399999999,6.2725425",
      "google_place_id": "ChIJH5u7gVBwRhAR8KSizD2AIE0"
    }
  },
  {
    "id": "49579",
    "name": "EKURI PRY. SCHOOL, IGHIATSE/IMHIRHOKHO/IMANABA   II",
    "registration_area_id": "2682",
    "precise_location": null,
    "abbreviation": "004",
    "units": "004",
    "delimitation": "12/08/06/004",
    "remark": "EXISTING PU",
    "ward_id": "2682",
    "ward_name": "OKPELLA II",
    "local_government_id": "232",
    "local_government_name": "ETSAKO EAST",
    "state_id": "12",
    "state_name": "EDO",
    "location": {
      "latitude": 7.254411399999999,
      "longitude": 6.2725425,
      "viewport": {
        "northeast": {
          "lat": 7.255707729892722,
          "lng": 6.273728879892722
        },
        "southwest": {
          "lat": 7.253008070107279,
          "lng": 6.271029220107279
        }
      },
      "formatted_address": "Okpella II, 312107, Oku, Nigeria",
      "google_map_url": "https://maps.google.com?q=7.254411399999999,6.2725425",
      "google_place_id": "ChIJH5u7gVBwRhAR8KSizD2AIE0"
    }
  },
  {
    "id": "49580",
    "name": "ILEWURI PUBLIC SQUARE, ILEWURI",
    "registration_area_id": "2682",
    "precise_location": null,
    "abbreviation": "005",
    "units": "005",
    "delimitation": "12/08/06/005",
    "remark": "EXISTING PU",
    "ward_id": "2682",
    "ward_name": "OKPELLA II",
    "local_government_id": "232",
    "local_government_name": "ETSAKO EAST",
    "state_id": "12",
    "state_name": "EDO",
    "location": {
      "latitude": 7.186008199999999,
      "longitude": 6.5310637,
      "viewport": {
        "northeast": {
          "lat": 7.187294429892722,
          "lng": 6.532390229892721
        },
        "southwest": {
          "lat": 7.184594770107278,
          "lng": 6.529690570107277
        }
      },
      "formatted_address": "5GPJ+CC4, 312107, Itsukwi, Nigeria",
      "google_map_url": "https://maps.google.com?q=7.186008199999999,6.5310637",
      "google_place_id": "ChIJLw_W5PnQRRARs1g0EGAoX1o"
    }
  },
  {
    "id": "49581",
    "name": "OFUOKHA PRY. SCHOOL, OKHU/OFUOKHA",
    "registration_area_id": "2682",
    "precise_location": null,
    "abbreviation": "006",
    "units": "006",
    "delimitation": "12/08/06/006",
    "remark": "EXISTING PU",
    "ward_id": "2682",
    "ward_name": "OKPELLA II",
    "local_government_id": "232",
    "local_government_name": "ETSAKO EAST",
    "state_id": "12",
    "state_name": "EDO",
    "location": {
      "latitude": 7.254411399999999,
      "longitude": 6.2725425,
      "viewport": {
        "northeast": {
          "lat": 7.255707729892722,
          "lng": 6.273728879892722
        },
        "southwest": {
          "lat": 7.253008070107279,
          "lng": 6.271029220107279
        }
      },
      "formatted_address": "Okpella II, 312107, Oku, Nigeria",
      "google_map_url": "https://maps.google.com?q=7.254411399999999,6.2725425",
      "google_place_id": "ChIJH5u7gVBwRhAR8KSizD2AIE0"
    }
  },
  {
    "id": "49582",
    "name": "OFUOKHA PRY. SCHOOL, ITUROGBE",
    "registration_area_id": "2682",
    "precise_location": null,
    "abbreviation": "007",
    "units": "007",
    "delimitation": "12/08/06/007",
    "remark": "EXISTING PU",
    "ward_id": "2682",
    "ward_name": "OKPELLA II",
    "local_government_id": "232",
    "local_government_name": "ETSAKO EAST",
    "state_id": "12",
    "state_name": "EDO",
    "location": {
      "latitude": 7.254411399999999,
      "longitude": 6.2725425,
      "viewport": {
        "northeast": {
          "lat": 7.255707729892722,
          "lng": 6.273728879892722
        },
        "southwest": {
          "lat": 7.253008070107279,
          "lng": 6.271029220107279
        }
      },
      "formatted_address": "Okpella II, 312107, Oku, Nigeria",
      "google_map_url": "https://maps.google.com?q=7.254411399999999,6.2725425",
      "google_place_id": "ChIJH5u7gVBwRhAR8KSizD2AIE0"
    }
  },
  {
    "id": "49583",
    "name": "UGBEDOGUN PRY. SCHOOL, OKOKPETU",
    "registration_area_id": "2682",
    "precise_location": null,
    "abbreviation": "008",
    "units": "008",
    "delimitation": "12/08/06/008",
    "remark": "EXISTING PU",
    "ward_id": "2682",
    "ward_name": "OKPELLA II",
    "local_government_id": "232",
    "local_government_name": "ETSAKO EAST",
    "state_id": "12",
    "state_name": "EDO",
    "location": {
      "latitude": 7.254411399999999,
      "longitude": 6.2725425,
      "viewport": {
        "northeast": {
          "lat": 7.255707729892722,
          "lng": 6.273728879892722
        },
        "southwest": {
          "lat": 7.253008070107279,
          "lng": 6.271029220107279
        }
      },
      "formatted_address": "Okpella II, 312107, Oku, Nigeria",
      "google_map_url": "https://maps.google.com?q=7.254411399999999,6.2725425",
      "google_place_id": "ChIJH5u7gVBwRhAR8KSizD2AIE0"
    }
  },
  {
    "id": "49584",
    "name": "UDIOGIEGIE PRY. SCHOOL, IMIENEGWE",
    "registration_area_id": "2682",
    "precise_location": null,
    "abbreviation": "009",
    "units": "009",
    "delimitation": "12/08/06/009",
    "remark": "EXISTING PU",
    "ward_id": "2682",
    "ward_name": "OKPELLA II",
    "local_government_id": "232",
    "local_government_name": "ETSAKO EAST",
    "state_id": "12",
    "state_name": "EDO",
    "location": {
      "latitude": 7.253271499999999,
      "longitude": 6.3440825,
      "viewport": {
        "northeast": {
          "lat": 7.254629929892721,
          "lng": 6.345475579892721
        },
        "southwest": {
          "lat": 7.251930270107277,
          "lng": 6.342775920107277
        }
      },
      "formatted_address": "783V+8J4, Auchi-Okugbe Rd, 312107, Okpella, Nigeria",
      "google_map_url": "https://maps.google.com?q=7.253271499999999,6.3440825",
      "google_place_id": "ChIJsdj8_hd3RhAR2h-MsmwV4GE"
    }
  },
  {
    "id": "49585",
    "name": "UGBEDOGUN  P/S OGUTE II",
    "registration_area_id": "2682",
    "precise_location": null,
    "abbreviation": "010",
    "units": "010",
    "delimitation": "12/08/06/010",
    "remark": "NEW PU",
    "ward_id": "2682",
    "ward_name": "OKPELLA II",
    "local_government_id": "232",
    "local_government_name": "ETSAKO EAST",
    "state_id": "12",
    "state_name": "EDO",
    "location": {
      "latitude": 7.2192556,
      "longitude": 6.3343506,
      "viewport": {
        "northeast": {
          "lat": 7.220624629892723,
          "lng": 6.335719950000001
        },
        "southwest": {
          "lat": 7.217924970107279,
          "lng": 6.330242550000001
        }
      },
      "formatted_address": "689M+PP5, 312107, Okpella, Nigeria",
      "google_map_url": "https://maps.google.com?q=7.2192556,6.3343506",
      "google_place_id": "ChIJVVVVVVXFRhARkW1PfBRnswM"
    }
  },
  {
    "id": "49586",
    "name": "UGBEDOGUN P/S UDIEGWA II",
    "registration_area_id": "2682",
    "precise_location": null,
    "abbreviation": "011",
    "units": "011",
    "delimitation": "12/08/06/011",
    "remark": "NEW PU",
    "ward_id": "2682",
    "ward_name": "OKPELLA II",
    "local_government_id": "232",
    "local_government_name": "ETSAKO EAST",
    "state_id": "12",
    "state_name": "EDO",
    "location": {
      "latitude": 7.2192556,
      "longitude": 6.3343506,
      "viewport": {
        "northeast": {
          "lat": 7.220624629892723,
          "lng": 6.335719950000001
        },
        "southwest": {
          "lat": 7.217924970107279,
          "lng": 6.330242550000001
        }
      },
      "formatted_address": "689M+PP5, 312107, Okpella, Nigeria",
      "google_map_url": "https://maps.google.com?q=7.2192556,6.3343506",
      "google_place_id": "ChIJVVVVVVXFRhARkW1PfBRnswM"
    }
  },
  {
    "id": "49587",
    "name": "EKURI P/S IGHIATSE/IMIHIRHOKHO/IMANABA III",
    "registration_area_id": "2682",
    "precise_location": null,
    "abbreviation": "012",
    "units": "012",
    "delimitation": "12/08/06/012",
    "remark": "NEW PU",
    "ward_id": "2682",
    "ward_name": "OKPELLA II",
    "local_government_id": "232",
    "local_government_name": "ETSAKO EAST",
    "state_id": "12",
    "state_name": "EDO",
    "location": {
      "latitude": 7.2192556,
      "longitude": 6.3343506,
      "viewport": {
        "northeast": {
          "lat": 7.220624629892723,
          "lng": 6.335719950000001
        },
        "southwest": {
          "lat": 7.217924970107279,
          "lng": 6.330242550000001
        }
      },
      "formatted_address": "689M+PP5, 312107, Okpella, Nigeria",
      "google_map_url": "https://maps.google.com?q=7.2192556,6.3343506",
      "google_place_id": "ChIJVVVVVVXFRhARkW1PfBRnswM"
    }
  },
  {
    "id": "49588",
    "name": "EKURI P/S IV, IGHATSE /IMHIRHOKHO /IMANABA",
    "registration_area_id": "2682",
    "precise_location": null,
    "abbreviation": "013",
    "units": "013",
    "delimitation": "12/08/06/013",
    "remark": "NEW PU",
    "ward_id": "2682",
    "ward_name": "OKPELLA II",
    "local_government_id": "232",
    "local_government_name": "ETSAKO EAST",
    "state_id": "12",
    "state_name": "EDO",
    "location": {
      "latitude": 7.2192556,
      "longitude": 6.3343506,
      "viewport": {
        "northeast": {
          "lat": 7.220624629892723,
          "lng": 6.335719950000001
        },
        "southwest": {
          "lat": 7.217924970107279,
          "lng": 6.330242550000001
        }
      },
      "formatted_address": "689M+PP5, 312107, Okpella, Nigeria",
      "google_map_url": "https://maps.google.com?q=7.2192556,6.3343506",
      "google_place_id": "ChIJVVVVVVXFRhARkW1PfBRnswM"
    }
  },
  {
    "id": "49589",
    "name": "OFUOKHA P/S OKHU/OFUOKHA  II",
    "registration_area_id": "2682",
    "precise_location": null,
    "abbreviation": "014",
    "units": "014",
    "delimitation": "12/08/06/014",
    "remark": "NEW PU",
    "ward_id": "2682",
    "ward_name": "OKPELLA II",
    "local_government_id": "232",
    "local_government_name": "ETSAKO EAST",
    "state_id": "12",
    "state_name": "EDO",
    "location": {
      "latitude": 7.2192556,
      "longitude": 6.3343506,
      "viewport": {
        "northeast": {
          "lat": 7.220624629892723,
          "lng": 6.335719950000001
        },
        "southwest": {
          "lat": 7.217924970107279,
          "lng": 6.330242550000001
        }
      },
      "formatted_address": "689M+PP5, 312107, Okpella, Nigeria",
      "google_map_url": "https://maps.google.com?q=7.2192556,6.3343506",
      "google_place_id": "ChIJVVVVVVXFRhARkW1PfBRnswM"
    }
  },
  {
    "id": "49590",
    "name": "OFUOKHA P/S II ITUROGBE",
    "registration_area_id": "2682",
    "precise_location": null,
    "abbreviation": "015",
    "units": "015",
    "delimitation": "12/08/06/015",
    "remark": "NEW PU",
    "ward_id": "2682",
    "ward_name": "OKPELLA II",
    "local_government_id": "232",
    "local_government_name": "ETSAKO EAST",
    "state_id": "12",
    "state_name": "EDO",
    "location": {
      "latitude": 7.2192556,
      "longitude": 6.3343506,
      "viewport": {
        "northeast": {
          "lat": 7.220624629892723,
          "lng": 6.335719950000001
        },
        "southwest": {
          "lat": 7.217924970107279,
          "lng": 6.330242550000001
        }
      },
      "formatted_address": "689M+PP5, 312107, Okpella, Nigeria",
      "google_map_url": "https://maps.google.com?q=7.2192556,6.3343506",
      "google_place_id": "ChIJVVVVVVXFRhARkW1PfBRnswM"
    }
  },
  {
    "id": "49591",
    "name": "UGBEDOGUN P/S OKOKPETU II",
    "registration_area_id": "2682",
    "precise_location": null,
    "abbreviation": "016",
    "units": "016",
    "delimitation": "12/08/06/016",
    "remark": "NEW PU",
    "ward_id": "2682",
    "ward_name": "OKPELLA II",
    "local_government_id": "232",
    "local_government_name": "ETSAKO EAST",
    "state_id": "12",
    "state_name": "EDO",
    "location": {
      "latitude": 7.279236399999998,
      "longitude": 6.3427792,
      "viewport": {
        "northeast": {
          "lat": 7.280639979892723,
          "lng": 6.343992229892721
        },
        "southwest": {
          "lat": 7.277940320107279,
          "lng": 6.341292570107277
        }
      },
      "formatted_address": "78HV+M4R, 312107, Okpella, Nigeria",
      "google_map_url": "https://maps.google.com?q=7.279236399999998,6.3427792",
      "google_place_id": "ChIJgw9pHBR3RhAR7z16aZEnMHM"
    }
  },
  {
    "id": "49592",
    "name": "UDIOGIEGIE P/S IMIENEGWE II",
    "registration_area_id": "2682",
    "precise_location": null,
    "abbreviation": "017",
    "units": "017",
    "delimitation": "12/08/06/017",
    "remark": "NEW PU",
    "ward_id": "2682",
    "ward_name": "OKPELLA II",
    "local_government_id": "232",
    "local_government_name": "ETSAKO EAST",
    "state_id": "12",
    "state_name": "EDO",
    "location": {
      "latitude": 7.2192556,
      "longitude": 6.3343506,
      "viewport": {
        "northeast": {
          "lat": 7.220624629892723,
          "lng": 6.335719950000001
        },
        "southwest": {
          "lat": 7.217924970107279,
          "lng": 6.330242550000001
        }
      },
      "formatted_address": "689M+PP5, 312107, Okpella, Nigeria",
      "google_map_url": "https://maps.google.com?q=7.2192556,6.3343506",
      "google_place_id": "ChIJVVVVVVXFRhARkW1PfBRnswM"
    }
  }
]