[
  {
    "id": "15998",
    "name": "ENEM HALL I",
    "registration_area_id": "940",
    "precise_location": null,
    "abbreviation": "001",
    "units": "001",
    "delimitation": "04/14/04/001",
    "remark": "EXISTING PU",
    "ward_id": "940",
    "ward_name": "OTOLO II",
    "local_government_id": "83",
    "local_government_name": "NNEWI NORTH",
    "state_id": "4",
    "state_name": "ANAMBRA",
    "location": {
      "latitude": 6.011976199999999,
      "longitude": 6.933908000000001,
      "viewport": {
        "northeast": {
          "lat": 6.013338129892722,
          "lng": 6.935228679892721
        },
        "southwest": {
          "lat": 6.010638470107278,
          "lng": 6.932529020107277
        }
      },
      "formatted_address": "2W6M+QH6, Otolo 435101, II, Nigeria",
      "google_map_url": "https://maps.google.com?q=6.011976199999999,6.933908000000001",
      "google_place_id": "ChIJN0x9us2jQxARvfvQ-6sams8"
    }
  },
  {
    "id": "15999",
    "name": "ENEM HALL II",
    "registration_area_id": "940",
    "precise_location": null,
    "abbreviation": "002",
    "units": "002",
    "delimitation": "04/14/04/002",
    "remark": "EXISTING PU",
    "ward_id": "940",
    "ward_name": "OTOLO II",
    "local_government_id": "83",
    "local_government_name": "NNEWI NORTH",
    "state_id": "4",
    "state_name": "ANAMBRA",
    "location": {
      "latitude": 6.011976199999999,
      "longitude": 6.933908000000001,
      "viewport": {
        "northeast": {
          "lat": 6.013338129892722,
          "lng": 6.935228679892721
        },
        "southwest": {
          "lat": 6.010638470107278,
          "lng": 6.932529020107277
        }
      },
      "formatted_address": "2W6M+QH6, Otolo 435101, II, Nigeria",
      "google_map_url": "https://maps.google.com?q=6.011976199999999,6.933908000000001",
      "google_place_id": "ChIJN0x9us2jQxARvfvQ-6sams8"
    }
  },
  {
    "id": "16000",
    "name": "ENEM HALL III",
    "registration_area_id": "940",
    "precise_location": null,
    "abbreviation": "003",
    "units": "003",
    "delimitation": "04/14/04/003",
    "remark": "EXISTING PU",
    "ward_id": "940",
    "ward_name": "OTOLO II",
    "local_government_id": "83",
    "local_government_name": "NNEWI NORTH",
    "state_id": "4",
    "state_name": "ANAMBRA",
    "location": {
      "latitude": 6.011976199999999,
      "longitude": 6.933908000000001,
      "viewport": {
        "northeast": {
          "lat": 6.013338129892722,
          "lng": 6.935228679892721
        },
        "southwest": {
          "lat": 6.010638470107278,
          "lng": 6.932529020107277
        }
      },
      "formatted_address": "2W6M+QH6, Otolo 435101, II, Nigeria",
      "google_map_url": "https://maps.google.com?q=6.011976199999999,6.933908000000001",
      "google_place_id": "ChIJN0x9us2jQxARvfvQ-6sams8"
    }
  },
  {
    "id": "16001",
    "name": "ENEM HALL IV",
    "registration_area_id": "940",
    "precise_location": null,
    "abbreviation": "004",
    "units": "004",
    "delimitation": "04/14/04/004",
    "remark": "EXISTING PU",
    "ward_id": "940",
    "ward_name": "OTOLO II",
    "local_government_id": "83",
    "local_government_name": "NNEWI NORTH",
    "state_id": "4",
    "state_name": "ANAMBRA",
    "location": {
      "latitude": 6.011976199999999,
      "longitude": 6.933908000000001,
      "viewport": {
        "northeast": {
          "lat": 6.013338129892722,
          "lng": 6.935228679892721
        },
        "southwest": {
          "lat": 6.010638470107278,
          "lng": 6.932529020107277
        }
      },
      "formatted_address": "2W6M+QH6, Otolo 435101, II, Nigeria",
      "google_map_url": "https://maps.google.com?q=6.011976199999999,6.933908000000001",
      "google_place_id": "ChIJN0x9us2jQxARvfvQ-6sams8"
    }
  },
  {
    "id": "16002",
    "name": "OBIOFIA HALL I",
    "registration_area_id": "940",
    "precise_location": null,
    "abbreviation": "005",
    "units": "005",
    "delimitation": "04/14/04/005",
    "remark": "EXISTING PU",
    "ward_id": "940",
    "ward_name": "OTOLO II",
    "local_government_id": "83",
    "local_government_name": "NNEWI NORTH",
    "state_id": "4",
    "state_name": "ANAMBRA",
    "location": {
      "latitude": 6.0161445,
      "longitude": 6.9198968,
      "viewport": {
        "northeast": {
          "lat": 6.017465779892722,
          "lng": 6.921163429892723
        },
        "southwest": {
          "lat": 6.014766120107279,
          "lng": 6.918463770107279
        }
      },
      "formatted_address": "Otolo. State, 20 Ezenwegbu Rd, 435101, Nnewi, Nigeria",
      "google_map_url": "https://maps.google.com?q=6.0161445,6.9198968",
      "google_place_id": "ChIJFZjrKFO9QxARcHfuX086sZs"
    }
  },
  {
    "id": "16003",
    "name": "OBIOFIA HALL II",
    "registration_area_id": "940",
    "precise_location": null,
    "abbreviation": "006",
    "units": "006",
    "delimitation": "04/14/04/006",
    "remark": "EXISTING PU",
    "ward_id": "940",
    "ward_name": "OTOLO II",
    "local_government_id": "83",
    "local_government_name": "NNEWI NORTH",
    "state_id": "4",
    "state_name": "ANAMBRA",
    "location": {
      "latitude": 6.0161445,
      "longitude": 6.9198968,
      "viewport": {
        "northeast": {
          "lat": 6.017465779892722,
          "lng": 6.921163429892723
        },
        "southwest": {
          "lat": 6.014766120107279,
          "lng": 6.918463770107279
        }
      },
      "formatted_address": "Otolo. State, 20 Ezenwegbu Rd, 435101, Nnewi, Nigeria",
      "google_map_url": "https://maps.google.com?q=6.0161445,6.9198968",
      "google_place_id": "ChIJFZjrKFO9QxARcHfuX086sZs"
    }
  },
  {
    "id": "16004",
    "name": "ENEM COMM SCHOOL I",
    "registration_area_id": "940",
    "precise_location": null,
    "abbreviation": "007",
    "units": "007",
    "delimitation": "04/14/04/007",
    "remark": "EXISTING PU",
    "ward_id": "940",
    "ward_name": "OTOLO II",
    "local_government_id": "83",
    "local_government_name": "NNEWI NORTH",
    "state_id": "4",
    "state_name": "ANAMBRA",
    "location": {
      "latitude": 5.9994628,
      "longitude": 6.933507400000001,
      "viewport": {
        "northeast": {
          "lat": 6.00078887989272,
          "lng": 6.934827779892721
        },
        "southwest": {
          "lat": 5.998089220107277,
          "lng": 6.932128120107278
        }
      },
      "formatted_address": "XWXM+QCJ, 435101, Nnewi, Nigeria",
      "google_map_url": "https://maps.google.com?q=5.9994628,6.933507400000001",
      "google_place_id": "ChIJOWruVd-jQxARo6iS6lJV970"
    }
  },
  {
    "id": "16005",
    "name": "ENEM COMM SCHOOL II",
    "registration_area_id": "940",
    "precise_location": null,
    "abbreviation": "008",
    "units": "008",
    "delimitation": "04/14/04/008",
    "remark": "EXISTING PU",
    "ward_id": "940",
    "ward_name": "OTOLO II",
    "local_government_id": "83",
    "local_government_name": "NNEWI NORTH",
    "state_id": "4",
    "state_name": "ANAMBRA",
    "location": {
      "latitude": 5.9994628,
      "longitude": 6.933507400000001,
      "viewport": {
        "northeast": {
          "lat": 6.00078887989272,
          "lng": 6.934827779892721
        },
        "southwest": {
          "lat": 5.998089220107277,
          "lng": 6.932128120107278
        }
      },
      "formatted_address": "XWXM+QCJ, 435101, Nnewi, Nigeria",
      "google_map_url": "https://maps.google.com?q=5.9994628,6.933507400000001",
      "google_place_id": "ChIJOWruVd-jQxARo6iS6lJV970"
    }
  },
  {
    "id": "16006",
    "name": "ENEM COMM SCHOOL III",
    "registration_area_id": "940",
    "precise_location": null,
    "abbreviation": "009",
    "units": "009",
    "delimitation": "04/14/04/009",
    "remark": "EXISTING PU",
    "ward_id": "940",
    "ward_name": "OTOLO II",
    "local_government_id": "83",
    "local_government_name": "NNEWI NORTH",
    "state_id": "4",
    "state_name": "ANAMBRA",
    "location": {
      "latitude": 5.9994628,
      "longitude": 6.933507400000001,
      "viewport": {
        "northeast": {
          "lat": 6.00078887989272,
          "lng": 6.934827779892721
        },
        "southwest": {
          "lat": 5.998089220107277,
          "lng": 6.932128120107278
        }
      },
      "formatted_address": "XWXM+QCJ, 435101, Nnewi, Nigeria",
      "google_map_url": "https://maps.google.com?q=5.9994628,6.933507400000001",
      "google_place_id": "ChIJOWruVd-jQxARo6iS6lJV970"
    }
  },
  {
    "id": "16007",
    "name": "OBIOFIA UMUENEM C/S I",
    "registration_area_id": "940",
    "precise_location": null,
    "abbreviation": "010",
    "units": "010",
    "delimitation": "04/14/04/010",
    "remark": "EXISTING PU",
    "ward_id": "940",
    "ward_name": "OTOLO II",
    "local_government_id": "83",
    "local_government_name": "NNEWI NORTH",
    "state_id": "4",
    "state_name": "ANAMBRA",
    "location": {
      "latitude": 6.0148075,
      "longitude": 6.935009099999999,
      "viewport": {
        "northeast": {
          "lat": 6.016255529892723,
          "lng": 6.936235279892721
        },
        "southwest": {
          "lat": 6.013555870107279,
          "lng": 6.933535620107278
        }
      },
      "formatted_address": "2W7P+W2C, 435101, Nnewi, Nigeria",
      "google_map_url": "https://maps.google.com?q=6.0148075,6.935009099999999",
      "google_place_id": "ChIJAePbrHmjQxARaWSvG9UogDE"
    }
  },
  {
    "id": "16008",
    "name": "OBIOFIA UMUENEM C/S II",
    "registration_area_id": "940",
    "precise_location": null,
    "abbreviation": "011",
    "units": "011",
    "delimitation": "04/14/04/011",
    "remark": "EXISTING PU",
    "ward_id": "940",
    "ward_name": "OTOLO II",
    "local_government_id": "83",
    "local_government_name": "NNEWI NORTH",
    "state_id": "4",
    "state_name": "ANAMBRA",
    "location": {
      "latitude": 6.0148075,
      "longitude": 6.935009099999999,
      "viewport": {
        "northeast": {
          "lat": 6.016255529892723,
          "lng": 6.936235279892721
        },
        "southwest": {
          "lat": 6.013555870107279,
          "lng": 6.933535620107278
        }
      },
      "formatted_address": "2W7P+W2C, 435101, Nnewi, Nigeria",
      "google_map_url": "https://maps.google.com?q=6.0148075,6.935009099999999",
      "google_place_id": "ChIJAePbrHmjQxARaWSvG9UogDE"
    }
  },
  {
    "id": "16009",
    "name": "UZUKPE VILLAGE SQUARE I",
    "registration_area_id": "940",
    "precise_location": null,
    "abbreviation": "012",
    "units": "012",
    "delimitation": "04/14/04/012",
    "remark": "EXISTING PU",
    "ward_id": "940",
    "ward_name": "OTOLO II",
    "local_government_id": "83",
    "local_government_name": "NNEWI NORTH",
    "state_id": "4",
    "state_name": "ANAMBRA",
    "location": {
      "latitude": 6.018462599999999,
      "longitude": 6.9264645,
      "viewport": {
        "northeast": {
          "lat": 6.019776679892721,
          "lng": 6.927780779892722
        },
        "southwest": {
          "lat": 6.017077020107277,
          "lng": 6.925081120107278
        }
      },
      "formatted_address": "Off Igwe Orizu Rd, 435101, Nnewi, Nigeria",
      "google_map_url": "https://maps.google.com?q=6.018462599999999,6.9264645",
      "google_place_id": "ChIJu-9YspOjQxARsda7ZRKle40"
    }
  },
  {
    "id": "16010",
    "name": "UZUKPE VILLAGE SQUARE II",
    "registration_area_id": "940",
    "precise_location": null,
    "abbreviation": "013",
    "units": "013",
    "delimitation": "04/14/04/013",
    "remark": "EXISTING PU",
    "ward_id": "940",
    "ward_name": "OTOLO II",
    "local_government_id": "83",
    "local_government_name": "NNEWI NORTH",
    "state_id": "4",
    "state_name": "ANAMBRA",
    "location": null
  },
  {
    "id": "16011",
    "name": "UZUKPE VILLAGE SQUARE III",
    "registration_area_id": "940",
    "precise_location": null,
    "abbreviation": "014",
    "units": "014",
    "delimitation": "04/14/04/014",
    "remark": "EXISTING PU",
    "ward_id": "940",
    "ward_name": "OTOLO II",
    "local_government_id": "83",
    "local_government_name": "NNEWI NORTH",
    "state_id": "4",
    "state_name": "ANAMBRA",
    "location": {
      "latitude": 6.1945308,
      "longitude": 7.067948599999999,
      "viewport": {
        "northeast": {
          "lat": 6.195893079892722,
          "lng": 7.069371679892722
        },
        "southwest": {
          "lat": 6.193193420107278,
          "lng": 7.066672020107278
        }
      },
      "formatted_address": "53V9+R58, Umuenechi Village, Awka, Nigeria",
      "google_map_url": "https://maps.google.com?q=6.1945308,7.067948599999999",
      "google_place_id": "ChIJiRaMytODQxAROQb5gRjPGrg"
    }
  },
  {
    "id": "16012",
    "name": "UZUKPE VILLAGE SQUARE IV",
    "registration_area_id": "940",
    "precise_location": null,
    "abbreviation": "015",
    "units": "015",
    "delimitation": "04/14/04/015",
    "remark": "EXISTING PU",
    "ward_id": "940",
    "ward_name": "OTOLO II",
    "local_government_id": "83",
    "local_government_name": "NNEWI NORTH",
    "state_id": "4",
    "state_name": "ANAMBRA",
    "location": {
      "latitude": 6.1945308,
      "longitude": 7.067948599999999,
      "viewport": {
        "northeast": {
          "lat": 6.195893079892722,
          "lng": 7.069371679892722
        },
        "southwest": {
          "lat": 6.193193420107278,
          "lng": 7.066672020107278
        }
      },
      "formatted_address": "53V9+R58, Umuenechi Village, Awka, Nigeria",
      "google_map_url": "https://maps.google.com?q=6.1945308,7.067948599999999",
      "google_place_id": "ChIJiRaMytODQxAROQb5gRjPGrg"
    }
  },
  {
    "id": "16013",
    "name": "UZUKPE VILLAGE SQUARE V",
    "registration_area_id": "940",
    "precise_location": null,
    "abbreviation": "016",
    "units": "016",
    "delimitation": "04/14/04/016",
    "remark": "EXISTING PU",
    "ward_id": "940",
    "ward_name": "OTOLO II",
    "local_government_id": "83",
    "local_government_name": "NNEWI NORTH",
    "state_id": "4",
    "state_name": "ANAMBRA",
    "location": {
      "latitude": 6.1945308,
      "longitude": 7.067948599999999,
      "viewport": {
        "northeast": {
          "lat": 6.195893079892722,
          "lng": 7.069371679892722
        },
        "southwest": {
          "lat": 6.193193420107278,
          "lng": 7.066672020107278
        }
      },
      "formatted_address": "53V9+R58, Umuenechi Village, Awka, Nigeria",
      "google_map_url": "https://maps.google.com?q=6.1945308,7.067948599999999",
      "google_place_id": "ChIJiRaMytODQxAROQb5gRjPGrg"
    }
  },
  {
    "id": "16014",
    "name": "ST. CHARLES EGBU I",
    "registration_area_id": "940",
    "precise_location": null,
    "abbreviation": "017",
    "units": "017",
    "delimitation": "04/14/04/017",
    "remark": "EXISTING PU",
    "ward_id": "940",
    "ward_name": "OTOLO II",
    "local_government_id": "83",
    "local_government_name": "NNEWI NORTH",
    "state_id": "4",
    "state_name": "ANAMBRA",
    "location": {
      "latitude": 6.0159398,
      "longitude": 6.9487416,
      "viewport": {
        "northeast": {
          "lat": 6.017271029892722,
          "lng": 6.950041629892723
        },
        "southwest": {
          "lat": 6.014571370107278,
          "lng": 6.947341970107279
        }
      },
      "formatted_address": "Abel Okoye Road, 435109, Awka Etiti, Nigeria",
      "google_map_url": "https://maps.google.com?q=6.0159398,6.9487416",
      "google_place_id": "ChIJSSmDlZ2iQxARgFPXhNajJW8"
    }
  },
  {
    "id": "16015",
    "name": "ST. CHARLES EGBU II",
    "registration_area_id": "940",
    "precise_location": null,
    "abbreviation": "018",
    "units": "018",
    "delimitation": "04/14/04/018",
    "remark": "EXISTING PU",
    "ward_id": "940",
    "ward_name": "OTOLO II",
    "local_government_id": "83",
    "local_government_name": "NNEWI NORTH",
    "state_id": "4",
    "state_name": "ANAMBRA",
    "location": {
      "latitude": 6.0159398,
      "longitude": 6.9487416,
      "viewport": {
        "northeast": {
          "lat": 6.017271029892722,
          "lng": 6.950041629892723
        },
        "southwest": {
          "lat": 6.014571370107278,
          "lng": 6.947341970107279
        }
      },
      "formatted_address": "Abel Okoye Road, 435109, Awka Etiti, Nigeria",
      "google_map_url": "https://maps.google.com?q=6.0159398,6.9487416",
      "google_place_id": "ChIJSSmDlZ2iQxARgFPXhNajJW8"
    }
  },
  {
    "id": "16016",
    "name": "OGBE CENT SCHOOL",
    "registration_area_id": "940",
    "precise_location": null,
    "abbreviation": "019",
    "units": "019",
    "delimitation": "04/14/04/019",
    "remark": "EXISTING PU",
    "ward_id": "940",
    "ward_name": "OTOLO II",
    "local_government_id": "83",
    "local_government_name": "NNEWI NORTH",
    "state_id": "4",
    "state_name": "ANAMBRA",
    "location": {
      "latitude": 6.0084531,
      "longitude": 6.953821599999999,
      "viewport": {
        "northeast": {
          "lat": 6.009969779892722,
          "lng": 6.955162179892722
        },
        "southwest": {
          "lat": 6.007270120107278,
          "lng": 6.952462520107278
        }
      },
      "formatted_address": "Okpuno-umuenem, Otolo 435101, Nnewi, Nigeria",
      "google_map_url": "https://maps.google.com?q=6.0084531,6.953821599999999",
      "google_place_id": "ChIJM7EuEHmjQxAR36dX_dfLaCg"
    }
  },
  {
    "id": "16017",
    "name": "ENEM HALL V",
    "registration_area_id": "940",
    "precise_location": null,
    "abbreviation": "020",
    "units": "020",
    "delimitation": "04/14/04/020",
    "remark": "EXISTING PU",
    "ward_id": "940",
    "ward_name": "OTOLO II",
    "local_government_id": "83",
    "local_government_name": "NNEWI NORTH",
    "state_id": "4",
    "state_name": "ANAMBRA",
    "location": {
      "latitude": 6.011976199999999,
      "longitude": 6.933908000000001,
      "viewport": {
        "northeast": {
          "lat": 6.013338129892722,
          "lng": 6.935228679892721
        },
        "southwest": {
          "lat": 6.010638470107278,
          "lng": 6.932529020107277
        }
      },
      "formatted_address": "2W6M+QH6, Otolo 435101, II, Nigeria",
      "google_map_url": "https://maps.google.com?q=6.011976199999999,6.933908000000001",
      "google_place_id": "ChIJN0x9us2jQxARvfvQ-6sams8"
    }
  },
  {
    "id": "16018",
    "name": "UMUENEM HEALTH CENTER  I",
    "registration_area_id": "940",
    "precise_location": null,
    "abbreviation": "021",
    "units": "021",
    "delimitation": "04/14/04/021",
    "remark": "NEW PU",
    "ward_id": "940",
    "ward_name": "OTOLO II",
    "local_government_id": "83",
    "local_government_name": "NNEWI NORTH",
    "state_id": "4",
    "state_name": "ANAMBRA",
    "location": {
      "latitude": 6.0148075,
      "longitude": 6.935009099999999,
      "viewport": {
        "northeast": {
          "lat": 6.016255529892723,
          "lng": 6.936235279892721
        },
        "southwest": {
          "lat": 6.013555870107279,
          "lng": 6.933535620107278
        }
      },
      "formatted_address": "2W7P+W2C, 435101, Nnewi, Nigeria",
      "google_map_url": "https://maps.google.com?q=6.0148075,6.935009099999999",
      "google_place_id": "ChIJAePbrHmjQxARaWSvG9UogDE"
    }
  },
  {
    "id": "16019",
    "name": "UMUENEM HEALTH CENTER  II",
    "registration_area_id": "940",
    "precise_location": null,
    "abbreviation": "022",
    "units": "022",
    "delimitation": "04/14/04/022",
    "remark": "NEW PU",
    "ward_id": "940",
    "ward_name": "OTOLO II",
    "local_government_id": "83",
    "local_government_name": "NNEWI NORTH",
    "state_id": "4",
    "state_name": "ANAMBRA",
    "location": {
      "latitude": 6.0148075,
      "longitude": 6.935009099999999,
      "viewport": {
        "northeast": {
          "lat": 6.016255529892723,
          "lng": 6.936235279892721
        },
        "southwest": {
          "lat": 6.013555870107279,
          "lng": 6.933535620107278
        }
      },
      "formatted_address": "2W7P+W2C, 435101, Nnewi, Nigeria",
      "google_map_url": "https://maps.google.com?q=6.0148075,6.935009099999999",
      "google_place_id": "ChIJAePbrHmjQxARaWSvG9UogDE"
    }
  },
  {
    "id": "16020",
    "name": "OBI DOGONU HALL  I",
    "registration_area_id": "940",
    "precise_location": null,
    "abbreviation": "023",
    "units": "023",
    "delimitation": "04/14/04/023",
    "remark": "NEW PU",
    "ward_id": "940",
    "ward_name": "OTOLO II",
    "local_government_id": "83",
    "local_government_name": "NNEWI NORTH",
    "state_id": "4",
    "state_name": "ANAMBRA",
    "location": {
      "latitude": 6.008502,
      "longitude": 6.953793699999999,
      "viewport": {
        "northeast": {
          "lat": 6.009993529892722,
          "lng": 6.955135679892722
        },
        "southwest": {
          "lat": 6.007293870107278,
          "lng": 6.952436020107278
        }
      },
      "formatted_address": "Okpuno Umuenem, Otolo 435109, Nnewi, Nigeria",
      "google_map_url": "https://maps.google.com?q=6.008502,6.953793699999999",
      "google_place_id": "ChIJs35NAhqjQxARJt3swqoc7vk"
    }
  },
  {
    "id": "16021",
    "name": "OBI DOGONU HALL  II",
    "registration_area_id": "940",
    "precise_location": null,
    "abbreviation": "024",
    "units": "024",
    "delimitation": "04/14/04/024",
    "remark": "NEW PU",
    "ward_id": "940",
    "ward_name": "OTOLO II",
    "local_government_id": "83",
    "local_government_name": "NNEWI NORTH",
    "state_id": "4",
    "state_name": "ANAMBRA",
    "location": {
      "latitude": 6.008502,
      "longitude": 6.953793699999999,
      "viewport": {
        "northeast": {
          "lat": 6.009993529892722,
          "lng": 6.955135679892722
        },
        "southwest": {
          "lat": 6.007293870107278,
          "lng": 6.952436020107278
        }
      },
      "formatted_address": "Okpuno Umuenem, Otolo 435109, Nnewi, Nigeria",
      "google_map_url": "https://maps.google.com?q=6.008502,6.953793699999999",
      "google_place_id": "ChIJs35NAhqjQxARJt3swqoc7vk"
    }
  },
  {
    "id": "16022",
    "name": "OBI NSOFOR HALL",
    "registration_area_id": "940",
    "precise_location": null,
    "abbreviation": "025",
    "units": "025",
    "delimitation": "04/14/04/025",
    "remark": "NEW PU",
    "ward_id": "940",
    "ward_name": "OTOLO II",
    "local_government_id": "83",
    "local_government_name": "NNEWI NORTH",
    "state_id": "4",
    "state_name": "ANAMBRA",
    "location": {
      "latitude": 6.011976199999999,
      "longitude": 6.933908000000001,
      "viewport": {
        "northeast": {
          "lat": 6.013338129892722,
          "lng": 6.935228679892721
        },
        "southwest": {
          "lat": 6.010638470107278,
          "lng": 6.932529020107277
        }
      },
      "formatted_address": "2W6M+QH6, Otolo 435101, II, Nigeria",
      "google_map_url": "https://maps.google.com?q=6.011976199999999,6.933908000000001",
      "google_place_id": "ChIJN0x9us2jQxARvfvQ-6sams8"
    }
  },
  {
    "id": "16023",
    "name": "OBI  UMUENEM EGBU  HALL I",
    "registration_area_id": "940",
    "precise_location": null,
    "abbreviation": "026",
    "units": "026",
    "delimitation": "04/14/04/026",
    "remark": "NEW PU",
    "ward_id": "940",
    "ward_name": "OTOLO II",
    "local_government_id": "83",
    "local_government_name": "NNEWI NORTH",
    "state_id": "4",
    "state_name": "ANAMBRA",
    "location": {
      "latitude": 6.008502,
      "longitude": 6.953793699999999,
      "viewport": {
        "northeast": {
          "lat": 6.009993529892722,
          "lng": 6.955135679892722
        },
        "southwest": {
          "lat": 6.007293870107278,
          "lng": 6.952436020107278
        }
      },
      "formatted_address": "Okpuno Umuenem, Otolo 435109, Nnewi, Nigeria",
      "google_map_url": "https://maps.google.com?q=6.008502,6.953793699999999",
      "google_place_id": "ChIJs35NAhqjQxARJt3swqoc7vk"
    }
  },
  {
    "id": "16024",
    "name": "OBI  UMUENEM EGBU  HALL II",
    "registration_area_id": "940",
    "precise_location": null,
    "abbreviation": "027",
    "units": "027",
    "delimitation": "04/14/04/027",
    "remark": "NEW PU",
    "ward_id": "940",
    "ward_name": "OTOLO II",
    "local_government_id": "83",
    "local_government_name": "NNEWI NORTH",
    "state_id": "4",
    "state_name": "ANAMBRA",
    "location": {
      "latitude": 6.008502,
      "longitude": 6.953793699999999,
      "viewport": {
        "northeast": {
          "lat": 6.009993529892722,
          "lng": 6.955135679892722
        },
        "southwest": {
          "lat": 6.007293870107278,
          "lng": 6.952436020107278
        }
      },
      "formatted_address": "Okpuno Umuenem, Otolo 435109, Nnewi, Nigeria",
      "google_map_url": "https://maps.google.com?q=6.008502,6.953793699999999",
      "google_place_id": "ChIJs35NAhqjQxARJt3swqoc7vk"
    }
  },
  {
    "id": "16025",
    "name": "OBI ONYEMENA HALL",
    "registration_area_id": "940",
    "precise_location": null,
    "abbreviation": "028",
    "units": "028",
    "delimitation": "04/14/04/028",
    "remark": "NEW PU",
    "ward_id": "940",
    "ward_name": "OTOLO II",
    "local_government_id": "83",
    "local_government_name": "NNEWI NORTH",
    "state_id": "4",
    "state_name": "ANAMBRA",
    "location": {
      "latitude": 6.008502,
      "longitude": 6.953793699999999,
      "viewport": {
        "northeast": {
          "lat": 6.009993529892722,
          "lng": 6.955135679892722
        },
        "southwest": {
          "lat": 6.007293870107278,
          "lng": 6.952436020107278
        }
      },
      "formatted_address": "Okpuno Umuenem, Otolo 435109, Nnewi, Nigeria",
      "google_map_url": "https://maps.google.com?q=6.008502,6.953793699999999",
      "google_place_id": "ChIJs35NAhqjQxARJt3swqoc7vk"
    }
  },
  {
    "id": "16026",
    "name": "OBI OKANUMEE HALL",
    "registration_area_id": "940",
    "precise_location": null,
    "abbreviation": "029",
    "units": "029",
    "delimitation": "04/14/04/029",
    "remark": "NEW PU",
    "ward_id": "940",
    "ward_name": "OTOLO II",
    "local_government_id": "83",
    "local_government_name": "NNEWI NORTH",
    "state_id": "4",
    "state_name": "ANAMBRA",
    "location": {
      "latitude": 6.008502,
      "longitude": 6.953793699999999,
      "viewport": {
        "northeast": {
          "lat": 6.009993529892722,
          "lng": 6.955135679892722
        },
        "southwest": {
          "lat": 6.007293870107278,
          "lng": 6.952436020107278
        }
      },
      "formatted_address": "Okpuno Umuenem, Otolo 435109, Nnewi, Nigeria",
      "google_map_url": "https://maps.google.com?q=6.008502,6.953793699999999",
      "google_place_id": "ChIJs35NAhqjQxARJt3swqoc7vk"
    }
  }
]