[
  {
    "id": "86719",
    "name": "KOFAR M. HAIDO I",
    "registration_area_id": "4470",
    "precise_location": null,
    "abbreviation": "001",
    "units": "001",
    "delimitation": "19/12/03/001",
    "remark": "EXISTING PU",
    "ward_id": "4470",
    "ward_name": "FAGGE C",
    "local_government_id": "381",
    "local_government_name": "FAGGE",
    "state_id": "19",
    "state_name": "KANO",
    "location": {
      "latitude": 12.0001427,
      "longitude": 8.5295341,
      "viewport": {
        "northeast": {
          "lat": 12.0068098,
          "lng": 8.5408258
        },
        "southwest": {
          "lat": 11.9966597,
          "lng": 8.5247347
        }
      },
      "formatted_address": "Kofar Mata, Kano, Nigeria",
      "google_map_url": "https://maps.google.com?q=12.0001427,8.5295341",
      "google_place_id": "ChIJb-KeYxyBrhER-NPf3mx4jto"
    }
  },
  {
    "id": "86720",
    "name": "KOFAR M. HAIDO II",
    "registration_area_id": "4470",
    "precise_location": null,
    "abbreviation": "002",
    "units": "002",
    "delimitation": "19/12/03/002",
    "remark": "EXISTING PU",
    "ward_id": "4470",
    "ward_name": "FAGGE C",
    "local_government_id": "381",
    "local_government_name": "FAGGE",
    "state_id": "19",
    "state_name": "KANO",
    "location": {
      "latitude": 12.0001427,
      "longitude": 8.5295341,
      "viewport": {
        "northeast": {
          "lat": 12.0068098,
          "lng": 8.5408258
        },
        "southwest": {
          "lat": 11.9966597,
          "lng": 8.5247347
        }
      },
      "formatted_address": "Kofar Mata, Kano, Nigeria",
      "google_map_url": "https://maps.google.com?q=12.0001427,8.5295341",
      "google_place_id": "ChIJb-KeYxyBrhER-NPf3mx4jto"
    }
  },
  {
    "id": "86721",
    "name": "KOFAR M. HAIDO III",
    "registration_area_id": "4470",
    "precise_location": null,
    "abbreviation": "003",
    "units": "003",
    "delimitation": "19/12/03/003",
    "remark": "EXISTING PU",
    "ward_id": "4470",
    "ward_name": "FAGGE C",
    "local_government_id": "381",
    "local_government_name": "FAGGE",
    "state_id": "19",
    "state_name": "KANO",
    "location": {
      "latitude": 12.0155754,
      "longitude": 8.5180628,
      "viewport": {
        "northeast": {
          "lat": 12.01692597989272,
          "lng": 8.51947282989272
        },
        "southwest": {
          "lat": 12.01422632010728,
          "lng": 8.516773170107276
        }
      },
      "formatted_address": "2G89+66F, Murtala Muhd through Triumph to, Gwammaja Road, Kano City, Kano, Nigeria",
      "google_map_url": "https://maps.google.com?q=12.0155754,8.5180628",
      "google_place_id": "ChIJB2O2u9yArhERPLoZJ-VORmk"
    }
  },
  {
    "id": "86722",
    "name": "KOFAR M. HAIDO IV",
    "registration_area_id": "4470",
    "precise_location": null,
    "abbreviation": "004",
    "units": "004",
    "delimitation": "19/12/03/004",
    "remark": "EXISTING PU",
    "ward_id": "4470",
    "ward_name": "FAGGE C",
    "local_government_id": "381",
    "local_government_name": "FAGGE",
    "state_id": "19",
    "state_name": "KANO",
    "location": {
      "latitude": 12.0001427,
      "longitude": 8.5295341,
      "viewport": {
        "northeast": {
          "lat": 12.0068098,
          "lng": 8.5408258
        },
        "southwest": {
          "lat": 11.9966597,
          "lng": 8.5247347
        }
      },
      "formatted_address": "Kofar Mata, Kano, Nigeria",
      "google_map_url": "https://maps.google.com?q=12.0001427,8.5295341",
      "google_place_id": "ChIJb-KeYxyBrhER-NPf3mx4jto"
    }
  },
  {
    "id": "86723",
    "name": "KOFAR M. HAIDO V",
    "registration_area_id": "4470",
    "precise_location": null,
    "abbreviation": "005",
    "units": "005",
    "delimitation": "19/12/03/005",
    "remark": "EXISTING PU",
    "ward_id": "4470",
    "ward_name": "FAGGE C",
    "local_government_id": "381",
    "local_government_name": "FAGGE",
    "state_id": "19",
    "state_name": "KANO",
    "location": {
      "latitude": 12.0075798,
      "longitude": 8.5291909,
      "viewport": {
        "northeast": {
          "lat": 12.00901967989272,
          "lng": 8.530521329892723
        },
        "southwest": {
          "lat": 12.00632002010728,
          "lng": 8.52782167010728
        }
      },
      "formatted_address": "No. 14 Fagge b borkono street, 000234, Kano, Nigeria",
      "google_map_url": "https://maps.google.com?q=12.0075798,8.5291909",
      "google_place_id": "ChIJE7QvTRCBrhERIX0Ts76AfzE"
    }
  },
  {
    "id": "86724",
    "name": "KOFAR M. HAIDO VI",
    "registration_area_id": "4470",
    "precise_location": null,
    "abbreviation": "006",
    "units": "006",
    "delimitation": "19/12/03/006",
    "remark": "EXISTING PU",
    "ward_id": "4470",
    "ward_name": "FAGGE C",
    "local_government_id": "381",
    "local_government_name": "FAGGE",
    "state_id": "19",
    "state_name": "KANO",
    "location": {
      "latitude": 12.0001427,
      "longitude": 8.5295341,
      "viewport": {
        "northeast": {
          "lat": 12.0068098,
          "lng": 8.5408258
        },
        "southwest": {
          "lat": 11.9966597,
          "lng": 8.5247347
        }
      },
      "formatted_address": "Kofar Mata, Kano, Nigeria",
      "google_map_url": "https://maps.google.com?q=12.0001427,8.5295341",
      "google_place_id": "ChIJb-KeYxyBrhER-NPf3mx4jto"
    }
  },
  {
    "id": "86725",
    "name": "KOFAR M. HAIDO VII",
    "registration_area_id": "4470",
    "precise_location": null,
    "abbreviation": "007",
    "units": "007",
    "delimitation": "19/12/03/007",
    "remark": "EXISTING PU",
    "ward_id": "4470",
    "ward_name": "FAGGE C",
    "local_government_id": "381",
    "local_government_name": "FAGGE",
    "state_id": "19",
    "state_name": "KANO",
    "location": {
      "latitude": 12.0001427,
      "longitude": 8.5295341,
      "viewport": {
        "northeast": {
          "lat": 12.0068098,
          "lng": 8.5408258
        },
        "southwest": {
          "lat": 11.9966597,
          "lng": 8.5247347
        }
      },
      "formatted_address": "Kofar Mata, Kano, Nigeria",
      "google_map_url": "https://maps.google.com?q=12.0001427,8.5295341",
      "google_place_id": "ChIJb-KeYxyBrhER-NPf3mx4jto"
    }
  },
  {
    "id": "86726",
    "name": "KOFAR SANDA M/BAREWA I",
    "registration_area_id": "4470",
    "precise_location": null,
    "abbreviation": "008",
    "units": "008",
    "delimitation": "19/12/03/008",
    "remark": "EXISTING PU",
    "ward_id": "4470",
    "ward_name": "FAGGE C",
    "local_government_id": "381",
    "local_government_name": "FAGGE",
    "state_id": "19",
    "state_name": "KANO",
    "location": {
      "latitude": 12.0280811,
      "longitude": 8.5531989,
      "viewport": {
        "northeast": {
          "lat": 12.02944212989272,
          "lng": 8.554548729892721
        },
        "southwest": {
          "lat": 12.02674247010728,
          "lng": 8.551849070107277
        }
      },
      "formatted_address": "Kantin kwarri market, 700213, Kano, Nigeria",
      "google_map_url": "https://maps.google.com?q=12.0280811,8.5531989",
      "google_place_id": "ChIJp9JG9-yBrhERthuEnGpPG5Y"
    }
  },
  {
    "id": "86727",
    "name": "KOFAR SANDA, M/BAREWA II",
    "registration_area_id": "4470",
    "precise_location": null,
    "abbreviation": "009",
    "units": "009",
    "delimitation": "19/12/03/009",
    "remark": "EXISTING PU",
    "ward_id": "4470",
    "ward_name": "FAGGE C",
    "local_government_id": "381",
    "local_government_name": "FAGGE",
    "state_id": "19",
    "state_name": "KANO",
    "location": {
      "latitude": 12.0280811,
      "longitude": 8.5531989,
      "viewport": {
        "northeast": {
          "lat": 12.02944212989272,
          "lng": 8.554548729892721
        },
        "southwest": {
          "lat": 12.02674247010728,
          "lng": 8.551849070107277
        }
      },
      "formatted_address": "Kantin kwarri market, 700213, Kano, Nigeria",
      "google_map_url": "https://maps.google.com?q=12.0280811,8.5531989",
      "google_place_id": "ChIJp9JG9-yBrhERthuEnGpPG5Y"
    }
  },
  {
    "id": "86728",
    "name": "KOFAR SANDA, M/BAREWA III",
    "registration_area_id": "4470",
    "precise_location": null,
    "abbreviation": "010",
    "units": "010",
    "delimitation": "19/12/03/010",
    "remark": "EXISTING PU",
    "ward_id": "4470",
    "ward_name": "FAGGE C",
    "local_government_id": "381",
    "local_government_name": "FAGGE",
    "state_id": "19",
    "state_name": "KANO",
    "location": {
      "latitude": 12.0280811,
      "longitude": 8.5531989,
      "viewport": {
        "northeast": {
          "lat": 12.02944212989272,
          "lng": 8.554548729892721
        },
        "southwest": {
          "lat": 12.02674247010728,
          "lng": 8.551849070107277
        }
      },
      "formatted_address": "Kantin kwarri market, 700213, Kano, Nigeria",
      "google_map_url": "https://maps.google.com?q=12.0280811,8.5531989",
      "google_place_id": "ChIJp9JG9-yBrhERthuEnGpPG5Y"
    }
  },
  {
    "id": "86729",
    "name": "KOFAR SANDA, M/BAREWA IV",
    "registration_area_id": "4470",
    "precise_location": null,
    "abbreviation": "011",
    "units": "011",
    "delimitation": "19/12/03/011",
    "remark": "EXISTING PU",
    "ward_id": "4470",
    "ward_name": "FAGGE C",
    "local_government_id": "381",
    "local_government_name": "FAGGE",
    "state_id": "19",
    "state_name": "KANO",
    "location": {
      "latitude": 12.0280811,
      "longitude": 8.5531989,
      "viewport": {
        "northeast": {
          "lat": 12.02944212989272,
          "lng": 8.554548729892721
        },
        "southwest": {
          "lat": 12.02674247010728,
          "lng": 8.551849070107277
        }
      },
      "formatted_address": "Kantin kwarri market, 700213, Kano, Nigeria",
      "google_map_url": "https://maps.google.com?q=12.0280811,8.5531989",
      "google_place_id": "ChIJp9JG9-yBrhERthuEnGpPG5Y"
    }
  },
  {
    "id": "86730",
    "name": "KOFAR SANDA, M/BAREWA V",
    "registration_area_id": "4470",
    "precise_location": null,
    "abbreviation": "012",
    "units": "012",
    "delimitation": "19/12/03/012",
    "remark": "EXISTING PU",
    "ward_id": "4470",
    "ward_name": "FAGGE C",
    "local_government_id": "381",
    "local_government_name": "FAGGE",
    "state_id": "19",
    "state_name": "KANO",
    "location": null
  },
  {
    "id": "86731",
    "name": "KOFAR SANDA, M/BAREWA VI",
    "registration_area_id": "4470",
    "precise_location": null,
    "abbreviation": "013",
    "units": "013",
    "delimitation": "19/12/03/013",
    "remark": "EXISTING PU",
    "ward_id": "4470",
    "ward_name": "FAGGE C",
    "local_government_id": "381",
    "local_government_name": "FAGGE",
    "state_id": "19",
    "state_name": "KANO",
    "location": {
      "latitude": 12.0280811,
      "longitude": 8.5531989,
      "viewport": {
        "northeast": {
          "lat": 12.02944212989272,
          "lng": 8.554548729892721
        },
        "southwest": {
          "lat": 12.02674247010728,
          "lng": 8.551849070107277
        }
      },
      "formatted_address": "Kantin kwarri market, 700213, Kano, Nigeria",
      "google_map_url": "https://maps.google.com?q=12.0280811,8.5531989",
      "google_place_id": "ChIJp9JG9-yBrhERthuEnGpPG5Y"
    }
  },
  {
    "id": "86732",
    "name": "KOFAR SANDA, M/BAREWA VII",
    "registration_area_id": "4470",
    "precise_location": null,
    "abbreviation": "014",
    "units": "014",
    "delimitation": "19/12/03/014",
    "remark": "EXISTING PU",
    "ward_id": "4470",
    "ward_name": "FAGGE C",
    "local_government_id": "381",
    "local_government_name": "FAGGE",
    "state_id": "19",
    "state_name": "KANO",
    "location": {
      "latitude": 12.0280811,
      "longitude": 8.5531989,
      "viewport": {
        "northeast": {
          "lat": 12.02944212989272,
          "lng": 8.554548729892721
        },
        "southwest": {
          "lat": 12.02674247010728,
          "lng": 8.551849070107277
        }
      },
      "formatted_address": "Kantin kwarri market, 700213, Kano, Nigeria",
      "google_map_url": "https://maps.google.com?q=12.0280811,8.5531989",
      "google_place_id": "ChIJp9JG9-yBrhERthuEnGpPG5Y"
    }
  },
  {
    "id": "86733",
    "name": "WAKILIN TSAFTA I",
    "registration_area_id": "4470",
    "precise_location": null,
    "abbreviation": "015",
    "units": "015",
    "delimitation": "19/12/03/015",
    "remark": "EXISTING PU",
    "ward_id": "4470",
    "ward_name": "FAGGE C",
    "local_government_id": "381",
    "local_government_name": "FAGGE",
    "state_id": "19",
    "state_name": "KANO",
    "location": {
      "latitude": 12.0070061,
      "longitude": 8.536398199999999,
      "viewport": {
        "northeast": {
          "lat": 12.0181589,
          "lng": 8.5569017
        },
        "southwest": {
          "lat": 12.0014264,
          "lng": 8.519328999999999
        }
      },
      "formatted_address": "Fagge, Kano, Nigeria",
      "google_map_url": "https://maps.google.com?q=12.0070061,8.536398199999999",
      "google_place_id": "ChIJiytVpyKBrhERnQis-bvWoWs"
    }
  },
  {
    "id": "86734",
    "name": "WAKILIN TSAFTA II",
    "registration_area_id": "4470",
    "precise_location": null,
    "abbreviation": "016",
    "units": "016",
    "delimitation": "19/12/03/016",
    "remark": "EXISTING PU",
    "ward_id": "4470",
    "ward_name": "FAGGE C",
    "local_government_id": "381",
    "local_government_name": "FAGGE",
    "state_id": "19",
    "state_name": "KANO",
    "location": {
      "latitude": 12.0070061,
      "longitude": 8.536398199999999,
      "viewport": {
        "northeast": {
          "lat": 12.0181589,
          "lng": 8.5569017
        },
        "southwest": {
          "lat": 12.0014264,
          "lng": 8.519328999999999
        }
      },
      "formatted_address": "Fagge, Kano, Nigeria",
      "google_map_url": "https://maps.google.com?q=12.0070061,8.536398199999999",
      "google_place_id": "ChIJiytVpyKBrhERnQis-bvWoWs"
    }
  },
  {
    "id": "86735",
    "name": "WAKILIN TSAFTA III",
    "registration_area_id": "4470",
    "precise_location": null,
    "abbreviation": "017",
    "units": "017",
    "delimitation": "19/12/03/017",
    "remark": "EXISTING PU",
    "ward_id": "4470",
    "ward_name": "FAGGE C",
    "local_government_id": "381",
    "local_government_name": "FAGGE",
    "state_id": "19",
    "state_name": "KANO",
    "location": {
      "latitude": 12.0070061,
      "longitude": 8.536398199999999,
      "viewport": {
        "northeast": {
          "lat": 12.0181589,
          "lng": 8.5569017
        },
        "southwest": {
          "lat": 12.0014264,
          "lng": 8.519328999999999
        }
      },
      "formatted_address": "Fagge, Kano, Nigeria",
      "google_map_url": "https://maps.google.com?q=12.0070061,8.536398199999999",
      "google_place_id": "ChIJiytVpyKBrhERnQis-bvWoWs"
    }
  },
  {
    "id": "86736",
    "name": "WAKILIN TSAFTA IV",
    "registration_area_id": "4470",
    "precise_location": null,
    "abbreviation": "018",
    "units": "018",
    "delimitation": "19/12/03/018",
    "remark": "EXISTING PU",
    "ward_id": "4470",
    "ward_name": "FAGGE C",
    "local_government_id": "381",
    "local_government_name": "FAGGE",
    "state_id": "19",
    "state_name": "KANO",
    "location": {
      "latitude": 12.0070061,
      "longitude": 8.536398199999999,
      "viewport": {
        "northeast": {
          "lat": 12.0181589,
          "lng": 8.5569017
        },
        "southwest": {
          "lat": 12.0014264,
          "lng": 8.519328999999999
        }
      },
      "formatted_address": "Fagge, Kano, Nigeria",
      "google_map_url": "https://maps.google.com?q=12.0070061,8.536398199999999",
      "google_place_id": "ChIJiytVpyKBrhERnQis-bvWoWs"
    }
  },
  {
    "id": "86737",
    "name": "WAKILIN TSAFTA V",
    "registration_area_id": "4470",
    "precise_location": null,
    "abbreviation": "019",
    "units": "019",
    "delimitation": "19/12/03/019",
    "remark": "EXISTING PU",
    "ward_id": "4470",
    "ward_name": "FAGGE C",
    "local_government_id": "381",
    "local_government_name": "FAGGE",
    "state_id": "19",
    "state_name": "KANO",
    "location": {
      "latitude": 12.0070061,
      "longitude": 8.536398199999999,
      "viewport": {
        "northeast": {
          "lat": 12.0181589,
          "lng": 8.5569017
        },
        "southwest": {
          "lat": 12.0014264,
          "lng": 8.519328999999999
        }
      },
      "formatted_address": "Fagge, Kano, Nigeria",
      "google_map_url": "https://maps.google.com?q=12.0070061,8.536398199999999",
      "google_place_id": "ChIJiytVpyKBrhERnQis-bvWoWs"
    }
  },
  {
    "id": "86738",
    "name": "WAKILIN TSAFTA VI",
    "registration_area_id": "4470",
    "precise_location": null,
    "abbreviation": "020",
    "units": "020",
    "delimitation": "19/12/03/020",
    "remark": "EXISTING PU",
    "ward_id": "4470",
    "ward_name": "FAGGE C",
    "local_government_id": "381",
    "local_government_name": "FAGGE",
    "state_id": "19",
    "state_name": "KANO",
    "location": {
      "latitude": 12.0095547,
      "longitude": 8.5283046,
      "viewport": {
        "northeast": {
          "lat": 12.01091827989272,
          "lng": 8.529647079892722
        },
        "southwest": {
          "lat": 12.00821862010728,
          "lng": 8.526947420107279
        }
      },
      "formatted_address": "2G5H+R87, Ari Avenue, Kofar Wambali 700211, Kano, Nigeria",
      "google_map_url": "https://maps.google.com?q=12.0095547,8.5283046",
      "google_place_id": "ChIJXUYH_R-BrhERhWbfIXpvFYs"
    }
  },
  {
    "id": "86739",
    "name": "WAKILIN TSAFTA VII",
    "registration_area_id": "4470",
    "precise_location": null,
    "abbreviation": "021",
    "units": "021",
    "delimitation": "19/12/03/021",
    "remark": "EXISTING PU",
    "ward_id": "4470",
    "ward_name": "FAGGE C",
    "local_government_id": "381",
    "local_government_name": "FAGGE",
    "state_id": "19",
    "state_name": "KANO",
    "location": {
      "latitude": 12.0070061,
      "longitude": 8.536398199999999,
      "viewport": {
        "northeast": {
          "lat": 12.0181589,
          "lng": 8.5569017
        },
        "southwest": {
          "lat": 12.0014264,
          "lng": 8.519328999999999
        }
      },
      "formatted_address": "Fagge, Kano, Nigeria",
      "google_map_url": "https://maps.google.com?q=12.0070061,8.536398199999999",
      "google_place_id": "ChIJiytVpyKBrhERnQis-bvWoWs"
    }
  },
  {
    "id": "86740",
    "name": "WAKILIN TSAFTA VIII",
    "registration_area_id": "4470",
    "precise_location": null,
    "abbreviation": "022",
    "units": "022",
    "delimitation": "19/12/03/022",
    "remark": "EXISTING PU",
    "ward_id": "4470",
    "ward_name": "FAGGE C",
    "local_government_id": "381",
    "local_government_name": "FAGGE",
    "state_id": "19",
    "state_name": "KANO",
    "location": {
      "latitude": 12.0091215,
      "longitude": 8.544706099999999,
      "viewport": {
        "northeast": {
          "lat": 12.01050222989272,
          "lng": 8.546062129892722
        },
        "southwest": {
          "lat": 12.00780257010728,
          "lng": 8.543362470107278
        }
      },
      "formatted_address": "NO 2 FATAWA CLOSE, Hadejia Rd, Kano, Nigeria",
      "google_map_url": "https://maps.google.com?q=12.0091215,8.544706099999999",
      "google_place_id": "ChIJOQARr2iBrhEREHEBbwhwywg"
    }
  },
  {
    "id": "86741",
    "name": "DEEN WATTARBIYYA ISLAMIYYA SCH. I",
    "registration_area_id": "4470",
    "precise_location": null,
    "abbreviation": "023",
    "units": "023",
    "delimitation": "19/12/03/023",
    "remark": "NEW PU",
    "ward_id": "4470",
    "ward_name": "FAGGE C",
    "local_government_id": "381",
    "local_government_name": "FAGGE",
    "state_id": "19",
    "state_name": "KANO",
    "location": {
      "latitude": 11.9981641,
      "longitude": 8.5336566,
      "viewport": {
        "northeast": {
          "lat": 11.99941962989272,
          "lng": 8.535005679892722
        },
        "southwest": {
          "lat": 11.99671997010728,
          "lng": 8.532306020107278
        }
      },
      "formatted_address": "7F3CXGXM+6FM, Kofar Nassarawa 700211, Kano, Nigeria",
      "google_map_url": "https://maps.google.com?q=11.9981641,8.5336566",
      "google_place_id": "ChIJBecDLTKBrhER1Q1MK4EL9g4"
    }
  },
  {
    "id": "86742",
    "name": "DEEN WATTARBIYYA ISLAMIYYA SCH. II",
    "registration_area_id": "4470",
    "precise_location": null,
    "abbreviation": "024",
    "units": "024",
    "delimitation": "19/12/03/024",
    "remark": "NEW PU",
    "ward_id": "4470",
    "ward_name": "FAGGE C",
    "local_government_id": "381",
    "local_government_name": "FAGGE",
    "state_id": "19",
    "state_name": "KANO",
    "location": {
      "latitude": 11.9981641,
      "longitude": 8.5336566,
      "viewport": {
        "northeast": {
          "lat": 11.99941962989272,
          "lng": 8.535005679892722
        },
        "southwest": {
          "lat": 11.99671997010728,
          "lng": 8.532306020107278
        }
      },
      "formatted_address": "7F3CXGXM+6FM, Kofar Nassarawa 700211, Kano, Nigeria",
      "google_map_url": "https://maps.google.com?q=11.9981641,8.5336566",
      "google_place_id": "ChIJBecDLTKBrhER1Q1MK4EL9g4"
    }
  },
  {
    "id": "86743",
    "name": "DEEN WATTARBIYYA ISLAMIYYA SCH. III",
    "registration_area_id": "4470",
    "precise_location": null,
    "abbreviation": "025",
    "units": "025",
    "delimitation": "19/12/03/025",
    "remark": "NEW PU",
    "ward_id": "4470",
    "ward_name": "FAGGE C",
    "local_government_id": "381",
    "local_government_name": "FAGGE",
    "state_id": "19",
    "state_name": "KANO",
    "location": {
      "latitude": 11.9981641,
      "longitude": 8.5336566,
      "viewport": {
        "northeast": {
          "lat": 11.99941962989272,
          "lng": 8.535005679892722
        },
        "southwest": {
          "lat": 11.99671997010728,
          "lng": 8.532306020107278
        }
      },
      "formatted_address": "7F3CXGXM+6FM, Kofar Nassarawa 700211, Kano, Nigeria",
      "google_map_url": "https://maps.google.com?q=11.9981641,8.5336566",
      "google_place_id": "ChIJBecDLTKBrhER1Q1MK4EL9g4"
    }
  }
]