[
  {
    "id": "356757",
    "name": "ITA ALARO",
    "registration_area_id": "18253",
    "precise_location": null,
    "abbreviation": "001",
    "units": "001",
    "delimitation": "30/21/02/001",
    "remark": "EXISTING PU",
    "ward_id": "18253",
    "ward_name": "AAJE/OGUNBADO",
    "local_government_id": "648",
    "local_government_name": "OGBOMOSO NORTH",
    "state_id": "30",
    "state_name": "OYO",
    "location": {
      "latitude": 8.157866,
      "longitude": 4.2581376,
      "viewport": {
        "northeast": {
          "lat": 8.159088129892723,
          "lng": 4.259425479892722
        },
        "southwest": {
          "lat": 8.156388470107279,
          "lng": 4.256725820107278
        }
      },
      "formatted_address": "Kinira, Ogbomosho, Nigeria",
      "google_map_url": "https://maps.google.com?q=8.157866,4.2581376",
      "google_place_id": "ChIJwzoZ2aANNxARooN43khNInw"
    }
  },
  {
    "id": "356758",
    "name": "ILE AJO AAJE I",
    "registration_area_id": "18253",
    "precise_location": null,
    "abbreviation": "002",
    "units": "002",
    "delimitation": "30/21/02/002",
    "remark": "EXISTING PU",
    "ward_id": "18253",
    "ward_name": "AAJE/OGUNBADO",
    "local_government_id": "648",
    "local_government_name": "OGBOMOSO NORTH",
    "state_id": "30",
    "state_name": "OYO",
    "location": {
      "latitude": 8.114273299999999,
      "longitude": 4.2355809,
      "viewport": {
        "northeast": {
          "lat": 8.115527179892721,
          "lng": 4.237032229892721
        },
        "southwest": {
          "lat": 8.112827520107277,
          "lng": 4.234332570107277
        }
      },
      "formatted_address": "467P+P64, 210101, Ogbomosho, Nigeria",
      "google_map_url": "https://maps.google.com?q=8.114273299999999,4.2355809",
      "google_place_id": "ChIJoej3A1UNNxARg95ggg_mrbo"
    }
  },
  {
    "id": "356759",
    "name": "ILE AJO AAJE II",
    "registration_area_id": "18253",
    "precise_location": null,
    "abbreviation": "003",
    "units": "003",
    "delimitation": "30/21/02/003",
    "remark": "EXISTING PU",
    "ward_id": "18253",
    "ward_name": "AAJE/OGUNBADO",
    "local_government_id": "648",
    "local_government_name": "OGBOMOSO NORTH",
    "state_id": "30",
    "state_name": "OYO",
    "location": {
      "latitude": 8.1370217,
      "longitude": 4.2204578,
      "viewport": {
        "northeast": {
          "lat": 8.138360279892721,
          "lng": 4.221803479892722
        },
        "southwest": {
          "lat": 8.135660620107277,
          "lng": 4.219103820107279
        }
      },
      "formatted_address": "2, Adedoja Ogunbiyi street, Randa, Ogbomosho, Nigeria",
      "google_map_url": "https://maps.google.com?q=8.1370217,4.2204578",
      "google_place_id": "ChIJbZGhm5gSNxARoLXJ6psyits"
    }
  },
  {
    "id": "356760",
    "name": "ODE OLONDE",
    "registration_area_id": "18253",
    "precise_location": null,
    "abbreviation": "004",
    "units": "004",
    "delimitation": "30/21/02/004",
    "remark": "EXISTING PU",
    "ward_id": "18253",
    "ward_name": "AAJE/OGUNBADO",
    "local_government_id": "648",
    "local_government_name": "OGBOMOSO NORTH",
    "state_id": "30",
    "state_name": "OYO",
    "location": {
      "latitude": 8.157864,
      "longitude": 4.2580875,
      "viewport": {
        "northeast": {
          "lat": 8.159130529892723,
          "lng": 4.259396079892722
        },
        "southwest": {
          "lat": 8.156430870107279,
          "lng": 4.256696420107279
        }
      },
      "formatted_address": "5755+56H, 212102, Ogbomosho, Nigeria",
      "google_map_url": "https://maps.google.com?q=8.157864,4.2580875",
      "google_place_id": "ChIJdUgq5SYNNxARiVTogsju6tE"
    }
  },
  {
    "id": "356761",
    "name": "ILE AJO TAILOR I",
    "registration_area_id": "18253",
    "precise_location": null,
    "abbreviation": "005",
    "units": "005",
    "delimitation": "30/21/02/005",
    "remark": "EXISTING PU",
    "ward_id": "18253",
    "ward_name": "AAJE/OGUNBADO",
    "local_government_id": "648",
    "local_government_name": "OGBOMOSO NORTH",
    "state_id": "30",
    "state_name": "OYO",
    "location": {
      "latitude": 8.130464,
      "longitude": 4.2493551,
      "viewport": {
        "northeast": {
          "lat": 8.13178127989272,
          "lng": 4.250694329892722
        },
        "southwest": {
          "lat": 8.129081620107277,
          "lng": 4.247994670107278
        }
      },
      "formatted_address": "Oja, Igbo Area 212102, Ogbomosho, Nigeria",
      "google_map_url": "https://maps.google.com?q=8.130464,4.2493551",
      "google_place_id": "ChIJE-kJekENNxARJGl6sYsUn0o"
    }
  },
  {
    "id": "356762",
    "name": "ILE AJO TAILOR II",
    "registration_area_id": "18253",
    "precise_location": null,
    "abbreviation": "006",
    "units": "006",
    "delimitation": "30/21/02/006",
    "remark": "EXISTING PU",
    "ward_id": "18253",
    "ward_name": "AAJE/OGUNBADO",
    "local_government_id": "648",
    "local_government_name": "OGBOMOSO NORTH",
    "state_id": "30",
    "state_name": "OYO",
    "location": {
      "latitude": 8.130464,
      "longitude": 4.2493551,
      "viewport": {
        "northeast": {
          "lat": 8.13178127989272,
          "lng": 4.250694329892722
        },
        "southwest": {
          "lat": 8.129081620107277,
          "lng": 4.247994670107278
        }
      },
      "formatted_address": "Oja, Igbo Area 212102, Ogbomosho, Nigeria",
      "google_map_url": "https://maps.google.com?q=8.130464,4.2493551",
      "google_place_id": "ChIJE-kJekENNxARJGl6sYsUn0o"
    }
  },
  {
    "id": "356763",
    "name": "ILE AJO CARPENTER I",
    "registration_area_id": "18253",
    "precise_location": null,
    "abbreviation": "007",
    "units": "007",
    "delimitation": "30/21/02/007",
    "remark": "EXISTING PU",
    "ward_id": "18253",
    "ward_name": "AAJE/OGUNBADO",
    "local_government_id": "648",
    "local_government_name": "OGBOMOSO NORTH",
    "state_id": "30",
    "state_name": "OYO",
    "location": {
      "latitude": 8.157866,
      "longitude": 4.2581376,
      "viewport": {
        "northeast": {
          "lat": 8.159088129892723,
          "lng": 4.259425479892722
        },
        "southwest": {
          "lat": 8.156388470107279,
          "lng": 4.256725820107278
        }
      },
      "formatted_address": "Kinira, Ogbomosho, Nigeria",
      "google_map_url": "https://maps.google.com?q=8.157866,4.2581376",
      "google_place_id": "ChIJwzoZ2aANNxARooN43khNInw"
    }
  },
  {
    "id": "356764",
    "name": "ILE AJO CARPENTER II",
    "registration_area_id": "18253",
    "precise_location": null,
    "abbreviation": "008",
    "units": "008",
    "delimitation": "30/21/02/008",
    "remark": "EXISTING PU",
    "ward_id": "18253",
    "ward_name": "AAJE/OGUNBADO",
    "local_government_id": "648",
    "local_government_name": "OGBOMOSO NORTH",
    "state_id": "30",
    "state_name": "OYO",
    "location": {
      "latitude": 8.154267299999999,
      "longitude": 4.2380626,
      "viewport": {
        "northeast": {
          "lat": 8.155560129892722,
          "lng": 4.239374229892722
        },
        "southwest": {
          "lat": 8.152860470107278,
          "lng": 4.236674570107279
        }
      },
      "formatted_address": "Along, Ikoyi Rd, Ogbomosho, Nigeria",
      "google_map_url": "https://maps.google.com?q=8.154267299999999,4.2380626",
      "google_place_id": "ChIJbQpWZn8NNxARSPkk3WUq9iY"
    }
  },
  {
    "id": "356765",
    "name": "OJUDE ABESE",
    "registration_area_id": "18253",
    "precise_location": null,
    "abbreviation": "009",
    "units": "009",
    "delimitation": "30/21/02/009",
    "remark": "EXISTING PU",
    "ward_id": "18253",
    "ward_name": "AAJE/OGUNBADO",
    "local_government_id": "648",
    "local_government_name": "OGBOMOSO NORTH",
    "state_id": "30",
    "state_name": "OYO",
    "location": {
      "latitude": 8.136823,
      "longitude": 4.2669078,
      "viewport": {
        "northeast": {
          "lat": 8.13814682989272,
          "lng": 4.268296429892722
        },
        "southwest": {
          "lat": 8.135447170107277,
          "lng": 4.265596770107278
        }
      },
      "formatted_address": "47P8+PQF, behind Lord Mercy School, opposite Aadunin Maternity Center, 254191, Ogbomosho, Nigeria",
      "google_map_url": "https://maps.google.com?q=8.136823,4.2669078",
      "google_place_id": "ChIJ0RdKap0NNxARgTNsWE4_KnM"
    }
  },
  {
    "id": "356766",
    "name": "ILE AJO OKE-AGBEDE",
    "registration_area_id": "18253",
    "precise_location": null,
    "abbreviation": "010",
    "units": "010",
    "delimitation": "30/21/02/010",
    "remark": "EXISTING PU",
    "ward_id": "18253",
    "ward_name": "AAJE/OGUNBADO",
    "local_government_id": "648",
    "local_government_name": "OGBOMOSO NORTH",
    "state_id": "30",
    "state_name": "OYO",
    "location": {
      "latitude": 8.157866,
      "longitude": 4.2581376,
      "viewport": {
        "northeast": {
          "lat": 8.159088129892723,
          "lng": 4.259425479892722
        },
        "southwest": {
          "lat": 8.156388470107279,
          "lng": 4.256725820107278
        }
      },
      "formatted_address": "Kinira, Ogbomosho, Nigeria",
      "google_map_url": "https://maps.google.com?q=8.157866,4.2581376",
      "google_place_id": "ChIJwzoZ2aANNxARooN43khNInw"
    }
  },
  {
    "id": "356767",
    "name": "OJUDE AKINBOLA/IKOLABA",
    "registration_area_id": "18253",
    "precise_location": null,
    "abbreviation": "011",
    "units": "011",
    "delimitation": "30/21/02/011",
    "remark": "EXISTING PU",
    "ward_id": "18253",
    "ward_name": "AAJE/OGUNBADO",
    "local_government_id": "648",
    "local_government_name": "OGBOMOSO NORTH",
    "state_id": "30",
    "state_name": "OYO",
    "location": {
      "latitude": 8.154267299999999,
      "longitude": 4.2380626,
      "viewport": {
        "northeast": {
          "lat": 8.155560129892722,
          "lng": 4.239374229892722
        },
        "southwest": {
          "lat": 8.152860470107278,
          "lng": 4.236674570107279
        }
      },
      "formatted_address": "Along, Ikoyi Rd, Ogbomosho, Nigeria",
      "google_map_url": "https://maps.google.com?q=8.154267299999999,4.2380626",
      "google_place_id": "ChIJbQpWZn8NNxARSPkk3WUq9iY"
    }
  },
  {
    "id": "356768",
    "name": "OJUDE ILE BALOGUN AGBEDE",
    "registration_area_id": "18253",
    "precise_location": null,
    "abbreviation": "012",
    "units": "012",
    "delimitation": "30/21/02/012",
    "remark": "EXISTING PU",
    "ward_id": "18253",
    "ward_name": "AAJE/OGUNBADO",
    "local_government_id": "648",
    "local_government_name": "OGBOMOSO NORTH",
    "state_id": "30",
    "state_name": "OYO",
    "location": {
      "latitude": 8.1541105,
      "longitude": 4.258480700000001,
      "viewport": {
        "northeast": {
          "lat": 8.155465279892724,
          "lng": 4.259790929892722
        },
        "southwest": {
          "lat": 8.152765620107278,
          "lng": 4.257091270107278
        }
      },
      "formatted_address": "Stadium Area, 4 General, Stadium Baptist Church Rd, Ogbomosho, Nigeria",
      "google_map_url": "https://maps.google.com?q=8.1541105,4.258480700000001",
      "google_place_id": "ChIJo-spGQoNNxAReuLRYjOzPgE"
    }
  },
  {
    "id": "356769",
    "name": "OJUDE AGBOMOJO/ BAALE IKOSE",
    "registration_area_id": "18253",
    "precise_location": null,
    "abbreviation": "013",
    "units": "013",
    "delimitation": "30/21/02/013",
    "remark": "NEW PU",
    "ward_id": "18253",
    "ward_name": "AAJE/OGUNBADO",
    "local_government_id": "648",
    "local_government_name": "OGBOMOSO NORTH",
    "state_id": "30",
    "state_name": "OYO",
    "location": {
      "latitude": 8.1541105,
      "longitude": 4.258480700000001,
      "viewport": {
        "northeast": {
          "lat": 8.155465279892724,
          "lng": 4.259790929892722
        },
        "southwest": {
          "lat": 8.152765620107278,
          "lng": 4.257091270107278
        }
      },
      "formatted_address": "Stadium Area, 4 General, Stadium Baptist Church Rd, Ogbomosho, Nigeria",
      "google_map_url": "https://maps.google.com?q=8.1541105,4.258480700000001",
      "google_place_id": "ChIJo-spGQoNNxAReuLRYjOzPgE"
    }
  }
]