[
  {
    "id": "4612",
    "name": "A. DEBBO/ A. DEBBO PRY. SCH.",
    "registration_area_id": "213",
    "precise_location": null,
    "abbreviation": "001",
    "units": "001",
    "delimitation": "02/03/08/001",
    "remark": "EXISTING PU",
    "ward_id": "213",
    "ward_name": "SUGU",
    "local_government_id": "20",
    "local_government_name": "GANYE",
    "state_id": "2",
    "state_name": "ADAMAWA",
    "location": {
      "latitude": 8.4352393,
      "longitude": 12.0587785,
      "viewport": {
        "northeast": {
          "lat": 8.436725079892721,
          "lng": 12.06018767989272
        },
        "southwest": {
          "lat": 8.434025420107277,
          "lng": 12.05748802010728
        }
      },
      "formatted_address": "C3P5+3GR, 641113, Ganye, Nigeria",
      "google_map_url": "https://maps.google.com?q=8.4352393,12.0587785",
      "google_place_id": "ChIJTYMAwXB9-RARKfb5oaItT6o"
    }
  },
  {
    "id": "4613",
    "name": "BATAL CHAMBA/ KJ BATAL",
    "registration_area_id": "213",
    "precise_location": null,
    "abbreviation": "002",
    "units": "002",
    "delimitation": "02/03/08/002",
    "remark": "EXISTING PU",
    "ward_id": "213",
    "ward_name": "SUGU",
    "local_government_id": "20",
    "local_government_name": "GANYE",
    "state_id": "2",
    "state_name": "ADAMAWA",
    "location": null
  },
  {
    "id": "4614",
    "name": "DAGOO/ KJ DAGOO",
    "registration_area_id": "213",
    "precise_location": null,
    "abbreviation": "003",
    "units": "003",
    "delimitation": "02/03/08/003",
    "remark": "EXISTING PU",
    "ward_id": "213",
    "ward_name": "SUGU",
    "local_government_id": "20",
    "local_government_name": "GANYE",
    "state_id": "2",
    "state_name": "ADAMAWA",
    "location": null
  },
  {
    "id": "4615",
    "name": "DAMPIYA I & II/ KJ DAMPIYA",
    "registration_area_id": "213",
    "precise_location": null,
    "abbreviation": "004",
    "units": "004",
    "delimitation": "02/03/08/004",
    "remark": "EXISTING PU",
    "ward_id": "213",
    "ward_name": "SUGU",
    "local_government_id": "20",
    "local_government_name": "GANYE",
    "state_id": "2",
    "state_name": "ADAMAWA",
    "location": {
      "latitude": 7.2896909,
      "longitude": 80.65011249999999,
      "viewport": {
        "northeast": {
          "lat": 7.291056929892722,
          "lng": 80.65143167989271
        },
        "southwest": {
          "lat": 7.288357270107278,
          "lng": 80.64873202010727
        }
      },
      "formatted_address": "7MQ2+V2H, Louis Peiris Mawatha, Kandy, Sri Lanka",
      "google_map_url": "https://maps.google.com?q=7.2896909,80.65011249999999",
      "google_place_id": "ChIJvyq11DBm4zoRuNQHWddpjqk"
    }
  },
  {
    "id": "4616",
    "name": "GANGBANEN/ GANGBANEN PRY. SCH.",
    "registration_area_id": "213",
    "precise_location": null,
    "abbreviation": "005",
    "units": "005",
    "delimitation": "02/03/08/005",
    "remark": "EXISTING PU",
    "ward_id": "213",
    "ward_name": "SUGU",
    "local_government_id": "20",
    "local_government_name": "GANYE",
    "state_id": "2",
    "state_name": "ADAMAWA",
    "location": {
      "latitude": 8.4341254,
      "longitude": 12.0449185,
      "viewport": {
        "northeast": {
          "lat": 8.435507779892722,
          "lng": 12.04625727989272
        },
        "southwest": {
          "lat": 8.432808120107278,
          "lng": 12.04355762010728
        }
      },
      "formatted_address": "C2MV+JXV, 641113, Ganye, Nigeria",
      "google_map_url": "https://maps.google.com?q=8.4341254,12.0449185",
      "google_place_id": "ChIJE1qiuMR9-RARN0qfssR4VvI"
    }
  },
  {
    "id": "4617",
    "name": "GANGTUM TAPPARE/ G. TAPPARE PRY. SCH.",
    "registration_area_id": "213",
    "precise_location": null,
    "abbreviation": "006",
    "units": "006",
    "delimitation": "02/03/08/006",
    "remark": "EXISTING PU",
    "ward_id": "213",
    "ward_name": "SUGU",
    "local_government_id": "20",
    "local_government_name": "GANYE",
    "state_id": "2",
    "state_name": "ADAMAWA",
    "location": {
      "latitude": 8.4352393,
      "longitude": 12.0587785,
      "viewport": {
        "northeast": {
          "lat": 8.436725079892721,
          "lng": 12.06018767989272
        },
        "southwest": {
          "lat": 8.434025420107277,
          "lng": 12.05748802010728
        }
      },
      "formatted_address": "C3P5+3GR, 641113, Ganye, Nigeria",
      "google_map_url": "https://maps.google.com?q=8.4352393,12.0587785",
      "google_place_id": "ChIJTYMAwXB9-RARKfb5oaItT6o"
    }
  },
  {
    "id": "4618",
    "name": "GANGTUM TAPPARE/ KJ NAWAI",
    "registration_area_id": "213",
    "precise_location": null,
    "abbreviation": "007",
    "units": "007",
    "delimitation": "02/03/08/007",
    "remark": "EXISTING PU",
    "ward_id": "213",
    "ward_name": "SUGU",
    "local_government_id": "20",
    "local_government_name": "GANYE",
    "state_id": "2",
    "state_name": "ADAMAWA",
    "location": {
      "latitude": 8.3379151,
      "longitude": 12.1637431,
      "viewport": {
        "northeast": {
          "lat": 8.339264929892723,
          "lng": 12.16509292989272
        },
        "southwest": {
          "lat": 8.336565270107279,
          "lng": 12.16239327010728
        }
      },
      "formatted_address": "85Q7+5F9, 641113, Tapare, Nigeria",
      "google_map_url": "https://maps.google.com?q=8.3379151,12.1637431",
      "google_place_id": "ChIJMw9V3H_T-xARUMiTP8pG8zk"
    }
  },
  {
    "id": "4619",
    "name": "GSSS SUGU/ GOVT. S.S. SUGU",
    "registration_area_id": "213",
    "precise_location": null,
    "abbreviation": "008",
    "units": "008",
    "delimitation": "02/03/08/008",
    "remark": "EXISTING PU",
    "ward_id": "213",
    "ward_name": "SUGU",
    "local_government_id": "20",
    "local_government_name": "GANYE",
    "state_id": "2",
    "state_name": "ADAMAWA",
    "location": {
      "latitude": 8.4341254,
      "longitude": 12.0449185,
      "viewport": {
        "northeast": {
          "lat": 8.435507779892722,
          "lng": 12.04625727989272
        },
        "southwest": {
          "lat": 8.432808120107278,
          "lng": 12.04355762010728
        }
      },
      "formatted_address": "C2MV+JXV, 641113, Ganye, Nigeria",
      "google_map_url": "https://maps.google.com?q=8.4341254,12.0449185",
      "google_place_id": "ChIJE1qiuMR9-RARN0qfssR4VvI"
    }
  },
  {
    "id": "4620",
    "name": "JANGANEN GBEURUM/ J. GBEURUM PRY. SCH.",
    "registration_area_id": "213",
    "precise_location": null,
    "abbreviation": "009",
    "units": "009",
    "delimitation": "02/03/08/009",
    "remark": "EXISTING PU",
    "ward_id": "213",
    "ward_name": "SUGU",
    "local_government_id": "20",
    "local_government_name": "GANYE",
    "state_id": "2",
    "state_name": "ADAMAWA",
    "location": {
      "latitude": 8.4341254,
      "longitude": 12.0449185,
      "viewport": {
        "northeast": {
          "lat": 8.435507779892722,
          "lng": 12.04625727989272
        },
        "southwest": {
          "lat": 8.432808120107278,
          "lng": 12.04355762010728
        }
      },
      "formatted_address": "C2MV+JXV, 641113, Ganye, Nigeria",
      "google_map_url": "https://maps.google.com?q=8.4341254,12.0449185",
      "google_place_id": "ChIJE1qiuMR9-RARN0qfssR4VvI"
    }
  },
  {
    "id": "4621",
    "name": "JUSANGUM/ KJ JUSANGUM",
    "registration_area_id": "213",
    "precise_location": null,
    "abbreviation": "010",
    "units": "010",
    "delimitation": "02/03/08/010",
    "remark": "EXISTING PU",
    "ward_id": "213",
    "ward_name": "SUGU",
    "local_government_id": "20",
    "local_government_name": "GANYE",
    "state_id": "2",
    "state_name": "ADAMAWA",
    "location": null
  },
  {
    "id": "4622",
    "name": "JUTINGO/ KJ JUTINGO",
    "registration_area_id": "213",
    "precise_location": null,
    "abbreviation": "011",
    "units": "011",
    "delimitation": "02/03/08/011",
    "remark": "EXISTING PU",
    "ward_id": "213",
    "ward_name": "SUGU",
    "local_government_id": "20",
    "local_government_name": "GANYE",
    "state_id": "2",
    "state_name": "ADAMAWA",
    "location": null
  },
  {
    "id": "4623",
    "name": "MAYO KORDO/ KJ MAYO KORDO",
    "registration_area_id": "213",
    "precise_location": null,
    "abbreviation": "012",
    "units": "012",
    "delimitation": "02/03/08/012",
    "remark": "EXISTING PU",
    "ward_id": "213",
    "ward_name": "SUGU",
    "local_government_id": "20",
    "local_government_name": "GANYE",
    "state_id": "2",
    "state_name": "ADAMAWA",
    "location": null
  },
  {
    "id": "4624",
    "name": "SANDOKA/ IMMIGRATION OFFICE",
    "registration_area_id": "213",
    "precise_location": null,
    "abbreviation": "013",
    "units": "013",
    "delimitation": "02/03/08/013",
    "remark": "EXISTING PU",
    "ward_id": "213",
    "ward_name": "SUGU",
    "local_government_id": "20",
    "local_government_name": "GANYE",
    "state_id": "2",
    "state_name": "ADAMAWA",
    "location": {
      "latitude": 8.4352393,
      "longitude": 12.0587785,
      "viewport": {
        "northeast": {
          "lat": 8.436725079892721,
          "lng": 12.06018767989272
        },
        "southwest": {
          "lat": 8.434025420107277,
          "lng": 12.05748802010728
        }
      },
      "formatted_address": "C3P5+3GR, 641113, Ganye, Nigeria",
      "google_map_url": "https://maps.google.com?q=8.4352393,12.0587785",
      "google_place_id": "ChIJTYMAwXB9-RARKfb5oaItT6o"
    }
  },
  {
    "id": "4625",
    "name": "SANKOLUM DAGENA/ SANKOLUM PRY. SCH.",
    "registration_area_id": "213",
    "precise_location": null,
    "abbreviation": "014",
    "units": "014",
    "delimitation": "02/03/08/014",
    "remark": "EXISTING PU",
    "ward_id": "213",
    "ward_name": "SUGU",
    "local_government_id": "20",
    "local_government_name": "GANYE",
    "state_id": "2",
    "state_name": "ADAMAWA",
    "location": {
      "latitude": 8.4352393,
      "longitude": 12.0587785,
      "viewport": {
        "northeast": {
          "lat": 8.436725079892721,
          "lng": 12.06018767989272
        },
        "southwest": {
          "lat": 8.434025420107277,
          "lng": 12.05748802010728
        }
      },
      "formatted_address": "C3P5+3GR, 641113, Ganye, Nigeria",
      "google_map_url": "https://maps.google.com?q=8.4352393,12.0587785",
      "google_place_id": "ChIJTYMAwXB9-RARKfb5oaItT6o"
    }
  },
  {
    "id": "4626",
    "name": "SUGU TOWN HALL",
    "registration_area_id": "213",
    "precise_location": null,
    "abbreviation": "015",
    "units": "015",
    "delimitation": "02/03/08/015",
    "remark": "EXISTING PU",
    "ward_id": "213",
    "ward_name": "SUGU",
    "local_government_id": "20",
    "local_government_name": "GANYE",
    "state_id": "2",
    "state_name": "ADAMAWA",
    "location": {
      "latitude": 8.3616399,
      "longitude": 12.1404037,
      "viewport": {
        "northeast": {
          "lat": 8.4311053,
          "lng": 12.2490029
        },
        "southwest": {
          "lat": 8.216135399999999,
          "lng": 11.9100797
        }
      },
      "formatted_address": "Sugu, Nigeria",
      "google_map_url": "https://maps.google.com?q=8.3616399,12.1404037",
      "google_place_id": "ChIJeQ-N5GbV-xAR6vND-4m69AQ"
    }
  },
  {
    "id": "4627",
    "name": "SUGU VEIWING CENTRE",
    "registration_area_id": "213",
    "precise_location": null,
    "abbreviation": "016",
    "units": "016",
    "delimitation": "02/03/08/016",
    "remark": "EXISTING PU",
    "ward_id": "213",
    "ward_name": "SUGU",
    "local_government_id": "20",
    "local_government_name": "GANYE",
    "state_id": "2",
    "state_name": "ADAMAWA",
    "location": {
      "latitude": 8.374649999999999,
      "longitude": 12.065548,
      "viewport": {
        "northeast": {
          "lat": 8.375946029892722,
          "lng": 12.06687867989272
        },
        "southwest": {
          "lat": 8.373246370107278,
          "lng": 12.06417902010728
        }
      },
      "formatted_address": "93F8+V67, 641113, Sugu, Nigeria",
      "google_map_url": "https://maps.google.com?q=8.374649999999999,12.065548",
      "google_place_id": "ChIJH8TaUht--RAR91DMu4i7IFQ"
    }
  },
  {
    "id": "4628",
    "name": "SUGU/VIEWING  CENTRE/OPEN SPACE NEAR BORE HOLE",
    "registration_area_id": "213",
    "precise_location": null,
    "abbreviation": "017",
    "units": "017",
    "delimitation": "02/03/08/017",
    "remark": "NEW PU",
    "ward_id": "213",
    "ward_name": "SUGU",
    "local_government_id": "20",
    "local_government_name": "GANYE",
    "state_id": "2",
    "state_name": "ADAMAWA",
    "location": null
  },
  {
    "id": "4629",
    "name": "BATAL CHAMBA/BATAL  FULANI PRIM.SCH.",
    "registration_area_id": "213",
    "precise_location": null,
    "abbreviation": "018",
    "units": "018",
    "delimitation": "02/03/08/018",
    "remark": "NEW PU",
    "ward_id": "213",
    "ward_name": "SUGU",
    "local_government_id": "20",
    "local_government_name": "GANYE",
    "state_id": "2",
    "state_name": "ADAMAWA",
    "location": {
      "latitude": 8.4352393,
      "longitude": 12.0587785,
      "viewport": {
        "northeast": {
          "lat": 8.436725079892721,
          "lng": 12.06018767989272
        },
        "southwest": {
          "lat": 8.434025420107277,
          "lng": 12.05748802010728
        }
      },
      "formatted_address": "C3P5+3GR, 641113, Ganye, Nigeria",
      "google_map_url": "https://maps.google.com?q=8.4352393,12.0587785",
      "google_place_id": "ChIJTYMAwXB9-RARKfb5oaItT6o"
    }
  },
  {
    "id": "4630",
    "name": "SUGU TOWN HALL/SUGU AREA COURT",
    "registration_area_id": "213",
    "precise_location": null,
    "abbreviation": "019",
    "units": "019",
    "delimitation": "02/03/08/019",
    "remark": "NEW PU",
    "ward_id": "213",
    "ward_name": "SUGU",
    "local_government_id": "20",
    "local_government_name": "GANYE",
    "state_id": "2",
    "state_name": "ADAMAWA",
    "location": {
      "latitude": 8.3616399,
      "longitude": 12.1404037,
      "viewport": {
        "northeast": {
          "lat": 8.4311053,
          "lng": 12.2490029
        },
        "southwest": {
          "lat": 8.216135399999999,
          "lng": 11.9100797
        }
      },
      "formatted_address": "Sugu, Nigeria",
      "google_map_url": "https://maps.google.com?q=8.3616399,12.1404037",
      "google_place_id": "ChIJeQ-N5GbV-xAR6vND-4m69AQ"
    }
  },
  {
    "id": "4631",
    "name": "GSSS SUGU/OPEN SPACE KAMEN NEAR BORE-HOLE",
    "registration_area_id": "213",
    "precise_location": null,
    "abbreviation": "020",
    "units": "020",
    "delimitation": "02/03/08/020",
    "remark": "NEW PU",
    "ward_id": "213",
    "ward_name": "SUGU",
    "local_government_id": "20",
    "local_government_name": "GANYE",
    "state_id": "2",
    "state_name": "ADAMAWA",
    "location": {
      "latitude": 8.4294198,
      "longitude": 12.0379086,
      "viewport": {
        "northeast": {
          "lat": 8.430774179892722,
          "lng": 12.03924172989272
        },
        "southwest": {
          "lat": 8.428074520107279,
          "lng": 12.03654207010728
        }
      },
      "formatted_address": "C2HQ+Q57, yelwa road, 641113, Ganye, Nigeria",
      "google_map_url": "https://maps.google.com?q=8.4294198,12.0379086",
      "google_place_id": "ChIJJTb0hM59-RAR7-0Pp5L6uk8"
    }
  },
  {
    "id": "4632",
    "name": "VOCATIONAL SCH GANYE OPP IMM OFFICE",
    "registration_area_id": "213",
    "precise_location": null,
    "abbreviation": "021",
    "units": "021",
    "delimitation": "02/03/08/021",
    "remark": "NEW PU",
    "ward_id": "213",
    "ward_name": "SUGU",
    "local_government_id": "20",
    "local_government_name": "GANYE",
    "state_id": "2",
    "state_name": "ADAMAWA",
    "location": {
      "latitude": 8.4341254,
      "longitude": 12.0449185,
      "viewport": {
        "northeast": {
          "lat": 8.435507779892722,
          "lng": 12.04625727989272
        },
        "southwest": {
          "lat": 8.432808120107278,
          "lng": 12.04355762010728
        }
      },
      "formatted_address": "C2MV+JXV, 641113, Ganye, Nigeria",
      "google_map_url": "https://maps.google.com?q=8.4341254,12.0449185",
      "google_place_id": "ChIJE1qiuMR9-RARN0qfssR4VvI"
    }
  }
]