[
  {
    "id": "57385",
    "name": "AKPUGO IKEM NKWO",
    "registration_area_id": "3111",
    "precise_location": null,
    "abbreviation": "001",
    "units": "001",
    "delimitation": "14/10/02/001",
    "remark": "EXISTING PU",
    "ward_id": "3111",
    "ward_name": "IKEM II",
    "local_government_id": "268",
    "local_government_name": "ISI UZO",
    "state_id": "14",
    "state_name": "ENUGU",
    "location": {
      "latitude": 6.777555,
      "longitude": 7.717415099999999,
      "viewport": {
        "northeast": {
          "lat": 6.778947079892722,
          "lng": 7.718804779892722
        },
        "southwest": {
          "lat": 6.776247420107278,
          "lng": 7.716105120107278
        }
      },
      "formatted_address": "QPH8+2XF, Obollo Afor-Nkalagu Road, 412102, Ikem, Nigeria",
      "google_map_url": "https://maps.google.com?q=6.777555,7.717415099999999",
      "google_place_id": "ChIJd_NTJPrNRBAR9w9yfZqGvOk"
    }
  },
  {
    "id": "57386",
    "name": "ADAMA",
    "registration_area_id": "3111",
    "precise_location": null,
    "abbreviation": "002",
    "units": "002",
    "delimitation": "14/10/02/002",
    "remark": "EXISTING PU",
    "ward_id": "3111",
    "ward_name": "IKEM II",
    "local_government_id": "268",
    "local_government_name": "ISI UZO",
    "state_id": "14",
    "state_name": "ENUGU",
    "location": {
      "latitude": 6.777555,
      "longitude": 7.717415099999999,
      "viewport": {
        "northeast": {
          "lat": 6.778947079892722,
          "lng": 7.718804779892722
        },
        "southwest": {
          "lat": 6.776247420107278,
          "lng": 7.716105120107278
        }
      },
      "formatted_address": "QPH8+2XF, Obollo Afor-Nkalagu Road, 412102, Ikem, Nigeria",
      "google_map_url": "https://maps.google.com?q=6.777555,7.717415099999999",
      "google_place_id": "ChIJd_NTJPrNRBAR9w9yfZqGvOk"
    }
  },
  {
    "id": "57387",
    "name": "ONOKORO EBIA",
    "registration_area_id": "3111",
    "precise_location": null,
    "abbreviation": "003",
    "units": "003",
    "delimitation": "14/10/02/003",
    "remark": "EXISTING PU",
    "ward_id": "3111",
    "ward_name": "IKEM II",
    "local_government_id": "268",
    "local_government_name": "ISI UZO",
    "state_id": "14",
    "state_name": "ENUGU",
    "location": {
      "latitude": 6.777555,
      "longitude": 7.717415099999999,
      "viewport": {
        "northeast": {
          "lat": 6.778947079892722,
          "lng": 7.718804779892722
        },
        "southwest": {
          "lat": 6.776247420107278,
          "lng": 7.716105120107278
        }
      },
      "formatted_address": "QPH8+2XF, Obollo Afor-Nkalagu Road, 412102, Ikem, Nigeria",
      "google_map_url": "https://maps.google.com?q=6.777555,7.717415099999999",
      "google_place_id": "ChIJd_NTJPrNRBAR9w9yfZqGvOk"
    }
  },
  {
    "id": "57388",
    "name": "UMUATA",
    "registration_area_id": "3111",
    "precise_location": null,
    "abbreviation": "004",
    "units": "004",
    "delimitation": "14/10/02/004",
    "remark": "EXISTING PU",
    "ward_id": "3111",
    "ward_name": "IKEM II",
    "local_government_id": "268",
    "local_government_name": "ISI UZO",
    "state_id": "14",
    "state_name": "ENUGU",
    "location": {
      "latitude": 6.7678142,
      "longitude": 7.702083099999999,
      "viewport": {
        "northeast": {
          "lat": 6.769066529892721,
          "lng": 7.70354932989272
        },
        "southwest": {
          "lat": 6.766366870107277,
          "lng": 7.700849670107276
        }
      },
      "formatted_address": "QP92+4RG, 412102, Ikem, Nigeria",
      "google_map_url": "https://maps.google.com?q=6.7678142,7.702083099999999",
      "google_place_id": "ChIJgWDavP7LRBAR4C6fieLvb_o"
    }
  },
  {
    "id": "57389",
    "name": "UMUEJE",
    "registration_area_id": "3111",
    "precise_location": null,
    "abbreviation": "005",
    "units": "005",
    "delimitation": "14/10/02/005",
    "remark": "EXISTING PU",
    "ward_id": "3111",
    "ward_name": "IKEM II",
    "local_government_id": "268",
    "local_government_name": "ISI UZO",
    "state_id": "14",
    "state_name": "ENUGU",
    "location": {
      "latitude": 6.7678142,
      "longitude": 7.702083099999999,
      "viewport": {
        "northeast": {
          "lat": 6.769066529892721,
          "lng": 7.70354932989272
        },
        "southwest": {
          "lat": 6.766366870107277,
          "lng": 7.700849670107276
        }
      },
      "formatted_address": "QP92+4RG, 412102, Ikem, Nigeria",
      "google_map_url": "https://maps.google.com?q=6.7678142,7.702083099999999",
      "google_place_id": "ChIJgWDavP7LRBAR4C6fieLvb_o"
    }
  },
  {
    "id": "57390",
    "name": "C.S. UMUARAM",
    "registration_area_id": "3111",
    "precise_location": null,
    "abbreviation": "006",
    "units": "006",
    "delimitation": "14/10/02/006",
    "remark": "EXISTING PU",
    "ward_id": "3111",
    "ward_name": "IKEM II",
    "local_government_id": "268",
    "local_government_name": "ISI UZO",
    "state_id": "14",
    "state_name": "ENUGU",
    "location": {
      "latitude": 6.7678142,
      "longitude": 7.702083099999999,
      "viewport": {
        "northeast": {
          "lat": 6.769066529892721,
          "lng": 7.70354932989272
        },
        "southwest": {
          "lat": 6.766366870107277,
          "lng": 7.700849670107276
        }
      },
      "formatted_address": "QP92+4RG, 412102, Ikem, Nigeria",
      "google_map_url": "https://maps.google.com?q=6.7678142,7.702083099999999",
      "google_place_id": "ChIJgWDavP7LRBAR4C6fieLvb_o"
    }
  },
  {
    "id": "57391",
    "name": "OGBUEGBO",
    "registration_area_id": "3111",
    "precise_location": null,
    "abbreviation": "007",
    "units": "007",
    "delimitation": "14/10/02/007",
    "remark": "EXISTING PU",
    "ward_id": "3111",
    "ward_name": "IKEM II",
    "local_government_id": "268",
    "local_government_name": "ISI UZO",
    "state_id": "14",
    "state_name": "ENUGU",
    "location": {
      "latitude": 6.7678142,
      "longitude": 7.702083099999999,
      "viewport": {
        "northeast": {
          "lat": 6.769066529892721,
          "lng": 7.70354932989272
        },
        "southwest": {
          "lat": 6.766366870107277,
          "lng": 7.700849670107276
        }
      },
      "formatted_address": "QP92+4RG, 412102, Ikem, Nigeria",
      "google_map_url": "https://maps.google.com?q=6.7678142,7.702083099999999",
      "google_place_id": "ChIJgWDavP7LRBAR4C6fieLvb_o"
    }
  },
  {
    "id": "57392",
    "name": "NKWO UGWUAGBATU",
    "registration_area_id": "3111",
    "precise_location": null,
    "abbreviation": "008",
    "units": "008",
    "delimitation": "14/10/02/008",
    "remark": "EXISTING PU",
    "ward_id": "3111",
    "ward_name": "IKEM II",
    "local_government_id": "268",
    "local_government_name": "ISI UZO",
    "state_id": "14",
    "state_name": "ENUGU",
    "location": {
      "latitude": 6.7678142,
      "longitude": 7.702083099999999,
      "viewport": {
        "northeast": {
          "lat": 6.769066529892721,
          "lng": 7.70354932989272
        },
        "southwest": {
          "lat": 6.766366870107277,
          "lng": 7.700849670107276
        }
      },
      "formatted_address": "QP92+4RG, 412102, Ikem, Nigeria",
      "google_map_url": "https://maps.google.com?q=6.7678142,7.702083099999999",
      "google_place_id": "ChIJgWDavP7LRBAR4C6fieLvb_o"
    }
  },
  {
    "id": "57393",
    "name": "ORE AMUDAM",
    "registration_area_id": "3111",
    "precise_location": null,
    "abbreviation": "009",
    "units": "009",
    "delimitation": "14/10/02/009",
    "remark": "EXISTING PU",
    "ward_id": "3111",
    "ward_name": "IKEM II",
    "local_government_id": "268",
    "local_government_name": "ISI UZO",
    "state_id": "14",
    "state_name": "ENUGU",
    "location": {
      "latitude": 6.7673244,
      "longitude": 7.705013399999999,
      "viewport": {
        "northeast": {
          "lat": 6.7784021,
          "lng": 7.718824
        },
        "southwest": {
          "lat": 6.754411999999999,
          "lng": 7.691986099999999
        }
      },
      "formatted_address": "412102, Ikem Omuaram, Nigeria",
      "google_map_url": "https://maps.google.com?q=6.7673244,7.705013399999999",
      "google_place_id": "ChIJByltpPvLRBAReQk_Tn1zb_I"
    }
  },
  {
    "id": "57394",
    "name": "C.S.  IKEM NKWO",
    "registration_area_id": "3111",
    "precise_location": null,
    "abbreviation": "010",
    "units": "010",
    "delimitation": "14/10/02/010",
    "remark": "EXISTING PU",
    "ward_id": "3111",
    "ward_name": "IKEM II",
    "local_government_id": "268",
    "local_government_name": "ISI UZO",
    "state_id": "14",
    "state_name": "ENUGU",
    "location": {
      "latitude": 6.8263536,
      "longitude": 7.752535200000001,
      "viewport": {
        "northeast": {
          "lat": 6.879265299999999,
          "lng": 7.8247552
        },
        "southwest": {
          "lat": 6.7110787,
          "lng": 7.6612521
        }
      },
      "formatted_address": "Ikem II, 412102, Nigeria",
      "google_map_url": "https://maps.google.com?q=6.8263536,7.752535200000001",
      "google_place_id": "ChIJLRAkSPXMRBAR-ooiIgGndKU"
    }
  },
  {
    "id": "57395",
    "name": "NGELEFI UMUARAM",
    "registration_area_id": "3111",
    "precise_location": null,
    "abbreviation": "011",
    "units": "011",
    "delimitation": "14/10/02/011",
    "remark": "EXISTING PU",
    "ward_id": "3111",
    "ward_name": "IKEM II",
    "local_government_id": "268",
    "local_government_name": "ISI UZO",
    "state_id": "14",
    "state_name": "ENUGU",
    "location": {
      "latitude": 6.7678142,
      "longitude": 7.702083099999999,
      "viewport": {
        "northeast": {
          "lat": 6.769066529892721,
          "lng": 7.70354932989272
        },
        "southwest": {
          "lat": 6.766366870107277,
          "lng": 7.700849670107276
        }
      },
      "formatted_address": "QP92+4RG, 412102, Ikem, Nigeria",
      "google_map_url": "https://maps.google.com?q=6.7678142,7.702083099999999",
      "google_place_id": "ChIJgWDavP7LRBAR4C6fieLvb_o"
    }
  },
  {
    "id": "57396",
    "name": "OJESHI",
    "registration_area_id": "3111",
    "precise_location": null,
    "abbreviation": "012",
    "units": "012",
    "delimitation": "14/10/02/012",
    "remark": "EXISTING PU",
    "ward_id": "3111",
    "ward_name": "IKEM II",
    "local_government_id": "268",
    "local_government_name": "ISI UZO",
    "state_id": "14",
    "state_name": "ENUGU",
    "location": {
      "latitude": 6.7678142,
      "longitude": 7.702083099999999,
      "viewport": {
        "northeast": {
          "lat": 6.769066529892721,
          "lng": 7.70354932989272
        },
        "southwest": {
          "lat": 6.766366870107277,
          "lng": 7.700849670107276
        }
      },
      "formatted_address": "QP92+4RG, 412102, Ikem, Nigeria",
      "google_map_url": "https://maps.google.com?q=6.7678142,7.702083099999999",
      "google_place_id": "ChIJgWDavP7LRBAR4C6fieLvb_o"
    }
  },
  {
    "id": "57397",
    "name": "ISI-ADO",
    "registration_area_id": "3111",
    "precise_location": null,
    "abbreviation": "013",
    "units": "013",
    "delimitation": "14/10/02/013",
    "remark": "EXISTING PU",
    "ward_id": "3111",
    "ward_name": "IKEM II",
    "local_government_id": "268",
    "local_government_name": "ISI UZO",
    "state_id": "14",
    "state_name": "ENUGU",
    "location": {
      "latitude": 6.777555,
      "longitude": 7.717415099999999,
      "viewport": {
        "northeast": {
          "lat": 6.778947079892722,
          "lng": 7.718804779892722
        },
        "southwest": {
          "lat": 6.776247420107278,
          "lng": 7.716105120107278
        }
      },
      "formatted_address": "QPH8+2XF, Obollo Afor-Nkalagu Road, 412102, Ikem, Nigeria",
      "google_map_url": "https://maps.google.com?q=6.777555,7.717415099999999",
      "google_place_id": "ChIJd_NTJPrNRBAR9w9yfZqGvOk"
    }
  },
  {
    "id": "57398",
    "name": "UMU-OSHIM",
    "registration_area_id": "3111",
    "precise_location": null,
    "abbreviation": "014",
    "units": "014",
    "delimitation": "14/10/02/014",
    "remark": "EXISTING PU",
    "ward_id": "3111",
    "ward_name": "IKEM II",
    "local_government_id": "268",
    "local_government_name": "ISI UZO",
    "state_id": "14",
    "state_name": "ENUGU",
    "location": {
      "latitude": 6.7678142,
      "longitude": 7.702083099999999,
      "viewport": {
        "northeast": {
          "lat": 6.769066529892721,
          "lng": 7.70354932989272
        },
        "southwest": {
          "lat": 6.766366870107277,
          "lng": 7.700849670107276
        }
      },
      "formatted_address": "QP92+4RG, 412102, Ikem, Nigeria",
      "google_map_url": "https://maps.google.com?q=6.7678142,7.702083099999999",
      "google_place_id": "ChIJgWDavP7LRBAR4C6fieLvb_o"
    }
  },
  {
    "id": "57399",
    "name": "ISHIOLU VILLAGE SQUARE",
    "registration_area_id": "3111",
    "precise_location": null,
    "abbreviation": "015",
    "units": "015",
    "delimitation": "14/10/02/015",
    "remark": "EXISTING PU",
    "ward_id": "3111",
    "ward_name": "IKEM II",
    "local_government_id": "268",
    "local_government_name": "ISI UZO",
    "state_id": "14",
    "state_name": "ENUGU",
    "location": {
      "latitude": 6.7678142,
      "longitude": 7.702083099999999,
      "viewport": {
        "northeast": {
          "lat": 6.769066529892721,
          "lng": 7.70354932989272
        },
        "southwest": {
          "lat": 6.766366870107277,
          "lng": 7.700849670107276
        }
      },
      "formatted_address": "QP92+4RG, 412102, Ikem, Nigeria",
      "google_map_url": "https://maps.google.com?q=6.7678142,7.702083099999999",
      "google_place_id": "ChIJgWDavP7LRBAR4C6fieLvb_o"
    }
  },
  {
    "id": "57400",
    "name": "ONICHA EBIA VILLAGE SQUARE",
    "registration_area_id": "3111",
    "precise_location": null,
    "abbreviation": "016",
    "units": "016",
    "delimitation": "14/10/02/016",
    "remark": "EXISTING PU",
    "ward_id": "3111",
    "ward_name": "IKEM II",
    "local_government_id": "268",
    "local_government_name": "ISI UZO",
    "state_id": "14",
    "state_name": "ENUGU",
    "location": {
      "latitude": 6.777555,
      "longitude": 7.717415099999999,
      "viewport": {
        "northeast": {
          "lat": 6.778947079892722,
          "lng": 7.718804779892722
        },
        "southwest": {
          "lat": 6.776247420107278,
          "lng": 7.716105120107278
        }
      },
      "formatted_address": "QPH8+2XF, Obollo Afor-Nkalagu Road, 412102, Ikem, Nigeria",
      "google_map_url": "https://maps.google.com?q=6.777555,7.717415099999999",
      "google_place_id": "ChIJd_NTJPrNRBAR9w9yfZqGvOk"
    }
  },
  {
    "id": "57401",
    "name": "NGENEADAKA VILLAGE SQR.",
    "registration_area_id": "3111",
    "precise_location": null,
    "abbreviation": "017",
    "units": "017",
    "delimitation": "14/10/02/017",
    "remark": "NEW PU",
    "ward_id": "3111",
    "ward_name": "IKEM II",
    "local_government_id": "268",
    "local_government_name": "ISI UZO",
    "state_id": "14",
    "state_name": "ENUGU",
    "location": {
      "latitude": 6.777555,
      "longitude": 7.717415099999999,
      "viewport": {
        "northeast": {
          "lat": 6.778947079892722,
          "lng": 7.718804779892722
        },
        "southwest": {
          "lat": 6.776247420107278,
          "lng": 7.716105120107278
        }
      },
      "formatted_address": "QPH8+2XF, Obollo Afor-Nkalagu Road, 412102, Ikem, Nigeria",
      "google_map_url": "https://maps.google.com?q=6.777555,7.717415099999999",
      "google_place_id": "ChIJd_NTJPrNRBAR9w9yfZqGvOk"
    }
  },
  {
    "id": "57402",
    "name": "OGBU INYINYA TOWN HALL",
    "registration_area_id": "3111",
    "precise_location": null,
    "abbreviation": "018",
    "units": "018",
    "delimitation": "14/10/02/018",
    "remark": "NEW PU",
    "ward_id": "3111",
    "ward_name": "IKEM II",
    "local_government_id": "268",
    "local_government_name": "ISI UZO",
    "state_id": "14",
    "state_name": "ENUGU",
    "location": {
      "latitude": 6.7678142,
      "longitude": 7.702083099999999,
      "viewport": {
        "northeast": {
          "lat": 6.769066529892721,
          "lng": 7.70354932989272
        },
        "southwest": {
          "lat": 6.766366870107277,
          "lng": 7.700849670107276
        }
      },
      "formatted_address": "QP92+4RG, 412102, Ikem, Nigeria",
      "google_map_url": "https://maps.google.com?q=6.7678142,7.702083099999999",
      "google_place_id": "ChIJgWDavP7LRBAR4C6fieLvb_o"
    }
  },
  {
    "id": "57403",
    "name": "IGWEBUIKE TOWN HALL",
    "registration_area_id": "3111",
    "precise_location": null,
    "abbreviation": "019",
    "units": "019",
    "delimitation": "14/10/02/019",
    "remark": "NEW PU",
    "ward_id": "3111",
    "ward_name": "IKEM II",
    "local_government_id": "268",
    "local_government_name": "ISI UZO",
    "state_id": "14",
    "state_name": "ENUGU",
    "location": {
      "latitude": 6.7678142,
      "longitude": 7.702083099999999,
      "viewport": {
        "northeast": {
          "lat": 6.769066529892721,
          "lng": 7.70354932989272
        },
        "southwest": {
          "lat": 6.766366870107277,
          "lng": 7.700849670107276
        }
      },
      "formatted_address": "QP92+4RG, 412102, Ikem, Nigeria",
      "google_map_url": "https://maps.google.com?q=6.7678142,7.702083099999999",
      "google_place_id": "ChIJgWDavP7LRBAR4C6fieLvb_o"
    }
  }
]