[
  {
    "id": "64264",
    "name": "COMM. SCH. UPE",
    "registration_area_id": "3487",
    "precise_location": null,
    "abbreviation": "001",
    "units": "001",
    "delimitation": "16/12/05/001",
    "remark": "EXISTING PU",
    "ward_id": "3487",
    "ward_name": "IMERIENWE",
    "local_government_id": "304",
    "local_government_name": "NGOR OKPALA (UMUNEKE)",
    "state_id": "16",
    "state_name": "IMO",
    "location": {
      "latitude": 5.3385111,
      "longitude": 7.1489919,
      "viewport": {
        "northeast": {
          "lat": 5.339885329892723,
          "lng": 7.150260479892721
        },
        "southwest": {
          "lat": 5.337185670107279,
          "lng": 7.147560820107278
        }
      },
      "formatted_address": "opposite customary court umuneke ngor, Ngor Okpala St, Owerri, Nigeria",
      "google_map_url": "https://maps.google.com?q=5.3385111,7.1489919",
      "google_place_id": "ChIJ2RDyvpaLQhARy923nxIh8dA"
    }
  },
  {
    "id": "64265",
    "name": "COMM. CENTRAL SCH. UMUNAM",
    "registration_area_id": "3487",
    "precise_location": null,
    "abbreviation": "002",
    "units": "002",
    "delimitation": "16/12/05/002",
    "remark": "EXISTING PU",
    "ward_id": "3487",
    "ward_name": "IMERIENWE",
    "local_government_id": "304",
    "local_government_name": "NGOR OKPALA (UMUNEKE)",
    "state_id": "16",
    "state_name": "IMO",
    "location": {
      "latitude": 5.3631878,
      "longitude": 7.087429699999999,
      "viewport": {
        "northeast": {
          "lat": 5.364527479892723,
          "lng": 7.088790329892721
        },
        "southwest": {
          "lat": 5.361827820107279,
          "lng": 7.086090670107277
        }
      },
      "formatted_address": "937Q+726, 460125, Umuoye, Nigeria",
      "google_map_url": "https://maps.google.com?q=5.3631878,7.087429699999999",
      "google_place_id": "ChIJv98Pr6JfQhARm2sKt2tF00I"
    }
  },
  {
    "id": "64266",
    "name": "CENTRAL SCH. UMUOYE I",
    "registration_area_id": "3487",
    "precise_location": null,
    "abbreviation": "003",
    "units": "003",
    "delimitation": "16/12/05/003",
    "remark": "EXISTING PU",
    "ward_id": "3487",
    "ward_name": "IMERIENWE",
    "local_government_id": "304",
    "local_government_name": "NGOR OKPALA (UMUNEKE)",
    "state_id": "16",
    "state_name": "IMO",
    "location": {
      "latitude": 5.3631878,
      "longitude": 7.087429699999999,
      "viewport": {
        "northeast": {
          "lat": 5.364527479892723,
          "lng": 7.088790329892721
        },
        "southwest": {
          "lat": 5.361827820107279,
          "lng": 7.086090670107277
        }
      },
      "formatted_address": "937Q+726, 460125, Umuoye, Nigeria",
      "google_map_url": "https://maps.google.com?q=5.3631878,7.087429699999999",
      "google_place_id": "ChIJv98Pr6JfQhARm2sKt2tF00I"
    }
  },
  {
    "id": "64267",
    "name": "UKAMA COMM. SCHOOL",
    "registration_area_id": "3487",
    "precise_location": null,
    "abbreviation": "004",
    "units": "004",
    "delimitation": "16/12/05/004",
    "remark": "EXISTING PU",
    "ward_id": "3487",
    "ward_name": "IMERIENWE",
    "local_government_id": "304",
    "local_government_name": "NGOR OKPALA (UMUNEKE)",
    "state_id": "16",
    "state_name": "IMO",
    "location": {
      "latitude": 5.343499599999999,
      "longitude": 7.1509053,
      "viewport": {
        "northeast": {
          "lat": 5.344849279892722,
          "lng": 7.152231079892722
        },
        "southwest": {
          "lat": 5.342149620107278,
          "lng": 7.149531420107278
        }
      },
      "formatted_address": "85V2+98, 460132, Umu Ewere, Nigeria",
      "google_map_url": "https://maps.google.com?q=5.343499599999999,7.1509053",
      "google_place_id": "ChIJJfbdTI6LQhARmyrOFIPJpao"
    }
  },
  {
    "id": "64268",
    "name": "UMUNAKARA COMM. SCHOOL",
    "registration_area_id": "3487",
    "precise_location": null,
    "abbreviation": "005",
    "units": "005",
    "delimitation": "16/12/05/005",
    "remark": "EXISTING PU",
    "ward_id": "3487",
    "ward_name": "IMERIENWE",
    "local_government_id": "304",
    "local_government_name": "NGOR OKPALA (UMUNEKE)",
    "state_id": "16",
    "state_name": "IMO",
    "location": {
      "latitude": 5.343499599999999,
      "longitude": 7.1509053,
      "viewport": {
        "northeast": {
          "lat": 5.344849279892722,
          "lng": 7.152231079892722
        },
        "southwest": {
          "lat": 5.342149620107278,
          "lng": 7.149531420107278
        }
      },
      "formatted_address": "85V2+98, 460132, Umu Ewere, Nigeria",
      "google_map_url": "https://maps.google.com?q=5.343499599999999,7.1509053",
      "google_place_id": "ChIJJfbdTI6LQhARmyrOFIPJpao"
    }
  },
  {
    "id": "64269",
    "name": "COMM. SCHOOL AMAFOR",
    "registration_area_id": "3487",
    "precise_location": null,
    "abbreviation": "006",
    "units": "006",
    "delimitation": "16/12/05/006",
    "remark": "EXISTING PU",
    "ward_id": "3487",
    "ward_name": "IMERIENWE",
    "local_government_id": "304",
    "local_government_name": "NGOR OKPALA (UMUNEKE)",
    "state_id": "16",
    "state_name": "IMO",
    "location": {
      "latitude": 5.3385111,
      "longitude": 7.1489919,
      "viewport": {
        "northeast": {
          "lat": 5.339885329892723,
          "lng": 7.150260479892721
        },
        "southwest": {
          "lat": 5.337185670107279,
          "lng": 7.147560820107278
        }
      },
      "formatted_address": "opposite customary court umuneke ngor, Ngor Okpala St, Owerri, Nigeria",
      "google_map_url": "https://maps.google.com?q=5.3385111,7.1489919",
      "google_place_id": "ChIJ2RDyvpaLQhARy923nxIh8dA"
    }
  },
  {
    "id": "64270",
    "name": "CENTRAL SCH. UMUOYE II",
    "registration_area_id": "3487",
    "precise_location": null,
    "abbreviation": "007",
    "units": "007",
    "delimitation": "16/12/05/007",
    "remark": "EXISTING PU",
    "ward_id": "3487",
    "ward_name": "IMERIENWE",
    "local_government_id": "304",
    "local_government_name": "NGOR OKPALA (UMUNEKE)",
    "state_id": "16",
    "state_name": "IMO",
    "location": {
      "latitude": 5.3631878,
      "longitude": 7.087429699999999,
      "viewport": {
        "northeast": {
          "lat": 5.364527479892723,
          "lng": 7.088790329892721
        },
        "southwest": {
          "lat": 5.361827820107279,
          "lng": 7.086090670107277
        }
      },
      "formatted_address": "937Q+726, 460125, Umuoye, Nigeria",
      "google_map_url": "https://maps.google.com?q=5.3631878,7.087429699999999",
      "google_place_id": "ChIJv98Pr6JfQhARm2sKt2tF00I"
    }
  },
  {
    "id": "64271",
    "name": "PRI. SCH. UPE/UMUNAM",
    "registration_area_id": "3487",
    "precise_location": null,
    "abbreviation": "008",
    "units": "008",
    "delimitation": "16/12/05/008",
    "remark": "EXISTING PU",
    "ward_id": "3487",
    "ward_name": "IMERIENWE",
    "local_government_id": "304",
    "local_government_name": "NGOR OKPALA (UMUNEKE)",
    "state_id": "16",
    "state_name": "IMO",
    "location": {
      "latitude": 5.385254199999999,
      "longitude": 7.0891049,
      "viewport": {
        "northeast": {
          "lat": 5.386660629892722,
          "lng": 7.090555629892721
        },
        "southwest": {
          "lat": 5.383960970107278,
          "lng": 7.087855970107277
        }
      },
      "formatted_address": "93PQ+4J5, IMERIENWE Road, UMUNAM,, Umu Nam, Nigeria",
      "google_map_url": "https://maps.google.com?q=5.385254199999999,7.0891049",
      "google_place_id": "ChIJB1PcPoZfQhAR650ZtC_2t1Q"
    }
  },
  {
    "id": "64272",
    "name": "UMUNAKARA VILLAGE SQUARE",
    "registration_area_id": "3487",
    "precise_location": null,
    "abbreviation": "009",
    "units": "009",
    "delimitation": "16/12/05/009",
    "remark": "EXISTING PU",
    "ward_id": "3487",
    "ward_name": "IMERIENWE",
    "local_government_id": "304",
    "local_government_name": "NGOR OKPALA (UMUNEKE)",
    "state_id": "16",
    "state_name": "IMO",
    "location": {
      "latitude": 5.3358305,
      "longitude": 7.1498621,
      "viewport": {
        "northeast": {
          "lat": 5.337149679892721,
          "lng": 7.151204579892721
        },
        "southwest": {
          "lat": 5.334450020107277,
          "lng": 7.148504920107277
        }
      },
      "formatted_address": "84PX+8WQ, Unnamed Road, 460132, Umuneke, Nigeria",
      "google_map_url": "https://maps.google.com?q=5.3358305,7.1498621",
      "google_place_id": "ChIJK-0hMhKLQhARxXLD4e3bhDA"
    }
  },
  {
    "id": "64273",
    "name": "CENTRAL SCHOOL UMUOYE",
    "registration_area_id": "3487",
    "precise_location": null,
    "abbreviation": "010",
    "units": "010",
    "delimitation": "16/12/05/010",
    "remark": "EXISTING PU",
    "ward_id": "3487",
    "ward_name": "IMERIENWE",
    "local_government_id": "304",
    "local_government_name": "NGOR OKPALA (UMUNEKE)",
    "state_id": "16",
    "state_name": "IMO",
    "location": {
      "latitude": 5.3631878,
      "longitude": 7.087429699999999,
      "viewport": {
        "northeast": {
          "lat": 5.364527479892723,
          "lng": 7.088790329892721
        },
        "southwest": {
          "lat": 5.361827820107279,
          "lng": 7.086090670107277
        }
      },
      "formatted_address": "937Q+726, 460125, Umuoye, Nigeria",
      "google_map_url": "https://maps.google.com?q=5.3631878,7.087429699999999",
      "google_place_id": "ChIJv98Pr6JfQhARm2sKt2tF00I"
    }
  },
  {
    "id": "64274",
    "name": "PIONEER PRI. SCH. AMAFOR",
    "registration_area_id": "3487",
    "precise_location": null,
    "abbreviation": "011",
    "units": "011",
    "delimitation": "16/12/05/011",
    "remark": "EXISTING PU",
    "ward_id": "3487",
    "ward_name": "IMERIENWE",
    "local_government_id": "304",
    "local_government_name": "NGOR OKPALA (UMUNEKE)",
    "state_id": "16",
    "state_name": "IMO",
    "location": {
      "latitude": 5.343499599999999,
      "longitude": 7.1509053,
      "viewport": {
        "northeast": {
          "lat": 5.344849279892722,
          "lng": 7.152231079892722
        },
        "southwest": {
          "lat": 5.342149620107278,
          "lng": 7.149531420107278
        }
      },
      "formatted_address": "85V2+98, 460132, Umu Ewere, Nigeria",
      "google_map_url": "https://maps.google.com?q=5.343499599999999,7.1509053",
      "google_place_id": "ChIJJfbdTI6LQhARmyrOFIPJpao"
    }
  },
  {
    "id": "64275",
    "name": "OWERRI GRAMMAR SCH. IMERIENWE",
    "registration_area_id": "3487",
    "precise_location": null,
    "abbreviation": "012",
    "units": "012",
    "delimitation": "16/12/05/012",
    "remark": "EXISTING PU",
    "ward_id": "3487",
    "ward_name": "IMERIENWE",
    "local_government_id": "304",
    "local_government_name": "NGOR OKPALA (UMUNEKE)",
    "state_id": "16",
    "state_name": "IMO",
    "location": {
      "latitude": 5.385254199999999,
      "longitude": 7.0891049,
      "viewport": {
        "northeast": {
          "lat": 5.386660629892722,
          "lng": 7.090555629892721
        },
        "southwest": {
          "lat": 5.383960970107278,
          "lng": 7.087855970107277
        }
      },
      "formatted_address": "93PQ+4J5, IMERIENWE Road, UMUNAM,, Umu Nam, Nigeria",
      "google_map_url": "https://maps.google.com?q=5.385254199999999,7.0891049",
      "google_place_id": "ChIJB1PcPoZfQhAR650ZtC_2t1Q"
    }
  },
  {
    "id": "64276",
    "name": "COMM. PRI. SCH. UMUNAM",
    "registration_area_id": "3487",
    "precise_location": null,
    "abbreviation": "013",
    "units": "013",
    "delimitation": "16/12/05/013",
    "remark": "EXISTING PU",
    "ward_id": "3487",
    "ward_name": "IMERIENWE",
    "local_government_id": "304",
    "local_government_name": "NGOR OKPALA (UMUNEKE)",
    "state_id": "16",
    "state_name": "IMO",
    "location": {
      "latitude": 5.385254199999999,
      "longitude": 7.0891049,
      "viewport": {
        "northeast": {
          "lat": 5.386660629892722,
          "lng": 7.090555629892721
        },
        "southwest": {
          "lat": 5.383960970107278,
          "lng": 7.087855970107277
        }
      },
      "formatted_address": "93PQ+4J5, IMERIENWE Road, UMUNAM,, Umu Nam, Nigeria",
      "google_map_url": "https://maps.google.com?q=5.385254199999999,7.0891049",
      "google_place_id": "ChIJB1PcPoZfQhAR650ZtC_2t1Q"
    }
  },
  {
    "id": "64277",
    "name": "COMM. SCHOOL UPE",
    "registration_area_id": "3487",
    "precise_location": null,
    "abbreviation": "014",
    "units": "014",
    "delimitation": "16/12/05/014",
    "remark": "EXISTING PU",
    "ward_id": "3487",
    "ward_name": "IMERIENWE",
    "local_government_id": "304",
    "local_government_name": "NGOR OKPALA (UMUNEKE)",
    "state_id": "16",
    "state_name": "IMO",
    "location": {
      "latitude": 5.385254199999999,
      "longitude": 7.0891049,
      "viewport": {
        "northeast": {
          "lat": 5.386660629892722,
          "lng": 7.090555629892721
        },
        "southwest": {
          "lat": 5.383960970107278,
          "lng": 7.087855970107277
        }
      },
      "formatted_address": "93PQ+4J5, IMERIENWE Road, UMUNAM,, Umu Nam, Nigeria",
      "google_map_url": "https://maps.google.com?q=5.385254199999999,7.0891049",
      "google_place_id": "ChIJB1PcPoZfQhAR650ZtC_2t1Q"
    }
  },
  {
    "id": "64278",
    "name": "UPE TOWN HALL",
    "registration_area_id": "3487",
    "precise_location": null,
    "abbreviation": "015",
    "units": "015",
    "delimitation": "16/12/05/015",
    "remark": "NEW PU",
    "ward_id": "3487",
    "ward_name": "IMERIENWE",
    "local_government_id": "304",
    "local_government_name": "NGOR OKPALA (UMUNEKE)",
    "state_id": "16",
    "state_name": "IMO",
    "location": {
      "latitude": 5.3634349,
      "longitude": 7.0821162,
      "viewport": {
        "northeast": {
          "lat": 5.413750299999999,
          "lng": 7.120302799999999
        },
        "southwest": {
          "lat": 5.321486699999999,
          "lng": 7.0556066
        }
      },
      "formatted_address": "Imerienwe, Nigeria",
      "google_map_url": "https://maps.google.com?q=5.3634349,7.0821162",
      "google_place_id": "ChIJ0cgxsfZfQhARGI8yWGRcBz8"
    }
  },
  {
    "id": "64279",
    "name": "UKAMA VILL. HALL",
    "registration_area_id": "3487",
    "precise_location": null,
    "abbreviation": "016",
    "units": "016",
    "delimitation": "16/12/05/016",
    "remark": "NEW PU",
    "ward_id": "3487",
    "ward_name": "IMERIENWE",
    "local_government_id": "304",
    "local_government_name": "NGOR OKPALA (UMUNEKE)",
    "state_id": "16",
    "state_name": "IMO",
    "location": {
      "latitude": 5.2948952,
      "longitude": 7.250864899999999,
      "viewport": {
        "northeast": {
          "lat": 5.295597879892722,
          "lng": 7.252474829892721
        },
        "southwest": {
          "lat": 5.292898220107278,
          "lng": 7.249775170107277
        }
      },
      "formatted_address": "77V2+X85, 460120, Eziama, Nigeria",
      "google_map_url": "https://maps.google.com?q=5.2948952,7.250864899999999",
      "google_place_id": "ChIJsy29bpGNQhARPj65e3HG9HY"
    }
  },
  {
    "id": "64280",
    "name": "PRI. SCH. UPE/UMUNAM",
    "registration_area_id": "3487",
    "precise_location": null,
    "abbreviation": "017",
    "units": "017",
    "delimitation": "16/12/05/017",
    "remark": "NEW PU",
    "ward_id": "3487",
    "ward_name": "IMERIENWE",
    "local_government_id": "304",
    "local_government_name": "NGOR OKPALA (UMUNEKE)",
    "state_id": "16",
    "state_name": "IMO",
    "location": {
      "latitude": 5.385254199999999,
      "longitude": 7.0891049,
      "viewport": {
        "northeast": {
          "lat": 5.386660629892722,
          "lng": 7.090555629892721
        },
        "southwest": {
          "lat": 5.383960970107278,
          "lng": 7.087855970107277
        }
      },
      "formatted_address": "93PQ+4J5, IMERIENWE Road, UMUNAM,, Umu Nam, Nigeria",
      "google_map_url": "https://maps.google.com?q=5.385254199999999,7.0891049",
      "google_place_id": "ChIJB1PcPoZfQhAR650ZtC_2t1Q"
    }
  },
  {
    "id": "64281",
    "name": "UMUAWARA VILL. HALL UMUOYE",
    "registration_area_id": "3487",
    "precise_location": null,
    "abbreviation": "018",
    "units": "018",
    "delimitation": "16/12/05/018",
    "remark": "NEW PU",
    "ward_id": "3487",
    "ward_name": "IMERIENWE",
    "local_government_id": "304",
    "local_government_name": "NGOR OKPALA (UMUNEKE)",
    "state_id": "16",
    "state_name": "IMO",
    "location": {
      "latitude": 5.335152300000001,
      "longitude": 7.1409857,
      "viewport": {
        "northeast": {
          "lat": 5.3382581,
          "lng": 7.1491019
        },
        "southwest": {
          "lat": 5.3287651,
          "lng": 7.138824
        }
      },
      "formatted_address": "460118, Umuneke, Nigeria",
      "google_map_url": "https://maps.google.com?q=5.335152300000001,7.1409857",
      "google_place_id": "ChIJE3wFxTuLQhARpLuwXrkV6zU"
    }
  },
  {
    "id": "64282",
    "name": "AFOR-AMA MKT. SQ.",
    "registration_area_id": "3487",
    "precise_location": null,
    "abbreviation": "019",
    "units": "019",
    "delimitation": "16/12/05/019",
    "remark": "NEW PU",
    "ward_id": "3487",
    "ward_name": "IMERIENWE",
    "local_government_id": "304",
    "local_government_name": "NGOR OKPALA (UMUNEKE)",
    "state_id": "16",
    "state_name": "IMO",
    "location": {
      "latitude": 5.343499599999999,
      "longitude": 7.1509053,
      "viewport": {
        "northeast": {
          "lat": 5.344849279892722,
          "lng": 7.152231079892722
        },
        "southwest": {
          "lat": 5.342149620107278,
          "lng": 7.149531420107278
        }
      },
      "formatted_address": "85V2+98, 460132, Umu Ewere, Nigeria",
      "google_map_url": "https://maps.google.com?q=5.343499599999999,7.1509053",
      "google_place_id": "ChIJJfbdTI6LQhARmyrOFIPJpao"
    }
  }
]