[
  {
    "id": "31706",
    "name": "GUNDA PRI. SCH.",
    "registration_area_id": "1707",
    "precise_location": null,
    "abbreviation": "001",
    "units": "001",
    "delimitation": "08/05/02/001",
    "remark": "EXISTING PU",
    "ward_id": "1707",
    "ward_name": "DADIN KOWA",
    "local_government_id": "146",
    "local_government_name": "BIU",
    "state_id": "8",
    "state_name": "BORNO",
    "location": {
      "latitude": 10.6176435,
      "longitude": 12.1980972,
      "viewport": {
        "northeast": {
          "lat": 10.61899952989272,
          "lng": 12.19969627989272
        },
        "southwest": {
          "lat": 10.61629987010728,
          "lng": 12.19699662010728
        }
      },
      "formatted_address": "J59X+365, 603108, Biu, Nigeria",
      "google_map_url": "https://maps.google.com?q=10.6176435,12.1980972",
      "google_place_id": "ChIJ53sKL8AbAhERoFn5bIwEZlM"
    }
  },
  {
    "id": "31707",
    "name": "GUNDA , BULAMA GATE",
    "registration_area_id": "1707",
    "precise_location": null,
    "abbreviation": "002",
    "units": "002",
    "delimitation": "08/05/02/002",
    "remark": "EXISTING PU",
    "ward_id": "1707",
    "ward_name": "DADIN KOWA",
    "local_government_id": "146",
    "local_government_name": "BIU",
    "state_id": "8",
    "state_name": "BORNO",
    "location": null
  },
  {
    "id": "31708",
    "name": "NJIBI PRI. SCH.",
    "registration_area_id": "1707",
    "precise_location": null,
    "abbreviation": "003",
    "units": "003",
    "delimitation": "08/05/02/003",
    "remark": "EXISTING PU",
    "ward_id": "1707",
    "ward_name": "DADIN KOWA",
    "local_government_id": "146",
    "local_government_name": "BIU",
    "state_id": "8",
    "state_name": "BORNO",
    "location": {
      "latitude": 10.6176435,
      "longitude": 12.1980972,
      "viewport": {
        "northeast": {
          "lat": 10.61899952989272,
          "lng": 12.19969627989272
        },
        "southwest": {
          "lat": 10.61629987010728,
          "lng": 12.19699662010728
        }
      },
      "formatted_address": "J59X+365, 603108, Biu, Nigeria",
      "google_map_url": "https://maps.google.com?q=10.6176435,12.1980972",
      "google_place_id": "ChIJ53sKL8AbAhERoFn5bIwEZlM"
    }
  },
  {
    "id": "31709",
    "name": "NJIBI, BULAMA GATE",
    "registration_area_id": "1707",
    "precise_location": null,
    "abbreviation": "004",
    "units": "004",
    "delimitation": "08/05/02/004",
    "remark": "EXISTING PU",
    "ward_id": "1707",
    "ward_name": "DADIN KOWA",
    "local_government_id": "146",
    "local_government_name": "BIU",
    "state_id": "8",
    "state_name": "BORNO",
    "location": null
  },
  {
    "id": "31710",
    "name": "GALABINDA, BULAMA GATE  I",
    "registration_area_id": "1707",
    "precise_location": null,
    "abbreviation": "005",
    "units": "005",
    "delimitation": "08/05/02/005",
    "remark": "EXISTING PU",
    "ward_id": "1707",
    "ward_name": "DADIN KOWA",
    "local_government_id": "146",
    "local_government_name": "BIU",
    "state_id": "8",
    "state_name": "BORNO",
    "location": {
      "latitude": 10.2780361,
      "longitude": 11.1983896,
      "viewport": {
        "northeast": {
          "lat": 10.27938832989272,
          "lng": 11.19970467989272
        },
        "southwest": {
          "lat": 10.27668867010728,
          "lng": 11.19700502010728
        }
      },
      "formatted_address": "75HX+696, 771104, Gombe, Nigeria",
      "google_map_url": "https://maps.google.com?q=10.2780361,11.1983896",
      "google_place_id": "ChIJw4ZE0FHQ_xARiexjDGCnJXM"
    }
  },
  {
    "id": "31711",
    "name": "GALABINDA, BULAMA GATE  II",
    "registration_area_id": "1707",
    "precise_location": null,
    "abbreviation": "006",
    "units": "006",
    "delimitation": "08/05/02/006",
    "remark": "EXISTING PU",
    "ward_id": "1707",
    "ward_name": "DADIN KOWA",
    "local_government_id": "146",
    "local_government_name": "BIU",
    "state_id": "8",
    "state_name": "BORNO",
    "location": null
  },
  {
    "id": "31712",
    "name": "MADAKI, BULAMA GATE",
    "registration_area_id": "1707",
    "precise_location": null,
    "abbreviation": "007",
    "units": "007",
    "delimitation": "08/05/02/007",
    "remark": "EXISTING PU",
    "ward_id": "1707",
    "ward_name": "DADIN KOWA",
    "local_government_id": "146",
    "local_government_name": "BIU",
    "state_id": "8",
    "state_name": "BORNO",
    "location": null
  },
  {
    "id": "31713",
    "name": "MADAKI PRI. SCH.",
    "registration_area_id": "1707",
    "precise_location": null,
    "abbreviation": "008",
    "units": "008",
    "delimitation": "08/05/02/008",
    "remark": "EXISTING PU",
    "ward_id": "1707",
    "ward_name": "DADIN KOWA",
    "local_government_id": "146",
    "local_government_name": "BIU",
    "state_id": "8",
    "state_name": "BORNO",
    "location": {
      "latitude": 10.6234482,
      "longitude": 12.1833339,
      "viewport": {
        "northeast": {
          "lat": 10.62478837989272,
          "lng": 12.18466882989272
        },
        "southwest": {
          "lat": 10.62208872010728,
          "lng": 12.18196917010728
        }
      },
      "formatted_address": "J5FM+98C, 603108, Biu, Nigeria",
      "google_map_url": "https://maps.google.com?q=10.6234482,12.1833339",
      "google_place_id": "ChIJcT2rLJQbAhERHrSID0VYpE4"
    }
  },
  {
    "id": "31714",
    "name": "MADAKI MAIDUGURI, BULAMA GATE",
    "registration_area_id": "1707",
    "precise_location": null,
    "abbreviation": "009",
    "units": "009",
    "delimitation": "08/05/02/009",
    "remark": "EXISTING PU",
    "ward_id": "1707",
    "ward_name": "DADIN KOWA",
    "local_government_id": "146",
    "local_government_name": "BIU",
    "state_id": "8",
    "state_name": "BORNO",
    "location": null
  },
  {
    "id": "31715",
    "name": "MAIDUGURI",
    "registration_area_id": "1707",
    "precise_location": null,
    "abbreviation": "010",
    "units": "010",
    "delimitation": "08/05/02/010",
    "remark": "EXISTING PU",
    "ward_id": "1707",
    "ward_name": "DADIN KOWA",
    "local_government_id": "146",
    "local_government_name": "BIU",
    "state_id": "8",
    "state_name": "BORNO",
    "location": {
      "latitude": 11.8846356,
      "longitude": 13.1519665,
      "viewport": {
        "northeast": {
          "lat": 11.88600597989272,
          "lng": 13.15338702989272
        },
        "southwest": {
          "lat": 11.88330632010728,
          "lng": 13.15068737010728
        }
      },
      "formatted_address": "5 Iwuno Street, 600282, Maiduguri, Nigeria",
      "google_map_url": "https://maps.google.com?q=11.8846356,13.1519665",
      "google_place_id": "ChIJdbUHtcGZBBER84Xz_bdB7Nw"
    }
  },
  {
    "id": "31716",
    "name": "NAFADA",
    "registration_area_id": "1707",
    "precise_location": null,
    "abbreviation": "011",
    "units": "011",
    "delimitation": "08/05/02/011",
    "remark": "EXISTING PU",
    "ward_id": "1707",
    "ward_name": "DADIN KOWA",
    "local_government_id": "146",
    "local_government_name": "BIU",
    "state_id": "8",
    "state_name": "BORNO",
    "location": {
      "latitude": 10.3211931,
      "longitude": 11.481479,
      "viewport": {
        "northeast": {
          "lat": 10.32254292989272,
          "lng": 11.48282882989272
        },
        "southwest": {
          "lat": 10.31984327010728,
          "lng": 11.48012917010728
        }
      },
      "formatted_address": "8FCJ+FHH, 761121, Nigeria",
      "google_map_url": "https://maps.google.com?q=10.3211931,11.481479",
      "google_place_id": "ChIJizCa3Sov_hARsDXXGp4Bwto"
    }
  },
  {
    "id": "31717",
    "name": "BANTINE",
    "registration_area_id": "1707",
    "precise_location": null,
    "abbreviation": "012",
    "units": "012",
    "delimitation": "08/05/02/012",
    "remark": "EXISTING PU",
    "ward_id": "1707",
    "ward_name": "DADIN KOWA",
    "local_government_id": "146",
    "local_government_name": "BIU",
    "state_id": "8",
    "state_name": "BORNO",
    "location": {
      "latitude": 10.88437,
      "longitude": 11.859413,
      "viewport": {
        "northeast": {
          "lat": 10.88627082989272,
          "lng": 11.86055727989272
        },
        "southwest": {
          "lat": 10.88357117010728,
          "lng": 11.85785762010728
        }
      },
      "formatted_address": "603101, Bantine, Nigeria",
      "google_map_url": "https://maps.google.com?q=10.88437,11.859413",
      "google_place_id": "ChIJkaGuykyQARERi9Fo3wtnKmw"
    }
  },
  {
    "id": "31718",
    "name": "THLAKTHLA",
    "registration_area_id": "1707",
    "precise_location": null,
    "abbreviation": "013",
    "units": "013",
    "delimitation": "08/05/02/013",
    "remark": "EXISTING PU",
    "ward_id": "1707",
    "ward_name": "DADIN KOWA",
    "local_government_id": "146",
    "local_government_name": "BIU",
    "state_id": "8",
    "state_name": "BORNO",
    "location": {
      "latitude": 10.8855072,
      "longitude": 11.8435568,
      "viewport": {
        "northeast": {
          "lat": 10.9688913,
          "lng": 11.9430659
        },
        "southwest": {
          "lat": 10.7247154,
          "lng": 11.6321449
        }
      },
      "formatted_address": "Dadin Kowa, Nigeria",
      "google_map_url": "https://maps.google.com?q=10.8855072,11.8435568",
      "google_place_id": "ChIJg3T6kaiWARERHEZGATue1ys"
    }
  },
  {
    "id": "31719",
    "name": "BERUM",
    "registration_area_id": "1707",
    "precise_location": null,
    "abbreviation": "014",
    "units": "014",
    "delimitation": "08/05/02/014",
    "remark": "EXISTING PU",
    "ward_id": "1707",
    "ward_name": "DADIN KOWA",
    "local_government_id": "146",
    "local_government_name": "BIU",
    "state_id": "8",
    "state_name": "BORNO",
    "location": {
      "latitude": 10.8855072,
      "longitude": 11.8435568,
      "viewport": {
        "northeast": {
          "lat": 10.9688913,
          "lng": 11.9430659
        },
        "southwest": {
          "lat": 10.7247154,
          "lng": 11.6321449
        }
      },
      "formatted_address": "Dadin Kowa, Nigeria",
      "google_map_url": "https://maps.google.com?q=10.8855072,11.8435568",
      "google_place_id": "ChIJg3T6kaiWARERHEZGATue1ys"
    }
  },
  {
    "id": "31720",
    "name": "DADINKOWA",
    "registration_area_id": "1707",
    "precise_location": null,
    "abbreviation": "015",
    "units": "015",
    "delimitation": "08/05/02/015",
    "remark": "EXISTING PU",
    "ward_id": "1707",
    "ward_name": "DADIN KOWA",
    "local_government_id": "146",
    "local_government_name": "BIU",
    "state_id": "8",
    "state_name": "BORNO",
    "location": {
      "latitude": 10.7798908,
      "longitude": 11.9397994,
      "viewport": {
        "northeast": {
          "lat": 10.785021,
          "lng": 11.945149
        },
        "southwest": {
          "lat": 10.775091,
          "lng": 11.933124
        }
      },
      "formatted_address": "603101, Dadin Kowa, Nigeria",
      "google_map_url": "https://maps.google.com?q=10.7798908,11.9397994",
      "google_place_id": "ChIJUQslbeOMARER2qs4dKmD4eo"
    }
  },
  {
    "id": "31721",
    "name": "GAIDAM",
    "registration_area_id": "1707",
    "precise_location": null,
    "abbreviation": "016",
    "units": "016",
    "delimitation": "08/05/02/016",
    "remark": "EXISTING PU",
    "ward_id": "1707",
    "ward_name": "DADIN KOWA",
    "local_government_id": "146",
    "local_government_name": "BIU",
    "state_id": "8",
    "state_name": "BORNO",
    "location": {
      "latitude": 10.8855072,
      "longitude": 11.8435568,
      "viewport": {
        "northeast": {
          "lat": 10.9688913,
          "lng": 11.9430659
        },
        "southwest": {
          "lat": 10.7247154,
          "lng": 11.6321449
        }
      },
      "formatted_address": "Dadin Kowa, Nigeria",
      "google_map_url": "https://maps.google.com?q=10.8855072,11.8435568",
      "google_place_id": "ChIJg3T6kaiWARERHEZGATue1ys"
    }
  },
  {
    "id": "31722",
    "name": "DUZUWA PRI. SCH.",
    "registration_area_id": "1707",
    "precise_location": null,
    "abbreviation": "017",
    "units": "017",
    "delimitation": "08/05/02/017",
    "remark": "EXISTING PU",
    "ward_id": "1707",
    "ward_name": "DADIN KOWA",
    "local_government_id": "146",
    "local_government_name": "BIU",
    "state_id": "8",
    "state_name": "BORNO",
    "location": {
      "latitude": 10.6176435,
      "longitude": 12.1980972,
      "viewport": {
        "northeast": {
          "lat": 10.61899952989272,
          "lng": 12.19969627989272
        },
        "southwest": {
          "lat": 10.61629987010728,
          "lng": 12.19699662010728
        }
      },
      "formatted_address": "J59X+365, 603108, Biu, Nigeria",
      "google_map_url": "https://maps.google.com?q=10.6176435,12.1980972",
      "google_place_id": "ChIJ53sKL8AbAhERoFn5bIwEZlM"
    }
  },
  {
    "id": "31723",
    "name": "PANANA",
    "registration_area_id": "1707",
    "precise_location": null,
    "abbreviation": "018",
    "units": "018",
    "delimitation": "08/05/02/018",
    "remark": "EXISTING PU",
    "ward_id": "1707",
    "ward_name": "DADIN KOWA",
    "local_government_id": "146",
    "local_government_name": "BIU",
    "state_id": "8",
    "state_name": "BORNO",
    "location": {
      "latitude": 10.9045046,
      "longitude": 11.7785535,
      "viewport": {
        "northeast": {
          "lat": 10.90627432989272,
          "lng": 11.779658
        },
        "southwest": {
          "lat": 10.90357467010728,
          "lng": 11.77688
        }
      },
      "formatted_address": "603101, Panana, Nigeria",
      "google_map_url": "https://maps.google.com?q=10.9045046,11.7785535",
      "google_place_id": "ChIJn-0TgT6XAREROggaC78SrcM"
    }
  },
  {
    "id": "31724",
    "name": "PANANA  WAMA",
    "registration_area_id": "1707",
    "precise_location": null,
    "abbreviation": "019",
    "units": "019",
    "delimitation": "08/05/02/019",
    "remark": "EXISTING PU",
    "ward_id": "1707",
    "ward_name": "DADIN KOWA",
    "local_government_id": "146",
    "local_government_name": "BIU",
    "state_id": "8",
    "state_name": "BORNO",
    "location": {
      "latitude": 10.8855072,
      "longitude": 11.8435568,
      "viewport": {
        "northeast": {
          "lat": 10.9688913,
          "lng": 11.9430659
        },
        "southwest": {
          "lat": 10.7247154,
          "lng": 11.6321449
        }
      },
      "formatted_address": "Dadin Kowa, Nigeria",
      "google_map_url": "https://maps.google.com?q=10.8855072,11.8435568",
      "google_place_id": "ChIJg3T6kaiWARERHEZGATue1ys"
    }
  },
  {
    "id": "31725",
    "name": "DAM",
    "registration_area_id": "1707",
    "precise_location": null,
    "abbreviation": "020",
    "units": "020",
    "delimitation": "08/05/02/020",
    "remark": "EXISTING PU",
    "ward_id": "1707",
    "ward_name": "DADIN KOWA",
    "local_government_id": "146",
    "local_government_name": "BIU",
    "state_id": "8",
    "state_name": "BORNO",
    "location": {
      "latitude": 10.8855072,
      "longitude": 11.8435568,
      "viewport": {
        "northeast": {
          "lat": 10.9688913,
          "lng": 11.9430659
        },
        "southwest": {
          "lat": 10.7247154,
          "lng": 11.6321449
        }
      },
      "formatted_address": "Dadin Kowa, Nigeria",
      "google_map_url": "https://maps.google.com?q=10.8855072,11.8435568",
      "google_place_id": "ChIJg3T6kaiWARERHEZGATue1ys"
    }
  },
  {
    "id": "31726",
    "name": "WUYAKU",
    "registration_area_id": "1707",
    "precise_location": null,
    "abbreviation": "021",
    "units": "021",
    "delimitation": "08/05/02/021",
    "remark": "EXISTING PU",
    "ward_id": "1707",
    "ward_name": "DADIN KOWA",
    "local_government_id": "146",
    "local_government_name": "BIU",
    "state_id": "8",
    "state_name": "BORNO",
    "location": {
      "latitude": 10.8479477,
      "longitude": 11.8152354,
      "viewport": {
        "northeast": {
          "lat": 10.848813,
          "lng": 11.8196579
        },
        "southwest": {
          "lat": 10.84298,
          "lng": 11.81188
        }
      },
      "formatted_address": "603101, Wuyaku, Nigeria",
      "google_map_url": "https://maps.google.com?q=10.8479477,11.8152354",
      "google_place_id": "ChIJqZ9iz16RARER339nAn3qbcs"
    }
  },
  {
    "id": "31727",
    "name": "BULAMA GUNDA",
    "registration_area_id": "1707",
    "precise_location": null,
    "abbreviation": "022",
    "units": "022",
    "delimitation": "08/05/02/022",
    "remark": "NEW PU",
    "ward_id": "1707",
    "ward_name": "DADIN KOWA",
    "local_government_id": "146",
    "local_government_name": "BIU",
    "state_id": "8",
    "state_name": "BORNO",
    "location": {
      "latitude": 10.8855072,
      "longitude": 11.8435568,
      "viewport": {
        "northeast": {
          "lat": 10.9688913,
          "lng": 11.9430659
        },
        "southwest": {
          "lat": 10.7247154,
          "lng": 11.6321449
        }
      },
      "formatted_address": "Dadin Kowa, Nigeria",
      "google_map_url": "https://maps.google.com?q=10.8855072,11.8435568",
      "google_place_id": "ChIJg3T6kaiWARERHEZGATue1ys"
    }
  }
]