[
  {
    "id": "356324",
    "name": "L.A. SCHOOL, ILAJI-ILE",
    "registration_area_id": "18221",
    "precise_location": null,
    "abbreviation": "001",
    "units": "001",
    "delimitation": "30/18/05/001",
    "remark": "EXISTING PU",
    "ward_id": "18221",
    "ward_name": "IWERE-ILE III",
    "local_government_id": "645",
    "local_government_name": "IWAJOWA",
    "state_id": "30",
    "state_name": "OYO",
    "location": {
      "latitude": 7.983489400000001,
      "longitude": 3.0537872,
      "viewport": {
        "northeast": {
          "lat": 7.984402529892722,
          "lng": 3.055049179892722
        },
        "southwest": {
          "lat": 7.981702870107278,
          "lng": 3.052349520107277
        }
      },
      "formatted_address": "Ilaji-Ile, Ohio Road, 202115, Iwere Ile, Nigeria",
      "google_map_url": "https://maps.google.com?q=7.983489400000001,3.0537872",
      "google_place_id": "ChIJhyJgu0hjMBARxoiJLSzEjaY"
    }
  },
  {
    "id": "356325",
    "name": "MATERNITY CENTRE, ILAJI-ILE",
    "registration_area_id": "18221",
    "precise_location": null,
    "abbreviation": "002",
    "units": "002",
    "delimitation": "30/18/05/002",
    "remark": "EXISTING PU",
    "ward_id": "18221",
    "ward_name": "IWERE-ILE III",
    "local_government_id": "645",
    "local_government_name": "IWAJOWA",
    "state_id": "30",
    "state_name": "OYO",
    "location": {
      "latitude": 7.983489400000001,
      "longitude": 3.0537872,
      "viewport": {
        "northeast": {
          "lat": 7.984402529892722,
          "lng": 3.055049179892722
        },
        "southwest": {
          "lat": 7.981702870107278,
          "lng": 3.052349520107277
        }
      },
      "formatted_address": "Ilaji-Ile, Ohio Road, 202115, Iwere Ile, Nigeria",
      "google_map_url": "https://maps.google.com?q=7.983489400000001,3.0537872",
      "google_place_id": "ChIJhyJgu0hjMBARxoiJLSzEjaY"
    }
  },
  {
    "id": "356326",
    "name": "R.C.M. SCHOOL, IDIKO-ILE",
    "registration_area_id": "18221",
    "precise_location": null,
    "abbreviation": "003",
    "units": "003",
    "delimitation": "30/18/05/003",
    "remark": "EXISTING PU",
    "ward_id": "18221",
    "ward_name": "IWERE-ILE III",
    "local_government_id": "645",
    "local_government_name": "IWAJOWA",
    "state_id": "30",
    "state_name": "OYO",
    "location": {
      "latitude": 7.932659999999999,
      "longitude": 3.019291,
      "viewport": {
        "northeast": {
          "lat": 7.934029379892722,
          "lng": 3.020609129892723
        },
        "southwest": {
          "lat": 7.931329720107279,
          "lng": 3.017909470107278
        }
      },
      "formatted_address": "5, 6FV5W2M9+3P7, 202113, Idiko-ile, Nigeria",
      "google_map_url": "https://maps.google.com?q=7.932659999999999,3.019291",
      "google_place_id": "ChIJdZ3jkkR9MBARBYdSiB4usvo"
    }
  },
  {
    "id": "356327",
    "name": "MARKET SQUARE, IDIKO-ILE I",
    "registration_area_id": "18221",
    "precise_location": null,
    "abbreviation": "004",
    "units": "004",
    "delimitation": "30/18/05/004",
    "remark": "EXISTING PU",
    "ward_id": "18221",
    "ward_name": "IWERE-ILE III",
    "local_government_id": "645",
    "local_government_name": "IWAJOWA",
    "state_id": "30",
    "state_name": "OYO",
    "location": {
      "latitude": 7.983489400000001,
      "longitude": 3.0537872,
      "viewport": {
        "northeast": {
          "lat": 7.984402529892722,
          "lng": 3.055049179892722
        },
        "southwest": {
          "lat": 7.981702870107278,
          "lng": 3.052349520107277
        }
      },
      "formatted_address": "Ilaji-Ile, Ohio Road, 202115, Iwere Ile, Nigeria",
      "google_map_url": "https://maps.google.com?q=7.983489400000001,3.0537872",
      "google_place_id": "ChIJhyJgu0hjMBARxoiJLSzEjaY"
    }
  },
  {
    "id": "356328",
    "name": "MARKET SQUARE, IDIKO-ILE II",
    "registration_area_id": "18221",
    "precise_location": null,
    "abbreviation": "005",
    "units": "005",
    "delimitation": "30/18/05/005",
    "remark": "EXISTING PU",
    "ward_id": "18221",
    "ward_name": "IWERE-ILE III",
    "local_government_id": "645",
    "local_government_name": "IWAJOWA",
    "state_id": "30",
    "state_name": "OYO",
    "location": {
      "latitude": 7.983489400000001,
      "longitude": 3.0537872,
      "viewport": {
        "northeast": {
          "lat": 7.984402529892722,
          "lng": 3.055049179892722
        },
        "southwest": {
          "lat": 7.981702870107278,
          "lng": 3.052349520107277
        }
      },
      "formatted_address": "Ilaji-Ile, Ohio Road, 202115, Iwere Ile, Nigeria",
      "google_map_url": "https://maps.google.com?q=7.983489400000001,3.0537872",
      "google_place_id": "ChIJhyJgu0hjMBARxoiJLSzEjaY"
    }
  },
  {
    "id": "356329",
    "name": "ALAYIDAN, IDIKO-ILE",
    "registration_area_id": "18221",
    "precise_location": null,
    "abbreviation": "006",
    "units": "006",
    "delimitation": "30/18/05/006",
    "remark": "EXISTING PU",
    "ward_id": "18221",
    "ward_name": "IWERE-ILE III",
    "local_government_id": "645",
    "local_government_name": "IWAJOWA",
    "state_id": "30",
    "state_name": "OYO",
    "location": {
      "latitude": 7.9837986,
      "longitude": 3.05272,
      "viewport": {
        "northeast": {
          "lat": 7.985154479892723,
          "lng": 3.054062829892722
        },
        "southwest": {
          "lat": 7.982454820107279,
          "lng": 3.051363170107277
        }
      },
      "formatted_address": "X3M3+G39, 202115, Iwere Ile, Nigeria",
      "google_map_url": "https://maps.google.com?q=7.9837986,3.05272",
      "google_place_id": "ChIJy1JvX6FjMBARSFusExucOsc"
    }
  }
]