[
  {
    "id": "120705",
    "name": "OBADINA/IDOWU JUNCTION",
    "registration_area_id": "6007",
    "precise_location": null,
    "abbreviation": "001",
    "units": "001",
    "delimitation": "24/14/06/001",
    "remark": "EXISTING PU",
    "ward_id": "6007",
    "ward_name": "AGARAWU/OBADINA",
    "local_government_id": "519",
    "local_government_name": "LAGOS ISLAND",
    "state_id": "24",
    "state_name": "LAGOS",
    "location": {
      "latitude": 6.4550852,
      "longitude": 3.3943253,
      "viewport": {
        "northeast": {
          "lat": 6.456406379892722,
          "lng": 3.395701079892723
        },
        "southwest": {
          "lat": 6.453706720107278,
          "lng": 3.393001420107278
        }
      },
      "formatted_address": "F94V+2PP, Lagos Island 102273, Lagos, Nigeria",
      "google_map_url": "https://maps.google.com?q=6.4550852,3.3943253",
      "google_place_id": "ChIJfRm1rSqLOxARpfO9R8D7eVY"
    }
  },
  {
    "id": "120706",
    "name": "ELIAS/OBADINA JUNCTION",
    "registration_area_id": "6007",
    "precise_location": null,
    "abbreviation": "002",
    "units": "002",
    "delimitation": "24/14/06/002",
    "remark": "EXISTING PU",
    "ward_id": "6007",
    "ward_name": "AGARAWU/OBADINA",
    "local_government_id": "519",
    "local_government_name": "LAGOS ISLAND",
    "state_id": "24",
    "state_name": "LAGOS",
    "location": {
      "latitude": 6.4550852,
      "longitude": 3.3943253,
      "viewport": {
        "northeast": {
          "lat": 6.456406379892722,
          "lng": 3.395701079892723
        },
        "southwest": {
          "lat": 6.453706720107278,
          "lng": 3.393001420107278
        }
      },
      "formatted_address": "F94V+2PP, Lagos Island 102273, Lagos, Nigeria",
      "google_map_url": "https://maps.google.com?q=6.4550852,3.3943253",
      "google_place_id": "ChIJfRm1rSqLOxARpfO9R8D7eVY"
    }
  },
  {
    "id": "120707",
    "name": "ALH. FOLAWIYO (AFINNI)",
    "registration_area_id": "6007",
    "precise_location": null,
    "abbreviation": "003",
    "units": "003",
    "delimitation": "24/14/06/003",
    "remark": "EXISTING PU",
    "ward_id": "6007",
    "ward_name": "AGARAWU/OBADINA",
    "local_government_id": "519",
    "local_government_name": "LAGOS ISLAND",
    "state_id": "24",
    "state_name": "LAGOS",
    "location": {
      "latitude": 6.4562318,
      "longitude": 3.3882063,
      "viewport": {
        "northeast": {
          "lat": 6.457571729892721,
          "lng": 3.389529729892722
        },
        "southwest": {
          "lat": 6.454872070107277,
          "lng": 3.386830070107278
        }
      },
      "formatted_address": "F94Q+F7W, Block A & B, Corner Akanni Street, Nnamdi Azikwe St, Lagos, Nigeria",
      "google_map_url": "https://maps.google.com?q=6.4562318,3.3882063",
      "google_place_id": "ChIJtWFL6g2LOxARw2TLpLM13pM"
    }
  },
  {
    "id": "120708",
    "name": "OPEN SPACE PASHI ST.",
    "registration_area_id": "6007",
    "precise_location": null,
    "abbreviation": "004",
    "units": "004",
    "delimitation": "24/14/06/004",
    "remark": "EXISTING PU",
    "ward_id": "6007",
    "ward_name": "AGARAWU/OBADINA",
    "local_government_id": "519",
    "local_government_name": "LAGOS ISLAND",
    "state_id": "24",
    "state_name": "LAGOS",
    "location": {
      "latitude": 6.4550852,
      "longitude": 3.3943253,
      "viewport": {
        "northeast": {
          "lat": 6.456406379892722,
          "lng": 3.395701079892723
        },
        "southwest": {
          "lat": 6.453706720107278,
          "lng": 3.393001420107278
        }
      },
      "formatted_address": "F94V+2PP, Lagos Island 102273, Lagos, Nigeria",
      "google_map_url": "https://maps.google.com?q=6.4550852,3.3943253",
      "google_place_id": "ChIJfRm1rSqLOxARpfO9R8D7eVY"
    }
  },
  {
    "id": "120709",
    "name": "AROLOYA/OBEY ST.",
    "registration_area_id": "6007",
    "precise_location": null,
    "abbreviation": "005",
    "units": "005",
    "delimitation": "24/14/06/005",
    "remark": "EXISTING PU",
    "ward_id": "6007",
    "ward_name": "AGARAWU/OBADINA",
    "local_government_id": "519",
    "local_government_name": "LAGOS ISLAND",
    "state_id": "24",
    "state_name": "LAGOS",
    "location": {
      "latitude": 6.4550852,
      "longitude": 3.3943253,
      "viewport": {
        "northeast": {
          "lat": 6.456406379892722,
          "lng": 3.395701079892723
        },
        "southwest": {
          "lat": 6.453706720107278,
          "lng": 3.393001420107278
        }
      },
      "formatted_address": "F94V+2PP, Lagos Island 102273, Lagos, Nigeria",
      "google_map_url": "https://maps.google.com?q=6.4550852,3.3943253",
      "google_place_id": "ChIJfRm1rSqLOxARpfO9R8D7eVY"
    }
  },
  {
    "id": "120710",
    "name": "N/AZIKIWE/OLOGUN ST.",
    "registration_area_id": "6007",
    "precise_location": null,
    "abbreviation": "006",
    "units": "006",
    "delimitation": "24/14/06/006",
    "remark": "EXISTING PU",
    "ward_id": "6007",
    "ward_name": "AGARAWU/OBADINA",
    "local_government_id": "519",
    "local_government_name": "LAGOS ISLAND",
    "state_id": "24",
    "state_name": "LAGOS",
    "location": {
      "latitude": 6.461289,
      "longitude": 3.3871218,
      "viewport": {
        "northeast": {
          "lat": 6.462650429892722,
          "lng": 3.388491679892723
        },
        "southwest": {
          "lat": 6.459950770107278,
          "lng": 3.385792020107278
        }
      },
      "formatted_address": "F96P+GR8, Idumota, Nnamdi Azikwe St, Lagos, Nigeria",
      "google_map_url": "https://maps.google.com?q=6.461289,3.3871218",
      "google_place_id": "ChIJiby423KLOxARIu4mr_e4Atc"
    }
  },
  {
    "id": "120711",
    "name": "PALM CHURCH ST. I",
    "registration_area_id": "6007",
    "precise_location": null,
    "abbreviation": "007",
    "units": "007",
    "delimitation": "24/14/06/007",
    "remark": "EXISTING PU",
    "ward_id": "6007",
    "ward_name": "AGARAWU/OBADINA",
    "local_government_id": "519",
    "local_government_name": "LAGOS ISLAND",
    "state_id": "24",
    "state_name": "LAGOS",
    "location": {
      "latitude": 6.4564946,
      "longitude": 3.3903228,
      "viewport": {
        "northeast": {
          "lat": 6.457998500000049,
          "lng": 3.3919355
        },
        "southwest": {
          "lat": 6.455187699999949,
          "lng": 3.3885715
        }
      },
      "formatted_address": "Palm Church St, Lagos Island 102273, Lagos, Nigeria",
      "google_map_url": "https://maps.google.com?q=6.4564946,3.3903228",
      "google_place_id": "EjNQYWxtIENodXJjaCBTdCwgTGFnb3MgSXNsYW5kIDEwMjI3MywgTGFnb3MsIE5pZ2VyaWEiLiosChQKEgkjcCZwEos7EBE-ybwFcGPPUhIUChIJsylwIg6LOxARra5rwKjFYGo"
    }
  },
  {
    "id": "120712",
    "name": "PALM CHURCH ST.II",
    "registration_area_id": "6007",
    "precise_location": null,
    "abbreviation": "008",
    "units": "008",
    "delimitation": "24/14/06/008",
    "remark": "EXISTING PU",
    "ward_id": "6007",
    "ward_name": "AGARAWU/OBADINA",
    "local_government_id": "519",
    "local_government_name": "LAGOS ISLAND",
    "state_id": "24",
    "state_name": "LAGOS",
    "location": {
      "latitude": 6.4569966,
      "longitude": 3.3900416,
      "viewport": {
        "northeast": {
          "lat": 6.458310179892721,
          "lng": 3.391349829892722
        },
        "southwest": {
          "lat": 6.455610520107277,
          "lng": 3.388650170107278
        }
      },
      "formatted_address": "Lagos NG, Arolaya St, Lagos Island 101001, Aroloya, Nigeria",
      "google_map_url": "https://maps.google.com?q=6.4569966,3.3900416",
      "google_place_id": "ChIJgVtDZRKLOxARqjqTDl-I3Ss"
    }
  },
  {
    "id": "120713",
    "name": "PASHI ST. I",
    "registration_area_id": "6007",
    "precise_location": null,
    "abbreviation": "009",
    "units": "009",
    "delimitation": "24/14/06/009",
    "remark": "EXISTING PU",
    "ward_id": "6007",
    "ward_name": "AGARAWU/OBADINA",
    "local_government_id": "519",
    "local_government_name": "LAGOS ISLAND",
    "state_id": "24",
    "state_name": "LAGOS",
    "location": {
      "latitude": 6.4656588,
      "longitude": 3.3899733,
      "viewport": {
        "northeast": {
          "lat": 6.466968379892721,
          "lng": 3.391317829892722
        },
        "southwest": {
          "lat": 6.464268720107277,
          "lng": 3.388618170107278
        }
      },
      "formatted_address": "61 IGA IDUGANRAN, 10 &12, Idumagbo Ave, Lagos Island, Lagos, Nigeria",
      "google_map_url": "https://maps.google.com?q=6.4656588,3.3899733",
      "google_place_id": "ChIJtRdx422LOxAR9QyTlvnOukA"
    }
  },
  {
    "id": "120714",
    "name": "PASHI ST. II",
    "registration_area_id": "6007",
    "precise_location": null,
    "abbreviation": "010",
    "units": "010",
    "delimitation": "24/14/06/010",
    "remark": "EXISTING PU",
    "ward_id": "6007",
    "ward_name": "AGARAWU/OBADINA",
    "local_government_id": "519",
    "local_government_name": "LAGOS ISLAND",
    "state_id": "24",
    "state_name": "LAGOS",
    "location": {
      "latitude": 6.4656588,
      "longitude": 3.3899733,
      "viewport": {
        "northeast": {
          "lat": 6.466968379892721,
          "lng": 3.391317829892722
        },
        "southwest": {
          "lat": 6.464268720107277,
          "lng": 3.388618170107278
        }
      },
      "formatted_address": "61 IGA IDUGANRAN, 10 &12, Idumagbo Ave, Lagos Island, Lagos, Nigeria",
      "google_map_url": "https://maps.google.com?q=6.4656588,3.3899733",
      "google_place_id": "ChIJtRdx422LOxAR9QyTlvnOukA"
    }
  },
  {
    "id": "120715",
    "name": "OBADINA/ST JOHN JUNCTION",
    "registration_area_id": "6007",
    "precise_location": null,
    "abbreviation": "011",
    "units": "011",
    "delimitation": "24/14/06/011",
    "remark": "NEW PU",
    "ward_id": "6007",
    "ward_name": "AGARAWU/OBADINA",
    "local_government_id": "519",
    "local_government_name": "LAGOS ISLAND",
    "state_id": "24",
    "state_name": "LAGOS",
    "location": {
      "latitude": 6.4550852,
      "longitude": 3.3943253,
      "viewport": {
        "northeast": {
          "lat": 6.456406379892722,
          "lng": 3.395701079892723
        },
        "southwest": {
          "lat": 6.453706720107278,
          "lng": 3.393001420107278
        }
      },
      "formatted_address": "F94V+2PP, Lagos Island 102273, Lagos, Nigeria",
      "google_map_url": "https://maps.google.com?q=6.4550852,3.3943253",
      "google_place_id": "ChIJfRm1rSqLOxARpfO9R8D7eVY"
    }
  },
  {
    "id": "120716",
    "name": "SHAKITI/AROLOYA JUNCTION",
    "registration_area_id": "6007",
    "precise_location": null,
    "abbreviation": "012",
    "units": "012",
    "delimitation": "24/14/06/012",
    "remark": "NEW PU",
    "ward_id": "6007",
    "ward_name": "AGARAWU/OBADINA",
    "local_government_id": "519",
    "local_government_name": "LAGOS ISLAND",
    "state_id": "24",
    "state_name": "LAGOS",
    "location": {
      "latitude": 6.4583118,
      "longitude": 3.3923166,
      "viewport": {
        "northeast": {
          "lat": 6.459658329892721,
          "lng": 3.393708579892722
        },
        "southwest": {
          "lat": 6.456958670107277,
          "lng": 3.391008920107278
        }
      },
      "formatted_address": "Aroloya Junction, By Simi Johnson St, Lagos Island 102273, Lagos, Nigeria",
      "google_map_url": "https://maps.google.com?q=6.4583118,3.3923166",
      "google_place_id": "ChIJMbgQBROLOxAR0FrnXAwLGmc"
    }
  },
  {
    "id": "120717",
    "name": "SERIKI/AKANNI JUNCTION",
    "registration_area_id": "6007",
    "precise_location": null,
    "abbreviation": "013",
    "units": "013",
    "delimitation": "24/14/06/013",
    "remark": "NEW PU",
    "ward_id": "6007",
    "ward_name": "AGARAWU/OBADINA",
    "local_government_id": "519",
    "local_government_name": "LAGOS ISLAND",
    "state_id": "24",
    "state_name": "LAGOS",
    "location": {
      "latitude": 6.458213400000001,
      "longitude": 3.3887335,
      "viewport": {
        "northeast": {
          "lat": 6.459522979892721,
          "lng": 3.390066479892722
        },
        "southwest": {
          "lat": 6.456823320107277,
          "lng": 3.387366820107277
        }
      },
      "formatted_address": "32 Agarawu St, Lagos Island 102273, Lagos, Nigeria",
      "google_map_url": "https://maps.google.com?q=6.458213400000001,3.3887335",
      "google_place_id": "ChIJmfw2Ew2LOxARwWhbBDGJGRs"
    }
  },
  {
    "id": "120718",
    "name": "ALAAGBA/OBEY JUNCTION",
    "registration_area_id": "6007",
    "precise_location": null,
    "abbreviation": "014",
    "units": "014",
    "delimitation": "24/14/06/014",
    "remark": "NEW PU",
    "ward_id": "6007",
    "ward_name": "AGARAWU/OBADINA",
    "local_government_id": "519",
    "local_government_name": "LAGOS ISLAND",
    "state_id": "24",
    "state_name": "LAGOS",
    "location": {
      "latitude": 6.4550852,
      "longitude": 3.3943253,
      "viewport": {
        "northeast": {
          "lat": 6.456406379892722,
          "lng": 3.395701079892723
        },
        "southwest": {
          "lat": 6.453706720107278,
          "lng": 3.393001420107278
        }
      },
      "formatted_address": "F94V+2PP, Lagos Island 102273, Lagos, Nigeria",
      "google_map_url": "https://maps.google.com?q=6.4550852,3.3943253",
      "google_place_id": "ChIJfRm1rSqLOxARpfO9R8D7eVY"
    }
  },
  {
    "id": "120719",
    "name": "N/AZIKIWE/FOLAWIYO JUNCTION",
    "registration_area_id": "6007",
    "precise_location": null,
    "abbreviation": "015",
    "units": "015",
    "delimitation": "24/14/06/015",
    "remark": "NEW PU",
    "ward_id": "6007",
    "ward_name": "AGARAWU/OBADINA",
    "local_government_id": "519",
    "local_government_name": "LAGOS ISLAND",
    "state_id": "24",
    "state_name": "LAGOS",
    "location": {
      "latitude": 6.4386114,
      "longitude": 3.3623862,
      "viewport": {
        "northeast": {
          "lat": 6.439985129892722,
          "lng": 3.363756679892723
        },
        "southwest": {
          "lat": 6.437285470107278,
          "lng": 3.361057020107278
        }
      },
      "formatted_address": "27 Creek Road, Apapa 102272, Lagos, Nigeria",
      "google_map_url": "https://maps.google.com?q=6.4386114,3.3623862",
      "google_place_id": "ChIJke72SEyKOxARTva_qUpmpnM"
    }
  }
]