[
  {
    "id": "66522",
    "name": "COMMUNITY PRIMARY SCHOOL, ORJI I",
    "registration_area_id": "3641",
    "precise_location": null,
    "abbreviation": "001",
    "units": "001",
    "delimitation": "16/26/07/001",
    "remark": "EXISTING PU",
    "ward_id": "3641",
    "ward_name": "ORJI",
    "local_government_id": "318",
    "local_government_name": "OWERRI NORTH (ORIE URATTA)",
    "state_id": "16",
    "state_name": "IMO",
    "location": {
      "latitude": 5.5293506,
      "longitude": 7.0647657,
      "viewport": {
        "northeast": {
          "lat": 5.530732179892722,
          "lng": 7.066109479892721
        },
        "southwest": {
          "lat": 5.528032520107278,
          "lng": 7.063409820107277
        }
      },
      "formatted_address": "No.3 Ezenwa Onyewuchi Avenue Off Orji-Uratta Road, By Owaelu Junction, 460103, Owerri, Nigeria",
      "google_map_url": "https://maps.google.com?q=5.5293506,7.0647657",
      "google_place_id": "ChIJ8T4JgUVXQhAReMO5CzKjGv8"
    }
  },
  {
    "id": "66523",
    "name": "COMMUNITY PRIMARY SCHOOL, ORJI II",
    "registration_area_id": "3641",
    "precise_location": null,
    "abbreviation": "002",
    "units": "002",
    "delimitation": "16/26/07/002",
    "remark": "EXISTING PU",
    "ward_id": "3641",
    "ward_name": "ORJI",
    "local_government_id": "318",
    "local_government_name": "OWERRI NORTH (ORIE URATTA)",
    "state_id": "16",
    "state_name": "IMO",
    "location": {
      "latitude": 5.5293506,
      "longitude": 7.0647657,
      "viewport": {
        "northeast": {
          "lat": 5.530732179892722,
          "lng": 7.066109479892721
        },
        "southwest": {
          "lat": 5.528032520107278,
          "lng": 7.063409820107277
        }
      },
      "formatted_address": "No.3 Ezenwa Onyewuchi Avenue Off Orji-Uratta Road, By Owaelu Junction, 460103, Owerri, Nigeria",
      "google_map_url": "https://maps.google.com?q=5.5293506,7.0647657",
      "google_place_id": "ChIJ8T4JgUVXQhAReMO5CzKjGv8"
    }
  },
  {
    "id": "66524",
    "name": "COMMUNITY PRIMARY SCHOOL, ORJI III",
    "registration_area_id": "3641",
    "precise_location": null,
    "abbreviation": "003",
    "units": "003",
    "delimitation": "16/26/07/003",
    "remark": "EXISTING PU",
    "ward_id": "3641",
    "ward_name": "ORJI",
    "local_government_id": "318",
    "local_government_name": "OWERRI NORTH (ORIE URATTA)",
    "state_id": "16",
    "state_name": "IMO",
    "location": {
      "latitude": 5.5293506,
      "longitude": 7.0647657,
      "viewport": {
        "northeast": {
          "lat": 5.530732179892722,
          "lng": 7.066109479892721
        },
        "southwest": {
          "lat": 5.528032520107278,
          "lng": 7.063409820107277
        }
      },
      "formatted_address": "No.3 Ezenwa Onyewuchi Avenue Off Orji-Uratta Road, By Owaelu Junction, 460103, Owerri, Nigeria",
      "google_map_url": "https://maps.google.com?q=5.5293506,7.0647657",
      "google_place_id": "ChIJ8T4JgUVXQhAReMO5CzKjGv8"
    }
  },
  {
    "id": "66525",
    "name": "UMUDULA VILLAGE SQUARE",
    "registration_area_id": "3641",
    "precise_location": null,
    "abbreviation": "004",
    "units": "004",
    "delimitation": "16/26/07/004",
    "remark": "EXISTING PU",
    "ward_id": "3641",
    "ward_name": "ORJI",
    "local_government_id": "318",
    "local_government_name": "OWERRI NORTH (ORIE URATTA)",
    "state_id": "16",
    "state_name": "IMO",
    "location": {
      "latitude": 5.5247586,
      "longitude": 7.0593945,
      "viewport": {
        "northeast": {
          "lat": 5.526039779892723,
          "lng": 7.060863779892721
        },
        "southwest": {
          "lat": 5.523340120107279,
          "lng": 7.058164120107278
        }
      },
      "formatted_address": "G3F5+WP4, 460108, Orji, Nigeria",
      "google_map_url": "https://maps.google.com?q=5.5247586,7.0593945",
      "google_place_id": "ChIJZ632nFBXQhARbmhgRLuE2K8"
    }
  },
  {
    "id": "66526",
    "name": "TOWNSHIP SCHOOL ORJI I",
    "registration_area_id": "3641",
    "precise_location": null,
    "abbreviation": "005",
    "units": "005",
    "delimitation": "16/26/07/005",
    "remark": "EXISTING PU",
    "ward_id": "3641",
    "ward_name": "ORJI",
    "local_government_id": "318",
    "local_government_name": "OWERRI NORTH (ORIE URATTA)",
    "state_id": "16",
    "state_name": "IMO",
    "location": null
  },
  {
    "id": "66527",
    "name": "TOWNSHIP SCHOOL ORJI II",
    "registration_area_id": "3641",
    "precise_location": null,
    "abbreviation": "006",
    "units": "006",
    "delimitation": "16/26/07/006",
    "remark": "EXISTING PU",
    "ward_id": "3641",
    "ward_name": "ORJI",
    "local_government_id": "318",
    "local_government_name": "OWERRI NORTH (ORIE URATTA)",
    "state_id": "16",
    "state_name": "IMO",
    "location": {
      "latitude": 5.512092099999999,
      "longitude": 7.052532999999999,
      "viewport": {
        "northeast": {
          "lat": 5.513493529892721,
          "lng": 7.054023129892721
        },
        "southwest": {
          "lat": 5.510793870107277,
          "lng": 7.051323470107278
        }
      },
      "formatted_address": "G363+R2M, orji uratta, Owerri, Nigeria",
      "google_map_url": "https://maps.google.com?q=5.512092099999999,7.052532999999999",
      "google_place_id": "ChIJVVVVVSxYQhAR22ykDqtqtuk"
    }
  },
  {
    "id": "66528",
    "name": "TOWNSHIP SCHOOL ORJI II",
    "registration_area_id": "3641",
    "precise_location": null,
    "abbreviation": "007",
    "units": "007",
    "delimitation": "16/26/07/007",
    "remark": "EXISTING PU",
    "ward_id": "3641",
    "ward_name": "ORJI",
    "local_government_id": "318",
    "local_government_name": "OWERRI NORTH (ORIE URATTA)",
    "state_id": "16",
    "state_name": "IMO",
    "location": {
      "latitude": 5.512092099999999,
      "longitude": 7.052532999999999,
      "viewport": {
        "northeast": {
          "lat": 5.513493529892721,
          "lng": 7.054023129892721
        },
        "southwest": {
          "lat": 5.510793870107277,
          "lng": 7.051323470107278
        }
      },
      "formatted_address": "G363+R2M, orji uratta, Owerri, Nigeria",
      "google_map_url": "https://maps.google.com?q=5.512092099999999,7.052532999999999",
      "google_place_id": "ChIJVVVVVSxYQhAR22ykDqtqtuk"
    }
  },
  {
    "id": "66529",
    "name": "MECHANIC VILLAGE HALL ORJI I",
    "registration_area_id": "3641",
    "precise_location": null,
    "abbreviation": "008",
    "units": "008",
    "delimitation": "16/26/07/008",
    "remark": "EXISTING PU",
    "ward_id": "3641",
    "ward_name": "ORJI",
    "local_government_id": "318",
    "local_government_name": "OWERRI NORTH (ORIE URATTA)",
    "state_id": "16",
    "state_name": "IMO",
    "location": {
      "latitude": 5.5252737,
      "longitude": 7.0577334,
      "viewport": {
        "northeast": {
          "lat": 5.526565329892722,
          "lng": 7.059123479892722
        },
        "southwest": {
          "lat": 5.523865670107278,
          "lng": 7.056423820107278
        }
      },
      "formatted_address": "G3G5+435, umuodu, orji, uratta, Owerri, Nigeria",
      "google_map_url": "https://maps.google.com?q=5.5252737,7.0577334",
      "google_place_id": "ChIJLQQ6LJNXQhAR18PdeKnJK38"
    }
  },
  {
    "id": "66530",
    "name": "MECHANIC VILLAGE HALL ORJI II",
    "registration_area_id": "3641",
    "precise_location": null,
    "abbreviation": "009",
    "units": "009",
    "delimitation": "16/26/07/009",
    "remark": "EXISTING PU",
    "ward_id": "3641",
    "ward_name": "ORJI",
    "local_government_id": "318",
    "local_government_name": "OWERRI NORTH (ORIE URATTA)",
    "state_id": "16",
    "state_name": "IMO",
    "location": {
      "latitude": 5.5252737,
      "longitude": 7.0577334,
      "viewport": {
        "northeast": {
          "lat": 5.526565329892722,
          "lng": 7.059123479892722
        },
        "southwest": {
          "lat": 5.523865670107278,
          "lng": 7.056423820107278
        }
      },
      "formatted_address": "G3G5+435, umuodu, orji, uratta, Owerri, Nigeria",
      "google_map_url": "https://maps.google.com?q=5.5252737,7.0577334",
      "google_place_id": "ChIJLQQ6LJNXQhAR18PdeKnJK38"
    }
  },
  {
    "id": "66531",
    "name": "MECHANIC VILLAGE HALL ORJI III",
    "registration_area_id": "3641",
    "precise_location": null,
    "abbreviation": "010",
    "units": "010",
    "delimitation": "16/26/07/010",
    "remark": "EXISTING PU",
    "ward_id": "3641",
    "ward_name": "ORJI",
    "local_government_id": "318",
    "local_government_name": "OWERRI NORTH (ORIE URATTA)",
    "state_id": "16",
    "state_name": "IMO",
    "location": {
      "latitude": 5.5252737,
      "longitude": 7.0577334,
      "viewport": {
        "northeast": {
          "lat": 5.526565329892722,
          "lng": 7.059123479892722
        },
        "southwest": {
          "lat": 5.523865670107278,
          "lng": 7.056423820107278
        }
      },
      "formatted_address": "G3G5+435, umuodu, orji, uratta, Owerri, Nigeria",
      "google_map_url": "https://maps.google.com?q=5.5252737,7.0577334",
      "google_place_id": "ChIJLQQ6LJNXQhAR18PdeKnJK38"
    }
  },
  {
    "id": "66532",
    "name": "EBIRI UKWU ORJI I",
    "registration_area_id": "3641",
    "precise_location": null,
    "abbreviation": "011",
    "units": "011",
    "delimitation": "16/26/07/011",
    "remark": "EXISTING PU",
    "ward_id": "3641",
    "ward_name": "ORJI",
    "local_government_id": "318",
    "local_government_name": "OWERRI NORTH (ORIE URATTA)",
    "state_id": "16",
    "state_name": "IMO",
    "location": {
      "latitude": 5.5275988,
      "longitude": 7.063288999999999,
      "viewport": {
        "northeast": {
          "lat": 5.5349179,
          "lng": 7.0720196
        },
        "southwest": {
          "lat": 5.5198819,
          "lng": 7.0513344
        }
      },
      "formatted_address": "Orji, Nigeria",
      "google_map_url": "https://maps.google.com?q=5.5275988,7.063288999999999",
      "google_place_id": "ChIJ7xQ5dI9XQhARHH9_0UB25OU"
    }
  },
  {
    "id": "66533",
    "name": "EBIRI UKWU ORJI II",
    "registration_area_id": "3641",
    "precise_location": null,
    "abbreviation": "012",
    "units": "012",
    "delimitation": "16/26/07/012",
    "remark": "EXISTING PU",
    "ward_id": "3641",
    "ward_name": "ORJI",
    "local_government_id": "318",
    "local_government_name": "OWERRI NORTH (ORIE URATTA)",
    "state_id": "16",
    "state_name": "IMO",
    "location": {
      "latitude": 5.5275988,
      "longitude": 7.063288999999999,
      "viewport": {
        "northeast": {
          "lat": 5.5349179,
          "lng": 7.0720196
        },
        "southwest": {
          "lat": 5.5198819,
          "lng": 7.0513344
        }
      },
      "formatted_address": "Orji, Nigeria",
      "google_map_url": "https://maps.google.com?q=5.5275988,7.063288999999999",
      "google_place_id": "ChIJ7xQ5dI9XQhARHH9_0UB25OU"
    }
  },
  {
    "id": "66534",
    "name": "FRONT OF FIRE BRAND NURS/PRO SCH UMOUGII(BILGRIM COMM. SECONDARY SCHOOL UMUOGII)",
    "registration_area_id": "3641",
    "precise_location": null,
    "abbreviation": "013",
    "units": "013",
    "delimitation": "16/26/07/013",
    "remark": "EXISTING PU",
    "ward_id": "3641",
    "ward_name": "ORJI",
    "local_government_id": "318",
    "local_government_name": "OWERRI NORTH (ORIE URATTA)",
    "state_id": "16",
    "state_name": "IMO",
    "location": {
      "latitude": 5.4806536,
      "longitude": 7.0686835,
      "viewport": {
        "northeast": {
          "lat": 5.481899729892722,
          "lng": 7.070093729892721
        },
        "southwest": {
          "lat": 5.479200070107278,
          "lng": 7.067394070107277
        }
      },
      "formatted_address": "Egbu Rd, Ikenegbu 460281, Owerri, Nigeria",
      "google_map_url": "https://maps.google.com?q=5.4806536,7.0686835",
      "google_place_id": "ChIJVVVVVV5YQhARP6FZlOXY4xM"
    }
  },
  {
    "id": "66535",
    "name": "UMUMIKE VILLAGE SQUARE",
    "registration_area_id": "3641",
    "precise_location": null,
    "abbreviation": "014",
    "units": "014",
    "delimitation": "16/26/07/014",
    "remark": "EXISTING PU",
    "ward_id": "3641",
    "ward_name": "ORJI",
    "local_government_id": "318",
    "local_government_name": "OWERRI NORTH (ORIE URATTA)",
    "state_id": "16",
    "state_name": "IMO",
    "location": {
      "latitude": 5.5247586,
      "longitude": 7.0593945,
      "viewport": {
        "northeast": {
          "lat": 5.526039779892723,
          "lng": 7.060863779892721
        },
        "southwest": {
          "lat": 5.523340120107279,
          "lng": 7.058164120107278
        }
      },
      "formatted_address": "G3F5+WP4, 460108, Orji, Nigeria",
      "google_map_url": "https://maps.google.com?q=5.5247586,7.0593945",
      "google_place_id": "ChIJZ632nFBXQhARbmhgRLuE2K8"
    }
  },
  {
    "id": "66536",
    "name": "WORKS LAYOUT MARKET SQUARE I",
    "registration_area_id": "3641",
    "precise_location": null,
    "abbreviation": "015",
    "units": "015",
    "delimitation": "16/26/07/015",
    "remark": "EXISTING PU",
    "ward_id": "3641",
    "ward_name": "ORJI",
    "local_government_id": "318",
    "local_government_name": "OWERRI NORTH (ORIE URATTA)",
    "state_id": "16",
    "state_name": "IMO",
    "location": {
      "latitude": 5.516210399999999,
      "longitude": 7.0465372,
      "viewport": {
        "northeast": {
          "lat": 5.517606979892722,
          "lng": 7.047834229892722
        },
        "southwest": {
          "lat": 5.514907320107278,
          "lng": 7.045134570107278
        }
      },
      "formatted_address": "109 Okigwe Rd, Ugwu Orji 460108, Owerri, Nigeria",
      "google_map_url": "https://maps.google.com?q=5.516210399999999,7.0465372",
      "google_place_id": "ChIJcZk2LwNZQhARfAe5ot4MGPU"
    }
  },
  {
    "id": "66537",
    "name": "WORKS LAYOUT MARKET SQUARE II",
    "registration_area_id": "3641",
    "precise_location": null,
    "abbreviation": "016",
    "units": "016",
    "delimitation": "16/26/07/016",
    "remark": "EXISTING PU",
    "ward_id": "3641",
    "ward_name": "ORJI",
    "local_government_id": "318",
    "local_government_name": "OWERRI NORTH (ORIE URATTA)",
    "state_id": "16",
    "state_name": "IMO",
    "location": {
      "latitude": 5.5096455,
      "longitude": 7.0390904,
      "viewport": {
        "northeast": {
          "lat": 5.511005629892722,
          "lng": 7.040414079892722
        },
        "southwest": {
          "lat": 5.508305970107278,
          "lng": 7.037714420107278
        }
      },
      "formatted_address": "Ugwu Orji 460108, Owerri, Nigeria",
      "google_map_url": "https://maps.google.com?q=5.5096455,7.0390904",
      "google_place_id": "ChIJF0v6eFNZQhARIHkhkSuAk7I"
    }
  },
  {
    "id": "66538",
    "name": "NKWO ORJI MARKET SQUARE",
    "registration_area_id": "3641",
    "precise_location": null,
    "abbreviation": "017",
    "units": "017",
    "delimitation": "16/26/07/017",
    "remark": "EXISTING PU",
    "ward_id": "3641",
    "ward_name": "ORJI",
    "local_government_id": "318",
    "local_government_name": "OWERRI NORTH (ORIE URATTA)",
    "state_id": "16",
    "state_name": "IMO",
    "location": null
  },
  {
    "id": "66539",
    "name": "ORJI YOUTH CULTURAL HALL",
    "registration_area_id": "3641",
    "precise_location": null,
    "abbreviation": "018",
    "units": "018",
    "delimitation": "16/26/07/018",
    "remark": "EXISTING PU",
    "ward_id": "3641",
    "ward_name": "ORJI",
    "local_government_id": "318",
    "local_government_name": "OWERRI NORTH (ORIE URATTA)",
    "state_id": "16",
    "state_name": "IMO",
    "location": {
      "latitude": 5.5252737,
      "longitude": 7.0577334,
      "viewport": {
        "northeast": {
          "lat": 5.526565329892722,
          "lng": 7.059123479892722
        },
        "southwest": {
          "lat": 5.523865670107278,
          "lng": 7.056423820107278
        }
      },
      "formatted_address": "G3G5+435, umuodu, orji, uratta, Owerri, Nigeria",
      "google_map_url": "https://maps.google.com?q=5.5252737,7.0577334",
      "google_place_id": "ChIJLQQ6LJNXQhAR18PdeKnJK38"
    }
  },
  {
    "id": "66540",
    "name": "UMUASONYE VILLAGE HALL",
    "registration_area_id": "3641",
    "precise_location": null,
    "abbreviation": "019",
    "units": "019",
    "delimitation": "16/26/07/019",
    "remark": "EXISTING PU",
    "ward_id": "3641",
    "ward_name": "ORJI",
    "local_government_id": "318",
    "local_government_name": "OWERRI NORTH (ORIE URATTA)",
    "state_id": "16",
    "state_name": "IMO",
    "location": {
      "latitude": 5.5252737,
      "longitude": 7.0577334,
      "viewport": {
        "northeast": {
          "lat": 5.526565329892722,
          "lng": 7.059123479892722
        },
        "southwest": {
          "lat": 5.523865670107278,
          "lng": 7.056423820107278
        }
      },
      "formatted_address": "G3G5+435, umuodu, orji, uratta, Owerri, Nigeria",
      "google_map_url": "https://maps.google.com?q=5.5252737,7.0577334",
      "google_place_id": "ChIJLQQ6LJNXQhAR18PdeKnJK38"
    }
  },
  {
    "id": "66541",
    "name": "UMUKEHI VILL SQ",
    "registration_area_id": "3641",
    "precise_location": null,
    "abbreviation": "020",
    "units": "020",
    "delimitation": "16/26/07/020",
    "remark": "NEW PU",
    "ward_id": "3641",
    "ward_name": "ORJI",
    "local_government_id": "318",
    "local_government_name": "OWERRI NORTH (ORIE URATTA)",
    "state_id": "16",
    "state_name": "IMO",
    "location": {
      "latitude": 5.5274469,
      "longitude": 7.0545089,
      "viewport": {
        "northeast": {
          "lat": 5.528816879892722,
          "lng": 7.055841979892722
        },
        "southwest": {
          "lat": 5.526117220107278,
          "lng": 7.053142320107278
        }
      },
      "formatted_address": "G3G3+XRC, 460108, Orji, Nigeria",
      "google_map_url": "https://maps.google.com?q=5.5274469,7.0545089",
      "google_place_id": "ChIJsX3OhFNXQhARIl2uu_qj2Ho"
    }
  },
  {
    "id": "66542",
    "name": "7UP DEPOT. ORJI",
    "registration_area_id": "3641",
    "precise_location": null,
    "abbreviation": "021",
    "units": "021",
    "delimitation": "16/26/07/021",
    "remark": "NEW PU",
    "ward_id": "3641",
    "ward_name": "ORJI",
    "local_government_id": "318",
    "local_government_name": "OWERRI NORTH (ORIE URATTA)",
    "state_id": "16",
    "state_name": "IMO",
    "location": null
  },
  {
    "id": "66543",
    "name": "HEALTH CENTRE UMUDULA",
    "registration_area_id": "3641",
    "precise_location": null,
    "abbreviation": "022",
    "units": "022",
    "delimitation": "16/26/07/022",
    "remark": "NEW PU",
    "ward_id": "3641",
    "ward_name": "ORJI",
    "local_government_id": "318",
    "local_government_name": "OWERRI NORTH (ORIE URATTA)",
    "state_id": "16",
    "state_name": "IMO",
    "location": {
      "latitude": 5.4803294,
      "longitude": 7.0339512,
      "viewport": {
        "northeast": {
          "lat": 5.481654129892722,
          "lng": 7.035282179892723
        },
        "southwest": {
          "lat": 5.478954470107278,
          "lng": 7.032582520107279
        }
      },
      "formatted_address": "No. 1 Onumiri Street, 460281, Owerri, Nigeria",
      "google_map_url": "https://maps.google.com?q=5.4803294,7.0339512",
      "google_place_id": "ChIJEROMLadZQhARnUoN_1yY5yk"
    }
  },
  {
    "id": "66544",
    "name": "OBINIHU VILL SQ",
    "registration_area_id": "3641",
    "precise_location": null,
    "abbreviation": "023",
    "units": "023",
    "delimitation": "16/26/07/023",
    "remark": "NEW PU",
    "ward_id": "3641",
    "ward_name": "ORJI",
    "local_government_id": "318",
    "local_government_name": "OWERRI NORTH (ORIE URATTA)",
    "state_id": "16",
    "state_name": "IMO",
    "location": {
      "latitude": 5.488583999999999,
      "longitude": 7.046094399999999,
      "viewport": {
        "northeast": {
          "lat": 5.489993729892721,
          "lng": 7.047425129892721
        },
        "southwest": {
          "lat": 5.487294070107278,
          "lng": 7.044725470107277
        }
      },
      "formatted_address": "Plot 137, Umuorii Rainbow Estate, Egbu/Uratta Layout, Nigeria",
      "google_map_url": "https://maps.google.com?q=5.488583999999999,7.046094399999999",
      "google_place_id": "ChIJ8ZAOiq1ZQhARnchKKMPVaDY"
    }
  },
  {
    "id": "66545",
    "name": "COMP. SEC. SCH. ORJI",
    "registration_area_id": "3641",
    "precise_location": null,
    "abbreviation": "024",
    "units": "024",
    "delimitation": "16/26/07/024",
    "remark": "NEW PU",
    "ward_id": "3641",
    "ward_name": "ORJI",
    "local_government_id": "318",
    "local_government_name": "OWERRI NORTH (ORIE URATTA)",
    "state_id": "16",
    "state_name": "IMO",
    "location": {
      "latitude": 5.512092099999999,
      "longitude": 7.052532999999999,
      "viewport": {
        "northeast": {
          "lat": 5.513493529892721,
          "lng": 7.054023129892721
        },
        "southwest": {
          "lat": 5.510793870107277,
          "lng": 7.051323470107278
        }
      },
      "formatted_address": "G363+R2M, orji uratta, Owerri, Nigeria",
      "google_map_url": "https://maps.google.com?q=5.512092099999999,7.052532999999999",
      "google_place_id": "ChIJVVVVVSxYQhAR22ykDqtqtuk"
    }
  },
  {
    "id": "66546",
    "name": "OBAUMAHU VILL SQ",
    "registration_area_id": "3641",
    "precise_location": null,
    "abbreviation": "025",
    "units": "025",
    "delimitation": "16/26/07/025",
    "remark": "NEW PU",
    "ward_id": "3641",
    "ward_name": "ORJI",
    "local_government_id": "318",
    "local_government_name": "OWERRI NORTH (ORIE URATTA)",
    "state_id": "16",
    "state_name": "IMO",
    "location": {
      "latitude": 5.5232534,
      "longitude": 7.0740915,
      "viewport": {
        "northeast": {
          "lat": 5.524540729892721,
          "lng": 7.075384979892721
        },
        "southwest": {
          "lat": 5.521841070107278,
          "lng": 7.072685320107277
        }
      },
      "formatted_address": "Owaelu Uratta North, LGA, Owerri, Nigeria",
      "google_map_url": "https://maps.google.com?q=5.5232534,7.0740915",
      "google_place_id": "ChIJ0ZlIX_RXQhARKS33ZhKmQ2M"
    }
  },
  {
    "id": "66547",
    "name": "OKPO-OBA JUNCTION",
    "registration_area_id": "3641",
    "precise_location": null,
    "abbreviation": "026",
    "units": "026",
    "delimitation": "16/26/07/026",
    "remark": "NEW PU",
    "ward_id": "3641",
    "ward_name": "ORJI",
    "local_government_id": "318",
    "local_government_name": "OWERRI NORTH (ORIE URATTA)",
    "state_id": "16",
    "state_name": "IMO",
    "location": {
      "latitude": 5.5247586,
      "longitude": 7.0593945,
      "viewport": {
        "northeast": {
          "lat": 5.526039779892723,
          "lng": 7.060863779892721
        },
        "southwest": {
          "lat": 5.523340120107279,
          "lng": 7.058164120107278
        }
      },
      "formatted_address": "G3F5+WP4, 460108, Orji, Nigeria",
      "google_map_url": "https://maps.google.com?q=5.5247586,7.0593945",
      "google_place_id": "ChIJZ632nFBXQhARbmhgRLuE2K8"
    }
  },
  {
    "id": "66548",
    "name": "APITI JUNCTION ORJI",
    "registration_area_id": "3641",
    "precise_location": null,
    "abbreviation": "027",
    "units": "027",
    "delimitation": "16/26/07/027",
    "remark": "NEW PU",
    "ward_id": "3641",
    "ward_name": "ORJI",
    "local_government_id": "318",
    "local_government_name": "OWERRI NORTH (ORIE URATTA)",
    "state_id": "16",
    "state_name": "IMO",
    "location": {
      "latitude": 5.5275988,
      "longitude": 7.063288999999999,
      "viewport": {
        "northeast": {
          "lat": 5.5349179,
          "lng": 7.0720196
        },
        "southwest": {
          "lat": 5.5198819,
          "lng": 7.0513344
        }
      },
      "formatted_address": "Orji, Nigeria",
      "google_map_url": "https://maps.google.com?q=5.5275988,7.063288999999999",
      "google_place_id": "ChIJ7xQ5dI9XQhARHH9_0UB25OU"
    }
  },
  {
    "id": "66549",
    "name": "AMA-WIRE SQ, ORJI",
    "registration_area_id": "3641",
    "precise_location": null,
    "abbreviation": "028",
    "units": "028",
    "delimitation": "16/26/07/028",
    "remark": "NEW PU",
    "ward_id": "3641",
    "ward_name": "ORJI",
    "local_government_id": "318",
    "local_government_name": "OWERRI NORTH (ORIE URATTA)",
    "state_id": "16",
    "state_name": "IMO",
    "location": {
      "latitude": 5.516210399999999,
      "longitude": 7.0465372,
      "viewport": {
        "northeast": {
          "lat": 5.517606979892722,
          "lng": 7.047834229892722
        },
        "southwest": {
          "lat": 5.514907320107278,
          "lng": 7.045134570107278
        }
      },
      "formatted_address": "109 Okigwe Rd, Ugwu Orji 460108, Owerri, Nigeria",
      "google_map_url": "https://maps.google.com?q=5.516210399999999,7.0465372",
      "google_place_id": "ChIJcZk2LwNZQhARfAe5ot4MGPU"
    }
  },
  {
    "id": "66550",
    "name": "FRONT OF CENIMA HALL",
    "registration_area_id": "3641",
    "precise_location": null,
    "abbreviation": "029",
    "units": "029",
    "delimitation": "16/26/07/029",
    "remark": "NEW PU",
    "ward_id": "3641",
    "ward_name": "ORJI",
    "local_government_id": "318",
    "local_government_name": "OWERRI NORTH (ORIE URATTA)",
    "state_id": "16",
    "state_name": "IMO",
    "location": {
      "latitude": 5.5247586,
      "longitude": 7.0593945,
      "viewport": {
        "northeast": {
          "lat": 5.526039779892723,
          "lng": 7.060863779892721
        },
        "southwest": {
          "lat": 5.523340120107279,
          "lng": 7.058164120107278
        }
      },
      "formatted_address": "G3F5+WP4, 460108, Orji, Nigeria",
      "google_map_url": "https://maps.google.com?q=5.5247586,7.0593945",
      "google_place_id": "ChIJZ632nFBXQhARbmhgRLuE2K8"
    }
  },
  {
    "id": "66551",
    "name": "OBILOBI UMUIMEKA HALL",
    "registration_area_id": "3641",
    "precise_location": null,
    "abbreviation": "030",
    "units": "030",
    "delimitation": "16/26/07/030",
    "remark": "NEW PU",
    "ward_id": "3641",
    "ward_name": "ORJI",
    "local_government_id": "318",
    "local_government_name": "OWERRI NORTH (ORIE URATTA)",
    "state_id": "16",
    "state_name": "IMO",
    "location": {
      "latitude": 5.5247586,
      "longitude": 7.0593945,
      "viewport": {
        "northeast": {
          "lat": 5.526039779892723,
          "lng": 7.060863779892721
        },
        "southwest": {
          "lat": 5.523340120107279,
          "lng": 7.058164120107278
        }
      },
      "formatted_address": "G3F5+WP4, 460108, Orji, Nigeria",
      "google_map_url": "https://maps.google.com?q=5.5247586,7.0593945",
      "google_place_id": "ChIJZ632nFBXQhARbmhgRLuE2K8"
    }
  },
  {
    "id": "66552",
    "name": "BESIDE BISHOP'S COURT",
    "registration_area_id": "3641",
    "precise_location": null,
    "abbreviation": "031",
    "units": "031",
    "delimitation": "16/26/07/031",
    "remark": "NEW PU",
    "ward_id": "3641",
    "ward_name": "ORJI",
    "local_government_id": "318",
    "local_government_name": "OWERRI NORTH (ORIE URATTA)",
    "state_id": "16",
    "state_name": "IMO",
    "location": {
      "latitude": 5.5088389,
      "longitude": 7.0486822,
      "viewport": {
        "northeast": {
          "lat": 5.510188729892722,
          "lng": 7.050032029892722
        },
        "southwest": {
          "lat": 5.507489070107278,
          "lng": 7.047332370107278
        }
      },
      "formatted_address": "Number 1, Mission Crescent, Off Samek Rd, Owerri, Nigeria",
      "google_map_url": "https://maps.google.com?q=5.5088389,7.0486822",
      "google_place_id": "ChIJwS0UPO9ZQhARjuin1DKSyDE"
    }
  },
  {
    "id": "66553",
    "name": "UHU-ORJI SQ",
    "registration_area_id": "3641",
    "precise_location": null,
    "abbreviation": "032",
    "units": "032",
    "delimitation": "16/26/07/032",
    "remark": "NEW PU",
    "ward_id": "3641",
    "ward_name": "ORJI",
    "local_government_id": "318",
    "local_government_name": "OWERRI NORTH (ORIE URATTA)",
    "state_id": "16",
    "state_name": "IMO",
    "location": {
      "latitude": 5.5247586,
      "longitude": 7.0593945,
      "viewport": {
        "northeast": {
          "lat": 5.526039779892723,
          "lng": 7.060863779892721
        },
        "southwest": {
          "lat": 5.523340120107279,
          "lng": 7.058164120107278
        }
      },
      "formatted_address": "G3F5+WP4, 460108, Orji, Nigeria",
      "google_map_url": "https://maps.google.com?q=5.5247586,7.0593945",
      "google_place_id": "ChIJZ632nFBXQhARbmhgRLuE2K8"
    }
  },
  {
    "id": "66554",
    "name": "NWAORUYO VILL. SQ",
    "registration_area_id": "3641",
    "precise_location": null,
    "abbreviation": "033",
    "units": "033",
    "delimitation": "16/26/07/033",
    "remark": "NEW PU",
    "ward_id": "3641",
    "ward_name": "ORJI",
    "local_government_id": "318",
    "local_government_name": "OWERRI NORTH (ORIE URATTA)",
    "state_id": "16",
    "state_name": "IMO",
    "location": {
      "latitude": 5.5232534,
      "longitude": 7.0740915,
      "viewport": {
        "northeast": {
          "lat": 5.524540729892721,
          "lng": 7.075384979892721
        },
        "southwest": {
          "lat": 5.521841070107278,
          "lng": 7.072685320107277
        }
      },
      "formatted_address": "Owaelu Uratta North, LGA, Owerri, Nigeria",
      "google_map_url": "https://maps.google.com?q=5.5232534,7.0740915",
      "google_place_id": "ChIJ0ZlIX_RXQhARKS33ZhKmQ2M"
    }
  },
  {
    "id": "66555",
    "name": "UKWU-UKWA SQ",
    "registration_area_id": "3641",
    "precise_location": null,
    "abbreviation": "034",
    "units": "034",
    "delimitation": "16/26/07/034",
    "remark": "NEW PU",
    "ward_id": "3641",
    "ward_name": "ORJI",
    "local_government_id": "318",
    "local_government_name": "OWERRI NORTH (ORIE URATTA)",
    "state_id": "16",
    "state_name": "IMO",
    "location": {
      "latitude": 5.516210399999999,
      "longitude": 7.0465372,
      "viewport": {
        "northeast": {
          "lat": 5.517606979892722,
          "lng": 7.047834229892722
        },
        "southwest": {
          "lat": 5.514907320107278,
          "lng": 7.045134570107278
        }
      },
      "formatted_address": "109 Okigwe Rd, Ugwu Orji 460108, Owerri, Nigeria",
      "google_map_url": "https://maps.google.com?q=5.516210399999999,7.0465372",
      "google_place_id": "ChIJcZk2LwNZQhARfAe5ot4MGPU"
    }
  },
  {
    "id": "66556",
    "name": "FRONT OF IMMACULATE HEART CATHOLIC CHURCH",
    "registration_area_id": "3641",
    "precise_location": null,
    "abbreviation": "035",
    "units": "035",
    "delimitation": "16/26/07/035",
    "remark": "NEW PU",
    "ward_id": "3641",
    "ward_name": "ORJI",
    "local_government_id": "318",
    "local_government_name": "OWERRI NORTH (ORIE URATTA)",
    "state_id": "16",
    "state_name": "IMO",
    "location": {
      "latitude": 5.5267027,
      "longitude": 7.0614184,
      "viewport": {
        "northeast": {
          "lat": 5.527867329892721,
          "lng": 7.062623579892723
        },
        "southwest": {
          "lat": 5.525167670107277,
          "lng": 7.059923920107279
        }
      },
      "formatted_address": "G3G6+MHF, 460108, Orji, Nigeria",
      "google_map_url": "https://maps.google.com?q=5.5267027,7.0614184",
      "google_place_id": "ChIJA14jb49XQhARvC03b3K8Fe8"
    }
  }
]