[
  {
    "id": "108635",
    "name": "LGEA SCHOOL INABE, INABE/EFOJA",
    "registration_area_id": "5618",
    "precise_location": null,
    "abbreviation": "001",
    "units": "001",
    "delimitation": "22/18/10/001",
    "remark": "EXISTING PU",
    "ward_id": "5618",
    "ward_name": "OLAMABORO V",
    "local_government_id": "486",
    "local_government_name": "OLAMABORO",
    "state_id": "22",
    "state_name": "KOGI",
    "location": {
      "latitude": 7.178359,
      "longitude": 7.5771629,
      "viewport": {
        "northeast": {
          "lat": 7.180106249999999,
          "lng": 7.5800429
        },
        "southwest": {
          "lat": 7.173117250000001,
          "lng": 7.576202900000004
        }
      },
      "formatted_address": "5HHG+8VV, 270107, Okpo, Nigeria",
      "google_map_url": "https://maps.google.com?q=7.178359,7.5771629",
      "google_place_id": "ChIJWdlnsxklRRARpSVDTaUl-cU"
    }
  },
  {
    "id": "108636",
    "name": "LGEA SCHOOL INELE, UGO I & II",
    "registration_area_id": "5618",
    "precise_location": null,
    "abbreviation": "002",
    "units": "002",
    "delimitation": "22/18/10/002",
    "remark": "EXISTING PU",
    "ward_id": "5618",
    "ward_name": "OLAMABORO V",
    "local_government_id": "486",
    "local_government_name": "OLAMABORO",
    "state_id": "22",
    "state_name": "KOGI",
    "location": {
      "latitude": 43.4691201,
      "longitude": -80.5756985,
      "viewport": {
        "northeast": {
          "lat": 43.47033122989272,
          "lng": -80.57479927010728
        },
        "southwest": {
          "lat": 43.46763157010728,
          "lng": -80.57749892989273
        }
      },
      "formatted_address": "460 Brentcliffe Dr, Waterloo, ON N2T 2R5, Canada",
      "google_map_url": "https://maps.google.com?q=43.4691201,-80.5756985",
      "google_place_id": "ChIJ2VgR-M_2K4gRtoVGxfwKPrI"
    }
  },
  {
    "id": "108637",
    "name": "UNOBE MKT. SQUARE, UNOBE",
    "registration_area_id": "5618",
    "precise_location": null,
    "abbreviation": "003",
    "units": "003",
    "delimitation": "22/18/10/003",
    "remark": "EXISTING PU",
    "ward_id": "5618",
    "ward_name": "OLAMABORO V",
    "local_government_id": "486",
    "local_government_name": "OLAMABORO",
    "state_id": "22",
    "state_name": "KOGI",
    "location": {
      "latitude": 7.222232199999999,
      "longitude": 7.5650285,
      "viewport": {
        "northeast": {
          "lat": 7.223752279892722,
          "lng": 7.566309229892721
        },
        "southwest": {
          "lat": 7.221052620107278,
          "lng": 7.563609570107277
        }
      },
      "formatted_address": "6HC8+V2R, 270107, Okpo, Nigeria",
      "google_map_url": "https://maps.google.com?q=7.222232199999999,7.5650285",
      "google_place_id": "ChIJQY-RsSE7RRARZYY5z66CB-I"
    }
  },
  {
    "id": "108638",
    "name": "LGEA SCHOOL UGOJOUALE, UGOJO UBALU",
    "registration_area_id": "5618",
    "precise_location": null,
    "abbreviation": "004",
    "units": "004",
    "delimitation": "22/18/10/004",
    "remark": "EXISTING PU",
    "ward_id": "5618",
    "ward_name": "OLAMABORO V",
    "local_government_id": "486",
    "local_government_name": "OLAMABORO",
    "state_id": "22",
    "state_name": "KOGI",
    "location": {
      "latitude": 7.178359,
      "longitude": 7.5771629,
      "viewport": {
        "northeast": {
          "lat": 7.180106249999999,
          "lng": 7.5800429
        },
        "southwest": {
          "lat": 7.173117250000001,
          "lng": 7.576202900000004
        }
      },
      "formatted_address": "5HHG+8VV, 270107, Okpo, Nigeria",
      "google_map_url": "https://maps.google.com?q=7.178359,7.5771629",
      "google_place_id": "ChIJWdlnsxklRRARpSVDTaUl-cU"
    }
  },
  {
    "id": "108639",
    "name": "OPEN SPACE, UKPOKIDO",
    "registration_area_id": "5618",
    "precise_location": null,
    "abbreviation": "005",
    "units": "005",
    "delimitation": "22/18/10/005",
    "remark": "EXISTING PU",
    "ward_id": "5618",
    "ward_name": "OLAMABORO V",
    "local_government_id": "486",
    "local_government_name": "OLAMABORO",
    "state_id": "22",
    "state_name": "KOGI",
    "location": {
      "latitude": 7.222232199999999,
      "longitude": 7.5650285,
      "viewport": {
        "northeast": {
          "lat": 7.223752279892722,
          "lng": 7.566309229892721
        },
        "southwest": {
          "lat": 7.221052620107278,
          "lng": 7.563609570107277
        }
      },
      "formatted_address": "6HC8+V2R, 270107, Okpo, Nigeria",
      "google_map_url": "https://maps.google.com?q=7.222232199999999,7.5650285",
      "google_place_id": "ChIJQY-RsSE7RRARZYY5z66CB-I"
    }
  },
  {
    "id": "108640",
    "name": "OPEN SPACE, UJUGBUDU",
    "registration_area_id": "5618",
    "precise_location": null,
    "abbreviation": "006",
    "units": "006",
    "delimitation": "22/18/10/006",
    "remark": "EXISTING PU",
    "ward_id": "5618",
    "ward_name": "OLAMABORO V",
    "local_government_id": "486",
    "local_government_name": "OLAMABORO",
    "state_id": "22",
    "state_name": "KOGI",
    "location": {
      "latitude": 7.222232199999999,
      "longitude": 7.5650285,
      "viewport": {
        "northeast": {
          "lat": 7.223752279892722,
          "lng": 7.566309229892721
        },
        "southwest": {
          "lat": 7.221052620107278,
          "lng": 7.563609570107277
        }
      },
      "formatted_address": "6HC8+V2R, 270107, Okpo, Nigeria",
      "google_map_url": "https://maps.google.com?q=7.222232199999999,7.5650285",
      "google_place_id": "ChIJQY-RsSE7RRARZYY5z66CB-I"
    }
  },
  {
    "id": "108641",
    "name": "INELE UGO MARKET SQUARE",
    "registration_area_id": "5618",
    "precise_location": null,
    "abbreviation": "007",
    "units": "007",
    "delimitation": "22/18/10/007",
    "remark": "NEW PU",
    "ward_id": "5618",
    "ward_name": "OLAMABORO V",
    "local_government_id": "486",
    "local_government_name": "OLAMABORO",
    "state_id": "22",
    "state_name": "KOGI",
    "location": {
      "latitude": 7.2650282,
      "longitude": 7.4164523,
      "viewport": {
        "northeast": {
          "lat": 7.266725829892722,
          "lng": 7.418138129892723
        },
        "southwest": {
          "lat": 7.264026170107278,
          "lng": 7.415438470107279
        }
      },
      "formatted_address": "7C88+2H8, 270107, Anambra, Nigeria",
      "google_map_url": "https://maps.google.com?q=7.2650282,7.4164523",
      "google_place_id": "ChIJocqgoEAWRRAR5JdaPkWDJAQ"
    }
  }
]