[
  {
    "id": "10656",
    "name": "VILLAGE SQUARE, IKOT OBONG",
    "registration_area_id": "606",
    "precise_location": null,
    "abbreviation": "001",
    "units": "001",
    "delimitation": "03/19/05/001",
    "remark": "EXISTING PU",
    "ward_id": "606",
    "ward_name": "EASTERN NSIT V",
    "local_government_id": "57",
    "local_government_name": "NSIT ATAI",
    "state_id": "3",
    "state_name": "AKWA IBOM",
    "location": {
      "latitude": 4.8701148,
      "longitude": 8.0606899,
      "viewport": {
        "northeast": {
          "lat": 4.871451779892722,
          "lng": 8.062015429892721
        },
        "southwest": {
          "lat": 4.868752120107279,
          "lng": 8.059315770107277
        }
      },
      "formatted_address": "V3C6+27W, 521108, Ikot Akpabio, Nigeria",
      "google_map_url": "https://maps.google.com?q=4.8701148,8.0606899",
      "google_place_id": "ChIJX2dXm4zzZxAROOWQb9iqkvY"
    }
  },
  {
    "id": "10657",
    "name": "TOWN HALL, IKOT OBONG",
    "registration_area_id": "606",
    "precise_location": null,
    "abbreviation": "002",
    "units": "002",
    "delimitation": "03/19/05/002",
    "remark": "EXISTING PU",
    "ward_id": "606",
    "ward_name": "EASTERN NSIT V",
    "local_government_id": "57",
    "local_government_name": "NSIT ATAI",
    "state_id": "3",
    "state_name": "AKWA IBOM",
    "location": {
      "latitude": 4.8701148,
      "longitude": 8.0606899,
      "viewport": {
        "northeast": {
          "lat": 4.871451779892722,
          "lng": 8.062015429892721
        },
        "southwest": {
          "lat": 4.868752120107279,
          "lng": 8.059315770107277
        }
      },
      "formatted_address": "V3C6+27W, 521108, Ikot Akpabio, Nigeria",
      "google_map_url": "https://maps.google.com?q=4.8701148,8.0606899",
      "google_place_id": "ChIJX2dXm4zzZxAROOWQb9iqkvY"
    }
  },
  {
    "id": "10658",
    "name": "PRY SCH, IKOT ITIE UDUNG",
    "registration_area_id": "606",
    "precise_location": null,
    "abbreviation": "003",
    "units": "003",
    "delimitation": "03/19/05/003",
    "remark": "EXISTING PU",
    "ward_id": "606",
    "ward_name": "EASTERN NSIT V",
    "local_government_id": "57",
    "local_government_name": "NSIT ATAI",
    "state_id": "3",
    "state_name": "AKWA IBOM",
    "location": {
      "latitude": 4.8701148,
      "longitude": 8.0606899,
      "viewport": {
        "northeast": {
          "lat": 4.871451779892722,
          "lng": 8.062015429892721
        },
        "southwest": {
          "lat": 4.868752120107279,
          "lng": 8.059315770107277
        }
      },
      "formatted_address": "V3C6+27W, 521108, Ikot Akpabio, Nigeria",
      "google_map_url": "https://maps.google.com?q=4.8701148,8.0606899",
      "google_place_id": "ChIJX2dXm4zzZxAROOWQb9iqkvY"
    }
  },
  {
    "id": "10659",
    "name": "VILLAGE SQUARE, IKOT ITIE UDUNG",
    "registration_area_id": "606",
    "precise_location": null,
    "abbreviation": "004",
    "units": "004",
    "delimitation": "03/19/05/004",
    "remark": "EXISTING PU",
    "ward_id": "606",
    "ward_name": "EASTERN NSIT V",
    "local_government_id": "57",
    "local_government_name": "NSIT ATAI",
    "state_id": "3",
    "state_name": "AKWA IBOM",
    "location": {
      "latitude": 4.8701148,
      "longitude": 8.0606899,
      "viewport": {
        "northeast": {
          "lat": 4.871451779892722,
          "lng": 8.062015429892721
        },
        "southwest": {
          "lat": 4.868752120107279,
          "lng": 8.059315770107277
        }
      },
      "formatted_address": "V3C6+27W, 521108, Ikot Akpabio, Nigeria",
      "google_map_url": "https://maps.google.com?q=4.8701148,8.0606899",
      "google_place_id": "ChIJX2dXm4zzZxAROOWQb9iqkvY"
    }
  },
  {
    "id": "10660",
    "name": "VILLAGE SQUARE, IKOT IDIAKPA IKOT NTUEN. I",
    "registration_area_id": "606",
    "precise_location": null,
    "abbreviation": "005",
    "units": "005",
    "delimitation": "03/19/05/005",
    "remark": "EXISTING PU",
    "ward_id": "606",
    "ward_name": "EASTERN NSIT V",
    "local_government_id": "57",
    "local_government_name": "NSIT ATAI",
    "state_id": "3",
    "state_name": "AKWA IBOM",
    "location": {
      "latitude": 5.0206399,
      "longitude": 7.9387279,
      "viewport": {
        "northeast": {
          "lat": 5.022041229892722,
          "lng": 7.940047729892719
        },
        "southwest": {
          "lat": 5.019341570107278,
          "lng": 7.937348070107276
        }
      },
      "formatted_address": "2WCQ+6GG, Udo Inyang Close, Ewet Housing Estate 520102, Uyo, Nigeria",
      "google_map_url": "https://maps.google.com?q=5.0206399,7.9387279",
      "google_place_id": "ChIJZSGTYBVXXRARAbcCUdh3t0M"
    }
  },
  {
    "id": "10661",
    "name": "VILLAGE SQUARE, IKOT IDIAKPA IKOT NTUEN. II",
    "registration_area_id": "606",
    "precise_location": null,
    "abbreviation": "006",
    "units": "006",
    "delimitation": "03/19/05/006",
    "remark": "EXISTING PU",
    "ward_id": "606",
    "ward_name": "EASTERN NSIT V",
    "local_government_id": "57",
    "local_government_name": "NSIT ATAI",
    "state_id": "3",
    "state_name": "AKWA IBOM",
    "location": {
      "latitude": 4.8701148,
      "longitude": 8.0606899,
      "viewport": {
        "northeast": {
          "lat": 4.871451779892722,
          "lng": 8.062015429892721
        },
        "southwest": {
          "lat": 4.868752120107279,
          "lng": 8.059315770107277
        }
      },
      "formatted_address": "V3C6+27W, 521108, Ikot Akpabio, Nigeria",
      "google_map_url": "https://maps.google.com?q=4.8701148,8.0606899",
      "google_place_id": "ChIJX2dXm4zzZxAROOWQb9iqkvY"
    }
  },
  {
    "id": "10662",
    "name": "SEC SCH, IKOT ASUA",
    "registration_area_id": "606",
    "precise_location": null,
    "abbreviation": "007",
    "units": "007",
    "delimitation": "03/19/05/007",
    "remark": "EXISTING PU",
    "ward_id": "606",
    "ward_name": "EASTERN NSIT V",
    "local_government_id": "57",
    "local_government_name": "NSIT ATAI",
    "state_id": "3",
    "state_name": "AKWA IBOM",
    "location": {
      "latitude": 4.8601245,
      "longitude": 8.057663999999999,
      "viewport": {
        "northeast": {
          "lat": 4.861492629892721,
          "lng": 8.058903129892721
        },
        "southwest": {
          "lat": 4.858792970107277,
          "lng": 8.056203470107278
        }
      },
      "formatted_address": "V365+23V, 521108, Ikot Asua, Nigeria",
      "google_map_url": "https://maps.google.com?q=4.8601245,8.057663999999999",
      "google_place_id": "ChIJW7ssmkLzZxAR3-ZFbdVR_bA"
    }
  },
  {
    "id": "10663",
    "name": "PRY SCH, IKOT AKPABIO",
    "registration_area_id": "606",
    "precise_location": null,
    "abbreviation": "008",
    "units": "008",
    "delimitation": "03/19/05/008",
    "remark": "EXISTING PU",
    "ward_id": "606",
    "ward_name": "EASTERN NSIT V",
    "local_government_id": "57",
    "local_government_name": "NSIT ATAI",
    "state_id": "3",
    "state_name": "AKWA IBOM",
    "location": {
      "latitude": 4.8601245,
      "longitude": 8.057663999999999,
      "viewport": {
        "northeast": {
          "lat": 4.861492629892721,
          "lng": 8.058903129892721
        },
        "southwest": {
          "lat": 4.858792970107277,
          "lng": 8.056203470107278
        }
      },
      "formatted_address": "V365+23V, 521108, Ikot Asua, Nigeria",
      "google_map_url": "https://maps.google.com?q=4.8601245,8.057663999999999",
      "google_place_id": "ChIJW7ssmkLzZxAR3-ZFbdVR_bA"
    }
  },
  {
    "id": "10664",
    "name": "VILLAGE SQUARE IDIKPA IKOT NTUEN",
    "registration_area_id": "606",
    "precise_location": null,
    "abbreviation": "009",
    "units": "009",
    "delimitation": "03/19/05/009",
    "remark": "NEW PU",
    "ward_id": "606",
    "ward_name": "EASTERN NSIT V",
    "local_government_id": "57",
    "local_government_name": "NSIT ATAI",
    "state_id": "3",
    "state_name": "AKWA IBOM",
    "location": {
      "latitude": 4.8701148,
      "longitude": 8.0606899,
      "viewport": {
        "northeast": {
          "lat": 4.871451779892722,
          "lng": 8.062015429892721
        },
        "southwest": {
          "lat": 4.868752120107279,
          "lng": 8.059315770107277
        }
      },
      "formatted_address": "V3C6+27W, 521108, Ikot Akpabio, Nigeria",
      "google_map_url": "https://maps.google.com?q=4.8701148,8.0606899",
      "google_place_id": "ChIJX2dXm4zzZxAROOWQb9iqkvY"
    }
  },
  {
    "id": "10665",
    "name": "PRI. SCH. IKOT ASUA",
    "registration_area_id": "606",
    "precise_location": null,
    "abbreviation": "010",
    "units": "010",
    "delimitation": "03/19/05/010",
    "remark": "NEW PU",
    "ward_id": "606",
    "ward_name": "EASTERN NSIT V",
    "local_government_id": "57",
    "local_government_name": "NSIT ATAI",
    "state_id": "3",
    "state_name": "AKWA IBOM",
    "location": {
      "latitude": 4.8601245,
      "longitude": 8.057663999999999,
      "viewport": {
        "northeast": {
          "lat": 4.861492629892721,
          "lng": 8.058903129892721
        },
        "southwest": {
          "lat": 4.858792970107277,
          "lng": 8.056203470107278
        }
      },
      "formatted_address": "V365+23V, 521108, Ikot Asua, Nigeria",
      "google_map_url": "https://maps.google.com?q=4.8601245,8.057663999999999",
      "google_place_id": "ChIJW7ssmkLzZxAR3-ZFbdVR_bA"
    }
  },
  {
    "id": "10666",
    "name": "MARKET SQUARE IKOT AKPABIO",
    "registration_area_id": "606",
    "precise_location": null,
    "abbreviation": "011",
    "units": "011",
    "delimitation": "03/19/05/011",
    "remark": "NEW PU",
    "ward_id": "606",
    "ward_name": "EASTERN NSIT V",
    "local_government_id": "57",
    "local_government_name": "NSIT ATAI",
    "state_id": "3",
    "state_name": "AKWA IBOM",
    "location": {
      "latitude": 4.8701148,
      "longitude": 8.0606899,
      "viewport": {
        "northeast": {
          "lat": 4.871451779892722,
          "lng": 8.062015429892721
        },
        "southwest": {
          "lat": 4.868752120107279,
          "lng": 8.059315770107277
        }
      },
      "formatted_address": "V3C6+27W, 521108, Ikot Akpabio, Nigeria",
      "google_map_url": "https://maps.google.com?q=4.8701148,8.0606899",
      "google_place_id": "ChIJX2dXm4zzZxAROOWQb9iqkvY"
    }
  }
]