[
  {
    "id": "37848",
    "name": "PLAYGROUND, ETANAWANA",
    "registration_area_id": "2079",
    "precise_location": null,
    "abbreviation": "001",
    "units": "001",
    "delimitation": "09/11/05/001",
    "remark": "EXISTING PU",
    "ward_id": "2079",
    "ward_name": "NDE",
    "local_government_id": "179",
    "local_government_name": "IKOM",
    "state_id": "9",
    "state_name": "CROSS RIVER",
    "location": {
      "latitude": 5.5805318,
      "longitude": 8.748116699999999,
      "viewport": {
        "northeast": {
          "lat": 5.581881629892723,
          "lng": 8.74946652989272
        },
        "southwest": {
          "lat": 5.579181970107279,
          "lng": 8.746766870107276
        }
      },
      "formatted_address": "HPJX+669, Ikom - Abanliko Rd, Basua, Nigeria",
      "google_map_url": "https://maps.google.com?q=5.5805318,8.748116699999999",
      "google_place_id": "ChIJRaD05NymXRAR07InCVZA_rg"
    }
  },
  {
    "id": "37849",
    "name": "PLAY GROUND,  NKONATEN/ANAGHA",
    "registration_area_id": "2079",
    "precise_location": null,
    "abbreviation": "002",
    "units": "002",
    "delimitation": "09/11/05/002",
    "remark": "EXISTING PU",
    "ward_id": "2079",
    "ward_name": "NDE",
    "local_government_id": "179",
    "local_government_name": "IKOM",
    "state_id": "9",
    "state_name": "CROSS RIVER",
    "location": {
      "latitude": 6.0897748,
      "longitude": 8.6760774,
      "viewport": {
        "northeast": {
          "lat": 6.090941429892721,
          "lng": 8.677549599999997
        },
        "southwest": {
          "lat": 6.088241770107278,
          "lng": 8.6716608
        }
      },
      "formatted_address": "3MQG+WC, 562261, Nde (3), Nigeria",
      "google_map_url": "https://maps.google.com?q=6.0897748,8.6760774",
      "google_place_id": "ChIJy8NqobpvXBARBEuyNZ-vnUY"
    }
  },
  {
    "id": "37850",
    "name": "TOWN HALL NKONATON/ANAGHA II",
    "registration_area_id": "2079",
    "precise_location": null,
    "abbreviation": "003",
    "units": "003",
    "delimitation": "09/11/05/003",
    "remark": "EXISTING PU",
    "ward_id": "2079",
    "ward_name": "NDE",
    "local_government_id": "179",
    "local_government_name": "IKOM",
    "state_id": "9",
    "state_name": "CROSS RIVER",
    "location": {
      "latitude": 5.962155699999999,
      "longitude": 8.7057636,
      "viewport": {
        "northeast": {
          "lat": 5.963509429892722,
          "lng": 8.707187279892722
        },
        "southwest": {
          "lat": 5.960809770107279,
          "lng": 8.704487620107278
        }
      },
      "formatted_address": "No 4 Bokomo St, 562261, Ikom, Nigeria",
      "google_map_url": "https://maps.google.com?q=5.962155699999999,8.7057636",
      "google_place_id": "ChIJI9wWdFZCXBARNA5tcRIzQ1Q"
    }
  },
  {
    "id": "37851",
    "name": "PLAY GROUND MBENKPEN",
    "registration_area_id": "2079",
    "precise_location": null,
    "abbreviation": "004",
    "units": "004",
    "delimitation": "09/11/05/004",
    "remark": "EXISTING PU",
    "ward_id": "2079",
    "ward_name": "NDE",
    "local_government_id": "179",
    "local_government_name": "IKOM",
    "state_id": "9",
    "state_name": "CROSS RIVER",
    "location": {
      "latitude": 5.967594699999999,
      "longitude": 8.719931899999999,
      "viewport": {
        "northeast": {
          "lat": 5.968944929892721,
          "lng": 8.721276129892722
        },
        "southwest": {
          "lat": 5.966245270107277,
          "lng": 8.718576470107278
        }
      },
      "formatted_address": "XP99+2XM, 562261, Ikom, Nigeria",
      "google_map_url": "https://maps.google.com?q=5.967594699999999,8.719931899999999",
      "google_place_id": "ChIJIfZa5UVCXBAREK-2w4tjGdA"
    }
  },
  {
    "id": "37852",
    "name": "PRIMARY SCHOOL NDE 3 CORNERS",
    "registration_area_id": "2079",
    "precise_location": null,
    "abbreviation": "005",
    "units": "005",
    "delimitation": "09/11/05/005",
    "remark": "EXISTING PU",
    "ward_id": "2079",
    "ward_name": "NDE",
    "local_government_id": "179",
    "local_government_name": "IKOM",
    "state_id": "9",
    "state_name": "CROSS RIVER",
    "location": null
  },
  {
    "id": "37853",
    "name": "BUS STOP,  NDE",
    "registration_area_id": "2079",
    "precise_location": null,
    "abbreviation": "006",
    "units": "006",
    "delimitation": "09/11/05/006",
    "remark": "EXISTING PU",
    "ward_id": "2079",
    "ward_name": "NDE",
    "local_government_id": "179",
    "local_government_name": "IKOM",
    "state_id": "9",
    "state_name": "CROSS RIVER",
    "location": {
      "latitude": 6.0493915,
      "longitude": 8.684616799999999,
      "viewport": {
        "northeast": {
          "lat": 6.050660879892722,
          "lng": 8.685993329892723
        },
        "southwest": {
          "lat": 6.047961220107278,
          "lng": 8.683293670107279
        }
      },
      "formatted_address": "A 4, 562261, Nde, Nigeria",
      "google_map_url": "https://maps.google.com?q=6.0493915,8.684616799999999",
      "google_place_id": "ChIJH3Kn9_JoXBARMPTkWrmYqf8"
    }
  },
  {
    "id": "37854",
    "name": "PLAY GROUND ETAKOR",
    "registration_area_id": "2079",
    "precise_location": null,
    "abbreviation": "007",
    "units": "007",
    "delimitation": "09/11/05/007",
    "remark": "EXISTING PU",
    "ward_id": "2079",
    "ward_name": "NDE",
    "local_government_id": "179",
    "local_government_name": "IKOM",
    "state_id": "9",
    "state_name": "CROSS RIVER",
    "location": {
      "latitude": 5.967594699999999,
      "longitude": 8.719931899999999,
      "viewport": {
        "northeast": {
          "lat": 5.968944929892721,
          "lng": 8.721276129892722
        },
        "southwest": {
          "lat": 5.966245270107277,
          "lng": 8.718576470107278
        }
      },
      "formatted_address": "XP99+2XM, 562261, Ikom, Nigeria",
      "google_map_url": "https://maps.google.com?q=5.967594699999999,8.719931899999999",
      "google_place_id": "ChIJIfZa5UVCXBAREK-2w4tjGdA"
    }
  },
  {
    "id": "37855",
    "name": "PLAY GROUND EGONORKOE/ESAJI",
    "registration_area_id": "2079",
    "precise_location": null,
    "abbreviation": "008",
    "units": "008",
    "delimitation": "09/11/05/008",
    "remark": "EXISTING PU",
    "ward_id": "2079",
    "ward_name": "NDE",
    "local_government_id": "179",
    "local_government_name": "IKOM",
    "state_id": "9",
    "state_name": "CROSS RIVER",
    "location": {
      "latitude": 5.940848,
      "longitude": 8.6360911,
      "viewport": {
        "northeast": {
          "lat": 5.942175529892721,
          "lng": 8.637101479892722
        },
        "southwest": {
          "lat": 5.939475870107278,
          "lng": 8.634401820107277
        }
      },
      "formatted_address": "WJRP+8G2, 562261, Okuni, Nigeria",
      "google_map_url": "https://maps.google.com?q=5.940848,8.6360911",
      "google_place_id": "ChIJUeIQQ1ZdXBAR-ZdrAwOU9kE"
    }
  },
  {
    "id": "37856",
    "name": "PLAY GROUND,  NSAK",
    "registration_area_id": "2079",
    "precise_location": null,
    "abbreviation": "009",
    "units": "009",
    "delimitation": "09/11/05/009",
    "remark": "EXISTING PU",
    "ward_id": "2079",
    "ward_name": "NDE",
    "local_government_id": "179",
    "local_government_name": "IKOM",
    "state_id": "9",
    "state_name": "CROSS RIVER",
    "location": {
      "latitude": 6.0057529,
      "longitude": 8.7163306,
      "viewport": {
        "northeast": {
          "lat": 6.007128379892722,
          "lng": 8.71766612989272
        },
        "southwest": {
          "lat": 6.004428720107279,
          "lng": 8.714966470107276
        }
      },
      "formatted_address": "2P48+8G4, 562261, Ikom, Nigeria",
      "google_map_url": "https://maps.google.com?q=6.0057529,8.7163306",
      "google_place_id": "ChIJx7wBZ9ppXBAR78BuSk7E3AA"
    }
  },
  {
    "id": "37857",
    "name": "PLAY GROUND AYUGHASA",
    "registration_area_id": "2079",
    "precise_location": null,
    "abbreviation": "010",
    "units": "010",
    "delimitation": "09/11/05/010",
    "remark": "EXISTING PU",
    "ward_id": "2079",
    "ward_name": "NDE",
    "local_government_id": "179",
    "local_government_name": "IKOM",
    "state_id": "9",
    "state_name": "CROSS RIVER",
    "location": {
      "latitude": 6.152147299999999,
      "longitude": 8.609670999999999,
      "viewport": {
        "northeast": {
          "lat": 6.153468429892722,
          "lng": 8.61103377989272
        },
        "southwest": {
          "lat": 6.150768770107278,
          "lng": 8.608334120107276
        }
      },
      "formatted_address": "5J25+VV3, 562261, Edor Abangork, Nigeria",
      "google_map_url": "https://maps.google.com?q=6.152147299999999,8.609670999999999",
      "google_place_id": "ChIJqXww9ttkXBARXyv8m-b-WDw"
    }
  },
  {
    "id": "37858",
    "name": "PLAY GROUND,  EJIRAWOR",
    "registration_area_id": "2079",
    "precise_location": null,
    "abbreviation": "011",
    "units": "011",
    "delimitation": "09/11/05/011",
    "remark": "EXISTING PU",
    "ward_id": "2079",
    "ward_name": "NDE",
    "local_government_id": "179",
    "local_government_name": "IKOM",
    "state_id": "9",
    "state_name": "CROSS RIVER",
    "location": {
      "latitude": 5.940848,
      "longitude": 8.6360911,
      "viewport": {
        "northeast": {
          "lat": 5.942175529892721,
          "lng": 8.637101479892722
        },
        "southwest": {
          "lat": 5.939475870107278,
          "lng": 8.634401820107277
        }
      },
      "formatted_address": "WJRP+8G2, 562261, Okuni, Nigeria",
      "google_map_url": "https://maps.google.com?q=5.940848,8.6360911",
      "google_place_id": "ChIJUeIQQ1ZdXBAR-ZdrAwOU9kE"
    }
  },
  {
    "id": "37859",
    "name": "PLAY GROUND NWANDE/OFAFUM",
    "registration_area_id": "2079",
    "precise_location": null,
    "abbreviation": "012",
    "units": "012",
    "delimitation": "09/11/05/012",
    "remark": "EXISTING PU",
    "ward_id": "2079",
    "ward_name": "NDE",
    "local_government_id": "179",
    "local_government_name": "IKOM",
    "state_id": "9",
    "state_name": "CROSS RIVER",
    "location": {
      "latitude": 5.940848,
      "longitude": 8.6360911,
      "viewport": {
        "northeast": {
          "lat": 5.942175529892721,
          "lng": 8.637101479892722
        },
        "southwest": {
          "lat": 5.939475870107278,
          "lng": 8.634401820107277
        }
      },
      "formatted_address": "WJRP+8G2, 562261, Okuni, Nigeria",
      "google_map_url": "https://maps.google.com?q=5.940848,8.6360911",
      "google_place_id": "ChIJUeIQQ1ZdXBAR-ZdrAwOU9kE"
    }
  },
  {
    "id": "37860",
    "name": "PRIMARY SCHOOL MGBAKA MKPIRI",
    "registration_area_id": "2079",
    "precise_location": null,
    "abbreviation": "013",
    "units": "013",
    "delimitation": "09/11/05/013",
    "remark": "EXISTING PU",
    "ward_id": "2079",
    "ward_name": "NDE",
    "local_government_id": "179",
    "local_government_name": "IKOM",
    "state_id": "9",
    "state_name": "CROSS RIVER",
    "location": {
      "latitude": 5.9704568,
      "longitude": 8.7289006,
      "viewport": {
        "northeast": {
          "lat": 5.971790779892721,
          "lng": 8.730132629892722
        },
        "southwest": {
          "lat": 5.969091120107278,
          "lng": 8.727432970107278
        }
      },
      "formatted_address": "27 Obudu-Ikom Rd, 562261, Ikom, Nigeria",
      "google_map_url": "https://maps.google.com?q=5.9704568,8.7289006",
      "google_place_id": "ChIJBaQ7HjlCXBARSQh6UqfVhk4"
    }
  },
  {
    "id": "37861",
    "name": "TOWN HALL MGBAKA",
    "registration_area_id": "2079",
    "precise_location": null,
    "abbreviation": "014",
    "units": "014",
    "delimitation": "09/11/05/014",
    "remark": "EXISTING PU",
    "ward_id": "2079",
    "ward_name": "NDE",
    "local_government_id": "179",
    "local_government_name": "IKOM",
    "state_id": "9",
    "state_name": "CROSS RIVER",
    "location": {
      "latitude": 6.11344,
      "longitude": 8.658056,
      "viewport": {
        "northeast": {
          "lat": 6.114776629892722,
          "lng": 8.659384579892722
        },
        "southwest": {
          "lat": 6.112076970107278,
          "lng": 8.656684920107278
        }
      },
      "formatted_address": "4M75+96F, 562261, Balep, Nigeria",
      "google_map_url": "https://maps.google.com?q=6.11344,8.658056",
      "google_place_id": "ChIJVd-LaIhlXBARY-d3PAdZTbk"
    }
  },
  {
    "id": "37862",
    "name": "MAMMY MARKET MGBAKA",
    "registration_area_id": "2079",
    "precise_location": null,
    "abbreviation": "015",
    "units": "015",
    "delimitation": "09/11/05/015",
    "remark": "EXISTING PU",
    "ward_id": "2079",
    "ward_name": "NDE",
    "local_government_id": "179",
    "local_government_name": "IKOM",
    "state_id": "9",
    "state_name": "CROSS RIVER",
    "location": {
      "latitude": 6.1588257,
      "longitude": 8.6374968,
      "viewport": {
        "northeast": {
          "lat": 6.160179279892721,
          "lng": 8.638838029892723
        },
        "southwest": {
          "lat": 6.157479620107277,
          "lng": 8.636138370107279
        }
      },
      "formatted_address": "5J5P+GXH, 562261, Edor Abangork, Nigeria",
      "google_map_url": "https://maps.google.com?q=6.1588257,8.6374968",
      "google_place_id": "ChIJ4wiQ2jdlXBARNbA5ma_jdWc"
    }
  },
  {
    "id": "37863",
    "name": "PLAY GROUND II ETANAWANA",
    "registration_area_id": "2079",
    "precise_location": null,
    "abbreviation": "016",
    "units": "016",
    "delimitation": "09/11/05/016",
    "remark": "EXISTING PU",
    "ward_id": "2079",
    "ward_name": "NDE",
    "local_government_id": "179",
    "local_government_name": "IKOM",
    "state_id": "9",
    "state_name": "CROSS RIVER",
    "location": {
      "latitude": 5.940848,
      "longitude": 8.6360911,
      "viewport": {
        "northeast": {
          "lat": 5.942175529892721,
          "lng": 8.637101479892722
        },
        "southwest": {
          "lat": 5.939475870107278,
          "lng": 8.634401820107277
        }
      },
      "formatted_address": "WJRP+8G2, 562261, Okuni, Nigeria",
      "google_map_url": "https://maps.google.com?q=5.940848,8.6360911",
      "google_place_id": "ChIJUeIQQ1ZdXBAR-ZdrAwOU9kE"
    }
  },
  {
    "id": "37864",
    "name": "MARKET SQUARE NTONATON/ANAGHA",
    "registration_area_id": "2079",
    "precise_location": null,
    "abbreviation": "017",
    "units": "017",
    "delimitation": "09/11/05/017",
    "remark": "EXISTING PU",
    "ward_id": "2079",
    "ward_name": "NDE",
    "local_government_id": "179",
    "local_government_name": "IKOM",
    "state_id": "9",
    "state_name": "CROSS RIVER",
    "location": {
      "latitude": 5.971979,
      "longitude": 8.7255745,
      "viewport": {
        "northeast": {
          "lat": 5.973330479892722,
          "lng": 8.727006729892722
        },
        "southwest": {
          "lat": 5.970630820107278,
          "lng": 8.724307070107278
        }
      },
      "formatted_address": "Four Corner Square, 60 Katsina Ala Calabar Rd, 562261, Ikom, Nigeria",
      "google_map_url": "https://maps.google.com?q=5.971979,8.7255745",
      "google_place_id": "ChIJbdeGr1dCXBARtd28dqzQ7ZM"
    }
  },
  {
    "id": "37865",
    "name": "PRIMARY SCHOOL II NDE 3 CORNERS",
    "registration_area_id": "2079",
    "precise_location": null,
    "abbreviation": "018",
    "units": "018",
    "delimitation": "09/11/05/018",
    "remark": "NEW PU",
    "ward_id": "2079",
    "ward_name": "NDE",
    "local_government_id": "179",
    "local_government_name": "IKOM",
    "state_id": "9",
    "state_name": "CROSS RIVER",
    "location": null
  },
  {
    "id": "37866",
    "name": "MARKET SQUARE ANAGHA",
    "registration_area_id": "2079",
    "precise_location": null,
    "abbreviation": "019",
    "units": "019",
    "delimitation": "09/11/05/019",
    "remark": "NEW PU",
    "ward_id": "2079",
    "ward_name": "NDE",
    "local_government_id": "179",
    "local_government_name": "IKOM",
    "state_id": "9",
    "state_name": "CROSS RIVER",
    "location": {
      "latitude": 6.7188453,
      "longitude": 8.7769389,
      "viewport": {
        "northeast": {
          "lat": 6.720183879892722,
          "lng": 8.77829147989272
        },
        "southwest": {
          "lat": 6.717484220107278,
          "lng": 8.775591820107277
        }
      },
      "formatted_address": "PQ9G+GQP, 550112, Ogbaniko, Nigeria",
      "google_map_url": "https://maps.google.com?q=6.7188453,8.7769389",
      "google_place_id": "ChIJPWXtSvG-WxARquU67BjnACU"
    }
  },
  {
    "id": "37867",
    "name": "BUS STOP MBEN-EBAR",
    "registration_area_id": "2079",
    "precise_location": null,
    "abbreviation": "020",
    "units": "020",
    "delimitation": "09/11/05/020",
    "remark": "NEW PU",
    "ward_id": "2079",
    "ward_name": "NDE",
    "local_government_id": "179",
    "local_government_name": "IKOM",
    "state_id": "9",
    "state_name": "CROSS RIVER",
    "location": {
      "latitude": 6.0493915,
      "longitude": 8.684616799999999,
      "viewport": {
        "northeast": {
          "lat": 6.050660879892722,
          "lng": 8.685993329892723
        },
        "southwest": {
          "lat": 6.047961220107278,
          "lng": 8.683293670107279
        }
      },
      "formatted_address": "A 4, 562261, Nde, Nigeria",
      "google_map_url": "https://maps.google.com?q=6.0493915,8.684616799999999",
      "google_place_id": "ChIJH3Kn9_JoXBARMPTkWrmYqf8"
    }
  },
  {
    "id": "37868",
    "name": "MAMMY MARKET II MGBAKA",
    "registration_area_id": "2079",
    "precise_location": null,
    "abbreviation": "021",
    "units": "021",
    "delimitation": "09/11/05/021",
    "remark": "NEW PU",
    "ward_id": "2079",
    "ward_name": "NDE",
    "local_government_id": "179",
    "local_government_name": "IKOM",
    "state_id": "9",
    "state_name": "CROSS RIVER",
    "location": {
      "latitude": 6.1588257,
      "longitude": 8.6374968,
      "viewport": {
        "northeast": {
          "lat": 6.160179279892721,
          "lng": 8.638838029892723
        },
        "southwest": {
          "lat": 6.157479620107277,
          "lng": 8.636138370107279
        }
      },
      "formatted_address": "5J5P+GXH, 562261, Edor Abangork, Nigeria",
      "google_map_url": "https://maps.google.com?q=6.1588257,8.6374968",
      "google_place_id": "ChIJ4wiQ2jdlXBARNbA5ma_jdWc"
    }
  }
]