[
  {
    "id": "13825",
    "name": "C/S ISUANIOCHA I",
    "registration_area_id": "824",
    "precise_location": null,
    "abbreviation": "001",
    "units": "001",
    "delimitation": "04/06/10/001",
    "remark": "EXISTING PU",
    "ward_id": "824",
    "ward_name": "ISU ANIOCHA",
    "local_government_id": "75",
    "local_government_name": "AWKA NORTH",
    "state_id": "4",
    "state_name": "ANAMBRA",
    "location": {
      "latitude": 6.268719,
      "longitude": 7.0404345,
      "viewport": {
        "northeast": {
          "lat": 6.2760546,
          "lng": 7.0479012
        },
        "southwest": {
          "lat": 6.263086299999999,
          "lng": 7.0327092
        }
      },
      "formatted_address": "Isu Aniocha, Nigeria",
      "google_map_url": "https://maps.google.com?q=6.268719,7.0404345",
      "google_place_id": "ChIJB-lRttCDQxARUndIisqTQx4"
    }
  },
  {
    "id": "13826",
    "name": "C/S ISUANIOCHA II",
    "registration_area_id": "824",
    "precise_location": null,
    "abbreviation": "002",
    "units": "002",
    "delimitation": "04/06/10/002",
    "remark": "EXISTING PU",
    "ward_id": "824",
    "ward_name": "ISU ANIOCHA",
    "local_government_id": "75",
    "local_government_name": "AWKA NORTH",
    "state_id": "4",
    "state_name": "ANAMBRA",
    "location": {
      "latitude": 6.268719,
      "longitude": 7.0404345,
      "viewport": {
        "northeast": {
          "lat": 6.2760546,
          "lng": 7.0479012
        },
        "southwest": {
          "lat": 6.263086299999999,
          "lng": 7.0327092
        }
      },
      "formatted_address": "Isu Aniocha, Nigeria",
      "google_map_url": "https://maps.google.com?q=6.268719,7.0404345",
      "google_place_id": "ChIJB-lRttCDQxARUndIisqTQx4"
    }
  },
  {
    "id": "13827",
    "name": "FEGGE JUNCTION UMUDUNU",
    "registration_area_id": "824",
    "precise_location": null,
    "abbreviation": "003",
    "units": "003",
    "delimitation": "04/06/10/003",
    "remark": "EXISTING PU",
    "ward_id": "824",
    "ward_name": "ISU ANIOCHA",
    "local_government_id": "75",
    "local_government_name": "AWKA NORTH",
    "state_id": "4",
    "state_name": "ANAMBRA",
    "location": {
      "latitude": 6.268719,
      "longitude": 7.0404345,
      "viewport": {
        "northeast": {
          "lat": 6.2760546,
          "lng": 7.0479012
        },
        "southwest": {
          "lat": 6.263086299999999,
          "lng": 7.0327092
        }
      },
      "formatted_address": "Isu Aniocha, Nigeria",
      "google_map_url": "https://maps.google.com?q=6.268719,7.0404345",
      "google_place_id": "ChIJB-lRttCDQxARUndIisqTQx4"
    }
  },
  {
    "id": "13828",
    "name": "COMMUNITY P/S I",
    "registration_area_id": "824",
    "precise_location": null,
    "abbreviation": "004",
    "units": "004",
    "delimitation": "04/06/10/004",
    "remark": "EXISTING PU",
    "ward_id": "824",
    "ward_name": "ISU ANIOCHA",
    "local_government_id": "75",
    "local_government_name": "AWKA NORTH",
    "state_id": "4",
    "state_name": "ANAMBRA",
    "location": {
      "latitude": 6.266300999999999,
      "longitude": 7.047295099999999,
      "viewport": {
        "northeast": {
          "lat": 6.267658429892721,
          "lng": 7.048640979892721
        },
        "southwest": {
          "lat": 6.264958770107278,
          "lng": 7.045941320107277
        }
      },
      "formatted_address": "Isuaniocha, Awka, Nigeria",
      "google_map_url": "https://maps.google.com?q=6.266300999999999,7.047295099999999",
      "google_place_id": "ChIJa5RRWdKDQxAROS72mTrjmXM"
    }
  },
  {
    "id": "13829",
    "name": "COMMUNITY P/S II",
    "registration_area_id": "824",
    "precise_location": null,
    "abbreviation": "005",
    "units": "005",
    "delimitation": "04/06/10/005",
    "remark": "EXISTING PU",
    "ward_id": "824",
    "ward_name": "ISU ANIOCHA",
    "local_government_id": "75",
    "local_government_name": "AWKA NORTH",
    "state_id": "4",
    "state_name": "ANAMBRA",
    "location": {
      "latitude": 6.266300999999999,
      "longitude": 7.047295099999999,
      "viewport": {
        "northeast": {
          "lat": 6.267658429892721,
          "lng": 7.048640979892721
        },
        "southwest": {
          "lat": 6.264958770107278,
          "lng": 7.045941320107277
        }
      },
      "formatted_address": "Isuaniocha, Awka, Nigeria",
      "google_map_url": "https://maps.google.com?q=6.266300999999999,7.047295099999999",
      "google_place_id": "ChIJa5RRWdKDQxAROS72mTrjmXM"
    }
  },
  {
    "id": "13830",
    "name": "OTOKO P/S I",
    "registration_area_id": "824",
    "precise_location": null,
    "abbreviation": "006",
    "units": "006",
    "delimitation": "04/06/10/006",
    "remark": "EXISTING PU",
    "ward_id": "824",
    "ward_name": "ISU ANIOCHA",
    "local_government_id": "75",
    "local_government_name": "AWKA NORTH",
    "state_id": "4",
    "state_name": "ANAMBRA",
    "location": {
      "latitude": 6.2301661,
      "longitude": 7.081466,
      "viewport": {
        "northeast": {
          "lat": 6.231505579892722,
          "lng": 7.082883679892721
        },
        "southwest": {
          "lat": 6.228805920107278,
          "lng": 7.080184020107278
        }
      },
      "formatted_address": "Aroma, #6 Secretariate Road, Awka, Nigeria",
      "google_map_url": "https://maps.google.com?q=6.2301661,7.081466",
      "google_place_id": "ChIJi6N1r2uDQxAR6EO8SImU7w4"
    }
  },
  {
    "id": "13831",
    "name": "OTOKO P/S II",
    "registration_area_id": "824",
    "precise_location": null,
    "abbreviation": "007",
    "units": "007",
    "delimitation": "04/06/10/007",
    "remark": "EXISTING PU",
    "ward_id": "824",
    "ward_name": "ISU ANIOCHA",
    "local_government_id": "75",
    "local_government_name": "AWKA NORTH",
    "state_id": "4",
    "state_name": "ANAMBRA",
    "location": {
      "latitude": 6.2982239,
      "longitude": 6.9685826,
      "viewport": {
        "northeast": {
          "lat": 6.299717779892722,
          "lng": 6.969933129892722
        },
        "southwest": {
          "lat": 6.297018120107278,
          "lng": 6.967233470107278
        }
      },
      "formatted_address": "7XX9+7CP, Chukwuemek odimegwu ojukwu university, Igbariam, Nigeria",
      "google_map_url": "https://maps.google.com?q=6.2982239,6.9685826",
      "google_place_id": "ChIJx0HePIuGQxARa1Dvnq388fM"
    }
  },
  {
    "id": "13832",
    "name": "UMUDUNU V.  SQUARE",
    "registration_area_id": "824",
    "precise_location": null,
    "abbreviation": "008",
    "units": "008",
    "delimitation": "04/06/10/008",
    "remark": "EXISTING PU",
    "ward_id": "824",
    "ward_name": "ISU ANIOCHA",
    "local_government_id": "75",
    "local_government_name": "AWKA NORTH",
    "state_id": "4",
    "state_name": "ANAMBRA",
    "location": {
      "latitude": 6.268719,
      "longitude": 7.0404345,
      "viewport": {
        "northeast": {
          "lat": 6.2760546,
          "lng": 7.0479012
        },
        "southwest": {
          "lat": 6.263086299999999,
          "lng": 7.0327092
        }
      },
      "formatted_address": "Isu Aniocha, Nigeria",
      "google_map_url": "https://maps.google.com?q=6.268719,7.0404345",
      "google_place_id": "ChIJB-lRttCDQxARUndIisqTQx4"
    }
  },
  {
    "id": "13833",
    "name": "UMUELOM V. SQUARE",
    "registration_area_id": "824",
    "precise_location": null,
    "abbreviation": "009",
    "units": "009",
    "delimitation": "04/06/10/009",
    "remark": "EXISTING PU",
    "ward_id": "824",
    "ward_name": "ISU ANIOCHA",
    "local_government_id": "75",
    "local_government_name": "AWKA NORTH",
    "state_id": "4",
    "state_name": "ANAMBRA",
    "location": {
      "latitude": 6.268719,
      "longitude": 7.0404345,
      "viewport": {
        "northeast": {
          "lat": 6.2760546,
          "lng": 7.0479012
        },
        "southwest": {
          "lat": 6.263086299999999,
          "lng": 7.0327092
        }
      },
      "formatted_address": "Isu Aniocha, Nigeria",
      "google_map_url": "https://maps.google.com?q=6.268719,7.0404345",
      "google_place_id": "ChIJB-lRttCDQxARUndIisqTQx4"
    }
  },
  {
    "id": "13834",
    "name": "EZIGBOKAMMA V. SQUARE",
    "registration_area_id": "824",
    "precise_location": null,
    "abbreviation": "010",
    "units": "010",
    "delimitation": "04/06/10/010",
    "remark": "EXISTING PU",
    "ward_id": "824",
    "ward_name": "ISU ANIOCHA",
    "local_government_id": "75",
    "local_government_name": "AWKA NORTH",
    "state_id": "4",
    "state_name": "ANAMBRA",
    "location": {
      "latitude": 6.2281742,
      "longitude": 7.080954699999999,
      "viewport": {
        "northeast": {
          "lat": 6.229639179892721,
          "lng": 7.082296129892721
        },
        "southwest": {
          "lat": 6.226939520107277,
          "lng": 7.079596470107277
        }
      },
      "formatted_address": "63HJ+798, 420211, Awka, Nigeria",
      "google_map_url": "https://maps.google.com?q=6.2281742,7.080954699999999",
      "google_place_id": "ChIJbWs9y4aDQxARLIKK6PB5Z4E"
    }
  },
  {
    "id": "13835",
    "name": "UMUOMITE V. SQUARE",
    "registration_area_id": "824",
    "precise_location": null,
    "abbreviation": "011",
    "units": "011",
    "delimitation": "04/06/10/011",
    "remark": "EXISTING PU",
    "ward_id": "824",
    "ward_name": "ISU ANIOCHA",
    "local_government_id": "75",
    "local_government_name": "AWKA NORTH",
    "state_id": "4",
    "state_name": "ANAMBRA",
    "location": {
      "latitude": 6.1945308,
      "longitude": 7.067948599999999,
      "viewport": {
        "northeast": {
          "lat": 6.195893079892722,
          "lng": 7.069371679892722
        },
        "southwest": {
          "lat": 6.193193420107278,
          "lng": 7.066672020107278
        }
      },
      "formatted_address": "53V9+R58, Umuenechi Village, Awka, Nigeria",
      "google_map_url": "https://maps.google.com?q=6.1945308,7.067948599999999",
      "google_place_id": "ChIJiRaMytODQxAROQb5gRjPGrg"
    }
  },
  {
    "id": "13836",
    "name": "IFITEISU VILLAGE SQUARE",
    "registration_area_id": "824",
    "precise_location": null,
    "abbreviation": "012",
    "units": "012",
    "delimitation": "04/06/10/012",
    "remark": "NEW PU",
    "ward_id": "824",
    "ward_name": "ISU ANIOCHA",
    "local_government_id": "75",
    "local_government_name": "AWKA NORTH",
    "state_id": "4",
    "state_name": "ANAMBRA",
    "location": {
      "latitude": 6.1945308,
      "longitude": 7.067948599999999,
      "viewport": {
        "northeast": {
          "lat": 6.195893079892722,
          "lng": 7.069371679892722
        },
        "southwest": {
          "lat": 6.193193420107278,
          "lng": 7.066672020107278
        }
      },
      "formatted_address": "53V9+R58, Umuenechi Village, Awka, Nigeria",
      "google_map_url": "https://maps.google.com?q=6.1945308,7.067948599999999",
      "google_place_id": "ChIJiRaMytODQxAROQb5gRjPGrg"
    }
  },
  {
    "id": "13837",
    "name": "UMUNERI VILLAGE SQUARE",
    "registration_area_id": "824",
    "precise_location": null,
    "abbreviation": "013",
    "units": "013",
    "delimitation": "04/06/10/013",
    "remark": "NEW PU",
    "ward_id": "824",
    "ward_name": "ISU ANIOCHA",
    "local_government_id": "75",
    "local_government_name": "AWKA NORTH",
    "state_id": "4",
    "state_name": "ANAMBRA",
    "location": {
      "latitude": 6.1945308,
      "longitude": 7.067948599999999,
      "viewport": {
        "northeast": {
          "lat": 6.195893079892722,
          "lng": 7.069371679892722
        },
        "southwest": {
          "lat": 6.193193420107278,
          "lng": 7.066672020107278
        }
      },
      "formatted_address": "53V9+R58, Umuenechi Village, Awka, Nigeria",
      "google_map_url": "https://maps.google.com?q=6.1945308,7.067948599999999",
      "google_place_id": "ChIJiRaMytODQxAROQb5gRjPGrg"
    }
  }
]