[
  {
    "id": "11938",
    "name": "PRY SCH, NUNG IKONO UFOK",
    "registration_area_id": "716",
    "precise_location": null,
    "abbreviation": "001",
    "units": "001",
    "delimitation": "03/29/09/001",
    "remark": "EXISTING PU",
    "ward_id": "716",
    "ward_name": "SOUTHERN URUAN IV",
    "local_government_id": "67",
    "local_government_name": "URUAN",
    "state_id": "3",
    "state_name": "AKWA IBOM",
    "location": {
      "latitude": 4.987416000000001,
      "longitude": 8.0322601,
      "viewport": {
        "northeast": {
          "lat": 4.988760679892722,
          "lng": 8.033608229892721
        },
        "southwest": {
          "lat": 4.986061020107278,
          "lng": 8.030908570107277
        }
      },
      "formatted_address": "X2PJ+XW, 520106, Nung Oku, Nigeria",
      "google_map_url": "https://maps.google.com?q=4.987416000000001,8.0322601",
      "google_place_id": "ChIJ2wsK6zv3ZxARKHEoNepIcPA"
    }
  },
  {
    "id": "11939",
    "name": "VILLAGE SQUARE, NUNG IKONO UFOK",
    "registration_area_id": "716",
    "precise_location": null,
    "abbreviation": "002",
    "units": "002",
    "delimitation": "03/29/09/002",
    "remark": "EXISTING PU",
    "ward_id": "716",
    "ward_name": "SOUTHERN URUAN IV",
    "local_government_id": "67",
    "local_government_name": "URUAN",
    "state_id": "3",
    "state_name": "AKWA IBOM",
    "location": {
      "latitude": 5.0206399,
      "longitude": 7.9387279,
      "viewport": {
        "northeast": {
          "lat": 5.022041229892722,
          "lng": 7.940047729892719
        },
        "southwest": {
          "lat": 5.019341570107278,
          "lng": 7.937348070107276
        }
      },
      "formatted_address": "2WCQ+6GG, Udo Inyang Close, Ewet Housing Estate 520102, Uyo, Nigeria",
      "google_map_url": "https://maps.google.com?q=5.0206399,7.9387279",
      "google_place_id": "ChIJZSGTYBVXXRARAbcCUdh3t0M"
    }
  },
  {
    "id": "11940",
    "name": "VILLAGE SQUARE, NUNG ABIA",
    "registration_area_id": "716",
    "precise_location": null,
    "abbreviation": "003",
    "units": "003",
    "delimitation": "03/29/09/003",
    "remark": "EXISTING PU",
    "ward_id": "716",
    "ward_name": "SOUTHERN URUAN IV",
    "local_government_id": "67",
    "local_government_name": "URUAN",
    "state_id": "3",
    "state_name": "AKWA IBOM",
    "location": {
      "latitude": 5.0907396,
      "longitude": 7.929386,
      "viewport": {
        "northeast": {
          "lat": 5.091930829892722,
          "lng": 7.930847729892722
        },
        "southwest": {
          "lat": 5.089231170107278,
          "lng": 7.928148070107278
        }
      },
      "formatted_address": "3WRH+7QR, Ettu street odiok itam, Odiok, Nigeria",
      "google_map_url": "https://maps.google.com?q=5.0907396,7.929386",
      "google_place_id": "ChIJkR14ArxXXRARYEdBBJyvG3w"
    }
  },
  {
    "id": "11941",
    "name": "PRY SCH, ITUK MBANG I",
    "registration_area_id": "716",
    "precise_location": null,
    "abbreviation": "004",
    "units": "004",
    "delimitation": "03/29/09/004",
    "remark": "EXISTING PU",
    "ward_id": "716",
    "ward_name": "SOUTHERN URUAN IV",
    "local_government_id": "67",
    "local_government_name": "URUAN",
    "state_id": "3",
    "state_name": "AKWA IBOM",
    "location": {
      "latitude": 4.926036799999999,
      "longitude": 8.0303,
      "viewport": {
        "northeast": {
          "lat": 4.927452329892722,
          "lng": 8.031689429892722
        },
        "southwest": {
          "lat": 4.924752670107278,
          "lng": 8.028989770107279
        }
      },
      "formatted_address": "W2GJ+C47, Hospital Road, 520106, Uyo, Nigeria",
      "google_map_url": "https://maps.google.com?q=4.926036799999999,8.0303",
      "google_place_id": "ChIJw8ZuYkvxZxARydl667gSlw0"
    }
  },
  {
    "id": "11942",
    "name": "PRY SCH, ITUK MABANG II",
    "registration_area_id": "716",
    "precise_location": null,
    "abbreviation": "005",
    "units": "005",
    "delimitation": "03/29/09/005",
    "remark": "EXISTING PU",
    "ward_id": "716",
    "ward_name": "SOUTHERN URUAN IV",
    "local_government_id": "67",
    "local_government_name": "URUAN",
    "state_id": "3",
    "state_name": "AKWA IBOM",
    "location": {
      "latitude": 4.9227,
      "longitude": 8.0371699,
      "viewport": {
        "northeast": {
          "lat": 4.923851779892721,
          "lng": 8.038515179892721
        },
        "southwest": {
          "lat": 4.921152120107277,
          "lng": 8.035815520107278
        }
      },
      "formatted_address": "W2FP+3VM, Ituk Mbang, Uruan,, Nung Ikono Ufok, Nigeria",
      "google_map_url": "https://maps.google.com?q=4.9227,8.0371699",
      "google_place_id": "ChIJA-usi1HxZxARINL27OfN2JI"
    }
  },
  {
    "id": "11943",
    "name": "OPP HOSPITAL,  ITUK MBANG",
    "registration_area_id": "716",
    "precise_location": null,
    "abbreviation": "006",
    "units": "006",
    "delimitation": "03/29/09/006",
    "remark": "EXISTING PU",
    "ward_id": "716",
    "ward_name": "SOUTHERN URUAN IV",
    "local_government_id": "67",
    "local_government_name": "URUAN",
    "state_id": "3",
    "state_name": "AKWA IBOM",
    "location": {
      "latitude": 4.935569099999999,
      "longitude": 8.0357098,
      "viewport": {
        "northeast": {
          "lat": 4.936941179892721,
          "lng": 8.036623379892722
        },
        "southwest": {
          "lat": 4.934241520107277,
          "lng": 8.033923720107278
        }
      },
      "formatted_address": "W2PP+67G, 520106, Idu, Nigeria",
      "google_map_url": "https://maps.google.com?q=4.935569099999999,8.0357098",
      "google_place_id": "ChIJ3ewYFqT3ZxARognAFwgMtYY"
    }
  },
  {
    "id": "11944",
    "name": "VILLAGE SQUARE,NUNG AKPADUK",
    "registration_area_id": "716",
    "precise_location": null,
    "abbreviation": "007",
    "units": "007",
    "delimitation": "03/29/09/007",
    "remark": "NEW PU",
    "ward_id": "716",
    "ward_name": "SOUTHERN URUAN IV",
    "local_government_id": "67",
    "local_government_name": "URUAN",
    "state_id": "3",
    "state_name": "AKWA IBOM",
    "location": {
      "latitude": 5.0907396,
      "longitude": 7.929386,
      "viewport": {
        "northeast": {
          "lat": 5.091930829892722,
          "lng": 7.930847729892722
        },
        "southwest": {
          "lat": 5.089231170107278,
          "lng": 7.928148070107278
        }
      },
      "formatted_address": "3WRH+7QR, Ettu street odiok itam, Odiok, Nigeria",
      "google_map_url": "https://maps.google.com?q=5.0907396,7.929386",
      "google_place_id": "ChIJkR14ArxXXRARYEdBBJyvG3w"
    }
  },
  {
    "id": "11945",
    "name": "OPEN SPACE BY NUNG ABIDAHA JUNCTION",
    "registration_area_id": "716",
    "precise_location": null,
    "abbreviation": "008",
    "units": "008",
    "delimitation": "03/29/09/008",
    "remark": "NEW PU",
    "ward_id": "716",
    "ward_name": "SOUTHERN URUAN IV",
    "local_government_id": "67",
    "local_government_name": "URUAN",
    "state_id": "3",
    "state_name": "AKWA IBOM",
    "location": {
      "latitude": 4.987416000000001,
      "longitude": 8.0322601,
      "viewport": {
        "northeast": {
          "lat": 4.988760679892722,
          "lng": 8.033608229892721
        },
        "southwest": {
          "lat": 4.986061020107278,
          "lng": 8.030908570107277
        }
      },
      "formatted_address": "X2PJ+XW, 520106, Nung Oku, Nigeria",
      "google_map_url": "https://maps.google.com?q=4.987416000000001,8.0322601",
      "google_place_id": "ChIJ2wsK6zv3ZxARKHEoNepIcPA"
    }
  },
  {
    "id": "11946",
    "name": "VILLAGE SQUARE IBIONO",
    "registration_area_id": "716",
    "precise_location": null,
    "abbreviation": "009",
    "units": "009",
    "delimitation": "03/29/09/009",
    "remark": "NEW PU",
    "ward_id": "716",
    "ward_name": "SOUTHERN URUAN IV",
    "local_government_id": "67",
    "local_government_name": "URUAN",
    "state_id": "3",
    "state_name": "AKWA IBOM",
    "location": {
      "latitude": 5.141825799999999,
      "longitude": 7.844954899999999,
      "viewport": {
        "northeast": {
          "lat": 5.199056199999999,
          "lng": 7.9060134
        },
        "southwest": {
          "lat": 5.0958926,
          "lng": 7.834258099999999
        }
      },
      "formatted_address": "Ibiono Western 11, Nigeria",
      "google_map_url": "https://maps.google.com?q=5.141825799999999,7.844954899999999",
      "google_place_id": "ChIJMb1-xSdSXRARubISP455-Oc"
    }
  },
  {
    "id": "11947",
    "name": "TOWN HALL, ITUK MBANG ATAI",
    "registration_area_id": "716",
    "precise_location": null,
    "abbreviation": "010",
    "units": "010",
    "delimitation": "03/29/09/010",
    "remark": "NEW PU",
    "ward_id": "716",
    "ward_name": "SOUTHERN URUAN IV",
    "local_government_id": "67",
    "local_government_name": "URUAN",
    "state_id": "3",
    "state_name": "AKWA IBOM",
    "location": {
      "latitude": 4.8701148,
      "longitude": 8.0606899,
      "viewport": {
        "northeast": {
          "lat": 4.871451779892722,
          "lng": 8.062015429892721
        },
        "southwest": {
          "lat": 4.868752120107279,
          "lng": 8.059315770107277
        }
      },
      "formatted_address": "V3C6+27W, 521108, Ikot Akpabio, Nigeria",
      "google_map_url": "https://maps.google.com?q=4.8701148,8.0606899",
      "google_place_id": "ChIJX2dXm4zzZxAROOWQb9iqkvY"
    }
  },
  {
    "id": "11948",
    "name": "TOWN HALL, ADIA ITUK MBANG",
    "registration_area_id": "716",
    "precise_location": null,
    "abbreviation": "011",
    "units": "011",
    "delimitation": "03/29/09/011",
    "remark": "NEW PU",
    "ward_id": "716",
    "ward_name": "SOUTHERN URUAN IV",
    "local_government_id": "67",
    "local_government_name": "URUAN",
    "state_id": "3",
    "state_name": "AKWA IBOM",
    "location": {
      "latitude": 4.935569099999999,
      "longitude": 8.0357098,
      "viewport": {
        "northeast": {
          "lat": 4.936941179892721,
          "lng": 8.036623379892722
        },
        "southwest": {
          "lat": 4.934241520107277,
          "lng": 8.033923720107278
        }
      },
      "formatted_address": "W2PP+67G, 520106, Idu, Nigeria",
      "google_map_url": "https://maps.google.com?q=4.935569099999999,8.0357098",
      "google_place_id": "ChIJ3ewYFqT3ZxARognAFwgMtYY"
    }
  },
  {
    "id": "11949",
    "name": "TOWN HALL, IKOT ANNUNG",
    "registration_area_id": "716",
    "precise_location": null,
    "abbreviation": "012",
    "units": "012",
    "delimitation": "03/29/09/012",
    "remark": "NEW PU",
    "ward_id": "716",
    "ward_name": "SOUTHERN URUAN IV",
    "local_government_id": "67",
    "local_government_name": "URUAN",
    "state_id": "3",
    "state_name": "AKWA IBOM",
    "location": {
      "latitude": 4.8701148,
      "longitude": 8.0606899,
      "viewport": {
        "northeast": {
          "lat": 4.871451779892722,
          "lng": 8.062015429892721
        },
        "southwest": {
          "lat": 4.868752120107279,
          "lng": 8.059315770107277
        }
      },
      "formatted_address": "V3C6+27W, 521108, Ikot Akpabio, Nigeria",
      "google_map_url": "https://maps.google.com?q=4.8701148,8.0606899",
      "google_place_id": "ChIJX2dXm4zzZxAROOWQb9iqkvY"
    }
  },
  {
    "id": "11950",
    "name": "TOWN HALL, IKOT INYANG",
    "registration_area_id": "716",
    "precise_location": null,
    "abbreviation": "013",
    "units": "013",
    "delimitation": "03/29/09/013",
    "remark": "NEW PU",
    "ward_id": "716",
    "ward_name": "SOUTHERN URUAN IV",
    "local_government_id": "67",
    "local_government_name": "URUAN",
    "state_id": "3",
    "state_name": "AKWA IBOM",
    "location": {
      "latitude": 5.0047136,
      "longitude": 7.523599000000001,
      "viewport": {
        "northeast": {
          "lat": 5.005634329892722,
          "lng": 7.525625349999999
        },
        "southwest": {
          "lat": 5.002934670107278,
          "lng": 7.522923550000003
        }
      },
      "formatted_address": "2G3F+VCQ, 524102, Urua Inyang, Nigeria",
      "google_map_url": "https://maps.google.com?q=5.0047136,7.523599000000001",
      "google_place_id": "ChIJWWnuPggeaBARh3dizyRqG-g"
    }
  }
]