[
  {
    "id": "351394",
    "name": "IMESI-ILE IJANA PRY. SCHOOL",
    "registration_area_id": "17956",
    "precise_location": null,
    "abbreviation": "001",
    "units": "001",
    "delimitation": "29/24/06/001",
    "remark": "EXISTING PU",
    "ward_id": "17956",
    "ward_name": "IMESI-ILE",
    "local_government_id": "621",
    "local_government_name": "OBOKUN",
    "state_id": "29",
    "state_name": "OSUN",
    "location": {
      "latitude": 7.824014000000001,
      "longitude": 4.839175099999999,
      "viewport": {
        "northeast": {
          "lat": 7.825290529892722,
          "lng": 4.840634979892721
        },
        "southwest": {
          "lat": 7.822590870107278,
          "lng": 4.837935320107277
        }
      },
      "formatted_address": "RRFQ+JM3, 233125, Imesi Ile, Nigeria",
      "google_map_url": "https://maps.google.com?q=7.824014000000001,4.839175099999999",
      "google_place_id": "ChIJb-2UisL2NxARZhJeozm9V-o"
    }
  },
  {
    "id": "351395",
    "name": "IMESI-ILE TOWN HALL",
    "registration_area_id": "17956",
    "precise_location": null,
    "abbreviation": "002",
    "units": "002",
    "delimitation": "29/24/06/002",
    "remark": "EXISTING PU",
    "ward_id": "17956",
    "ward_name": "IMESI-ILE",
    "local_government_id": "621",
    "local_government_name": "OBOKUN",
    "state_id": "29",
    "state_name": "OSUN",
    "location": {
      "latitude": 7.832687099999998,
      "longitude": 4.8303538,
      "viewport": {
        "northeast": {
          "lat": 7.834173000000001,
          "lng": 4.8319321
        },
        "southwest": {
          "lat": 7.830855,
          "lng": 4.828688
        }
      },
      "formatted_address": "233125, Imesi Ile, Nigeria",
      "google_map_url": "https://maps.google.com?q=7.832687099999998,4.8303538",
      "google_place_id": "ChIJXzwRH8L2NxARS97Vgi3Np3M"
    }
  },
  {
    "id": "351396",
    "name": "IMESI-ILE RURAL HEALTH CENTRE",
    "registration_area_id": "17956",
    "precise_location": null,
    "abbreviation": "003",
    "units": "003",
    "delimitation": "29/24/06/003",
    "remark": "EXISTING PU",
    "ward_id": "17956",
    "ward_name": "IMESI-ILE",
    "local_government_id": "621",
    "local_government_name": "OBOKUN",
    "state_id": "29",
    "state_name": "OSUN",
    "location": {
      "latitude": 7.833404900000001,
      "longitude": 4.8364815,
      "viewport": {
        "northeast": {
          "lat": 7.834760379892722,
          "lng": 4.837901579892722
        },
        "southwest": {
          "lat": 7.832060720107278,
          "lng": 4.835201920107278
        }
      },
      "formatted_address": "RRMP+9H9, Unnamed Road, 233125, Imesi Ile, Nigeria",
      "google_map_url": "https://maps.google.com?q=7.833404900000001,4.8364815",
      "google_place_id": "ChIJLaweVsb3NxARI3NjA4A2eFg"
    }
  },
  {
    "id": "351397",
    "name": "IMESI-ILE METHODIST PRY. SCHOOL",
    "registration_area_id": "17956",
    "precise_location": null,
    "abbreviation": "004",
    "units": "004",
    "delimitation": "29/24/06/004",
    "remark": "EXISTING PU",
    "ward_id": "17956",
    "ward_name": "IMESI-ILE",
    "local_government_id": "621",
    "local_government_name": "OBOKUN",
    "state_id": "29",
    "state_name": "OSUN",
    "location": {
      "latitude": 7.826891799999999,
      "longitude": 4.8352376,
      "viewport": {
        "northeast": {
          "lat": 7.828304129892721,
          "lng": 4.836607679892722
        },
        "southwest": {
          "lat": 7.825604470107277,
          "lng": 4.833908020107278
        }
      },
      "formatted_address": "RRGP+Q35, 233125, Imesi Ile, Nigeria",
      "google_map_url": "https://maps.google.com?q=7.826891799999999,4.8352376",
      "google_place_id": "ChIJLwoEQMH2NxARgwi9UW8fvy8"
    }
  },
  {
    "id": "351398",
    "name": "IMESI-ILE ST. PAUL'S SCHOOL",
    "registration_area_id": "17956",
    "precise_location": null,
    "abbreviation": "005",
    "units": "005",
    "delimitation": "29/24/06/005",
    "remark": "EXISTING PU",
    "ward_id": "17956",
    "ward_name": "IMESI-ILE",
    "local_government_id": "621",
    "local_government_name": "OBOKUN",
    "state_id": "29",
    "state_name": "OSUN",
    "location": {
      "latitude": 7.822757,
      "longitude": 4.8391801,
      "viewport": {
        "northeast": {
          "lat": 7.824094229892722,
          "lng": 4.840535379892721
        },
        "southwest": {
          "lat": 7.821394570107278,
          "lng": 4.837835720107277
        }
      },
      "formatted_address": "Ola Oke-Aye, 233125, Oke-Mesi-Ipole, Nigeria",
      "google_map_url": "https://maps.google.com?q=7.822757,4.8391801",
      "google_place_id": "ChIJLw8OgML2NxARA_PC5RzJhKU"
    }
  },
  {
    "id": "351399",
    "name": "IMESI-ILE L.A. SCHOOL  I",
    "registration_area_id": "17956",
    "precise_location": null,
    "abbreviation": "006",
    "units": "006",
    "delimitation": "29/24/06/006",
    "remark": "EXISTING PU",
    "ward_id": "17956",
    "ward_name": "IMESI-ILE",
    "local_government_id": "621",
    "local_government_name": "OBOKUN",
    "state_id": "29",
    "state_name": "OSUN",
    "location": {
      "latitude": 7.824014000000001,
      "longitude": 4.839175099999999,
      "viewport": {
        "northeast": {
          "lat": 7.825290529892722,
          "lng": 4.840634979892721
        },
        "southwest": {
          "lat": 7.822590870107278,
          "lng": 4.837935320107277
        }
      },
      "formatted_address": "RRFQ+JM3, 233125, Imesi Ile, Nigeria",
      "google_map_url": "https://maps.google.com?q=7.824014000000001,4.839175099999999",
      "google_place_id": "ChIJb-2UisL2NxARZhJeozm9V-o"
    }
  },
  {
    "id": "351400",
    "name": "IMESI-ILE L.A. SCHOOL  II",
    "registration_area_id": "17956",
    "precise_location": null,
    "abbreviation": "007",
    "units": "007",
    "delimitation": "29/24/06/007",
    "remark": "EXISTING PU",
    "ward_id": "17956",
    "ward_name": "IMESI-ILE",
    "local_government_id": "621",
    "local_government_name": "OBOKUN",
    "state_id": "29",
    "state_name": "OSUN",
    "location": {
      "latitude": 7.824014000000001,
      "longitude": 4.839175099999999,
      "viewport": {
        "northeast": {
          "lat": 7.825290529892722,
          "lng": 4.840634979892721
        },
        "southwest": {
          "lat": 7.822590870107278,
          "lng": 4.837935320107277
        }
      },
      "formatted_address": "RRFQ+JM3, 233125, Imesi Ile, Nigeria",
      "google_map_url": "https://maps.google.com?q=7.824014000000001,4.839175099999999",
      "google_place_id": "ChIJb-2UisL2NxARZhJeozm9V-o"
    }
  },
  {
    "id": "351401",
    "name": "IMESI-ILE MARKET SQUARE",
    "registration_area_id": "17956",
    "precise_location": null,
    "abbreviation": "008",
    "units": "008",
    "delimitation": "29/24/06/008",
    "remark": "EXISTING PU",
    "ward_id": "17956",
    "ward_name": "IMESI-ILE",
    "local_government_id": "621",
    "local_government_name": "OBOKUN",
    "state_id": "29",
    "state_name": "OSUN",
    "location": {
      "latitude": 7.833574199999999,
      "longitude": 4.8416936,
      "viewport": {
        "northeast": {
          "lat": 7.875925400000001,
          "lng": 4.8693892
        },
        "southwest": {
          "lat": 7.798479800000001,
          "lng": 4.797689399999999
        }
      },
      "formatted_address": "Imesi-Ile, Nigeria",
      "google_map_url": "https://maps.google.com?q=7.833574199999999,4.8416936",
      "google_place_id": "ChIJF5rOpcn2NxARfPvM0fgyf9o"
    }
  }
]