[
  {
    "id": "100638",
    "name": "GARO I - K.G MAGAJI",
    "registration_area_id": "5115",
    "precise_location": null,
    "abbreviation": "001",
    "units": "001",
    "delimitation": "20/27/09/001",
    "remark": "EXISTING PU",
    "ward_id": "5115",
    "ward_name": "KARAU",
    "local_government_id": "440",
    "local_government_name": "MASHI",
    "state_id": "20",
    "state_name": "KATSINA",
    "location": null
  },
  {
    "id": "100639",
    "name": "GARO II - PRI.SCHOOL",
    "registration_area_id": "5115",
    "precise_location": null,
    "abbreviation": "002",
    "units": "002",
    "delimitation": "20/27/09/002",
    "remark": "EXISTING PU",
    "ward_id": "5115",
    "ward_name": "KARAU",
    "local_government_id": "440",
    "local_government_name": "MASHI",
    "state_id": "20",
    "state_name": "KATSINA",
    "location": {
      "latitude": 12.9720503,
      "longitude": 7.5949826,
      "viewport": {
        "northeast": {
          "lat": 12.97334407989272,
          "lng": 7.596137529892721
        },
        "southwest": {
          "lat": 12.97064442010728,
          "lng": 7.593437870107278
        }
      },
      "formatted_address": "XHCV+RXH, Unnamed Road, 820101, Katsina, Nigeria",
      "google_map_url": "https://maps.google.com?q=12.9720503,7.5949826",
      "google_place_id": "ChIJa_VitKA8sBER52ZZkcSsS2w"
    }
  },
  {
    "id": "100640",
    "name": "BUJEJE I - PRI.SCHOOL",
    "registration_area_id": "5115",
    "precise_location": null,
    "abbreviation": "003",
    "units": "003",
    "delimitation": "20/27/09/003",
    "remark": "EXISTING PU",
    "ward_id": "5115",
    "ward_name": "KARAU",
    "local_government_id": "440",
    "local_government_name": "MASHI",
    "state_id": "20",
    "state_name": "KATSINA",
    "location": {
      "latitude": 13.0248508,
      "longitude": 7.6914509,
      "viewport": {
        "northeast": {
          "lat": 13.02610777989272,
          "lng": 7.692875979892721
        },
        "southwest": {
          "lat": 13.02340812010728,
          "lng": 7.690176320107277
        }
      },
      "formatted_address": "2MFR+WHJ, 820103, Katsina, Nigeria",
      "google_map_url": "https://maps.google.com?q=13.0248508,7.6914509",
      "google_place_id": "ChIJU6o_Zy8isBERkZ5B3TxrbzM"
    }
  },
  {
    "id": "100641",
    "name": "BUJEJE II - PRI.SCHOOL",
    "registration_area_id": "5115",
    "precise_location": null,
    "abbreviation": "004",
    "units": "004",
    "delimitation": "20/27/09/004",
    "remark": "EXISTING PU",
    "ward_id": "5115",
    "ward_name": "KARAU",
    "local_government_id": "440",
    "local_government_name": "MASHI",
    "state_id": "20",
    "state_name": "KATSINA",
    "location": {
      "latitude": 13.0248508,
      "longitude": 7.6914509,
      "viewport": {
        "northeast": {
          "lat": 13.02610777989272,
          "lng": 7.692875979892721
        },
        "southwest": {
          "lat": 13.02340812010728,
          "lng": 7.690176320107277
        }
      },
      "formatted_address": "2MFR+WHJ, 820103, Katsina, Nigeria",
      "google_map_url": "https://maps.google.com?q=13.0248508,7.6914509",
      "google_place_id": "ChIJU6o_Zy8isBERkZ5B3TxrbzM"
    }
  },
  {
    "id": "100642",
    "name": "SARDAWA I - K.G M/UNG",
    "registration_area_id": "5115",
    "precise_location": null,
    "abbreviation": "005",
    "units": "005",
    "delimitation": "20/27/09/005",
    "remark": "EXISTING PU",
    "ward_id": "5115",
    "ward_name": "KARAU",
    "local_government_id": "440",
    "local_government_name": "MASHI",
    "state_id": "20",
    "state_name": "KATSINA",
    "location": null
  },
  {
    "id": "100643",
    "name": "SARDAWA II - K.G A.M. GAZAU",
    "registration_area_id": "5115",
    "precise_location": null,
    "abbreviation": "006",
    "units": "006",
    "delimitation": "20/27/09/006",
    "remark": "EXISTING PU",
    "ward_id": "5115",
    "ward_name": "KARAU",
    "local_government_id": "440",
    "local_government_name": "MASHI",
    "state_id": "20",
    "state_name": "KATSINA",
    "location": {
      "latitude": 12.9806247,
      "longitude": 7.9402184,
      "viewport": {
        "northeast": {
          "lat": 12.98184752989272,
          "lng": 7.941550779892721
        },
        "southwest": {
          "lat": 12.97914787010728,
          "lng": 7.938851120107277
        }
      },
      "formatted_address": "ALH. SALEH AHMED HOUSE MASHI TAURIN KATSINA MASHI, Mashi, Katsina, Nigeria",
      "google_map_url": "https://maps.google.com?q=12.9806247,7.9402184",
      "google_place_id": "ChIJrb0fuF3drxER9nECLmsUNLs"
    }
  },
  {
    "id": "100644",
    "name": "AFANAWA/DOKA - UNG.BADOLE",
    "registration_area_id": "5115",
    "precise_location": null,
    "abbreviation": "007",
    "units": "007",
    "delimitation": "20/27/09/007",
    "remark": "EXISTING PU",
    "ward_id": "5115",
    "ward_name": "KARAU",
    "local_government_id": "440",
    "local_government_name": "MASHI",
    "state_id": "20",
    "state_name": "KATSINA",
    "location": null
  },
  {
    "id": "100645",
    "name": "LANGO - K.G MAI UNG",
    "registration_area_id": "5115",
    "precise_location": null,
    "abbreviation": "008",
    "units": "008",
    "delimitation": "20/27/09/008",
    "remark": "EXISTING PU",
    "ward_id": "5115",
    "ward_name": "KARAU",
    "local_government_id": "440",
    "local_government_name": "MASHI",
    "state_id": "20",
    "state_name": "KATSINA",
    "location": {
      "latitude": 12.9806247,
      "longitude": 7.9402184,
      "viewport": {
        "northeast": {
          "lat": 12.98184752989272,
          "lng": 7.941550779892721
        },
        "southwest": {
          "lat": 12.97914787010728,
          "lng": 7.938851120107277
        }
      },
      "formatted_address": "ALH. SALEH AHMED HOUSE MASHI TAURIN KATSINA MASHI, Mashi, Katsina, Nigeria",
      "google_map_url": "https://maps.google.com?q=12.9806247,7.9402184",
      "google_place_id": "ChIJrb0fuF3drxER9nECLmsUNLs"
    }
  },
  {
    "id": "100646",
    "name": "KARAU SHEKEJI - S/G NASHIRO",
    "registration_area_id": "5115",
    "precise_location": null,
    "abbreviation": "009",
    "units": "009",
    "delimitation": "20/27/09/009",
    "remark": "EXISTING PU",
    "ward_id": "5115",
    "ward_name": "KARAU",
    "local_government_id": "440",
    "local_government_name": "MASHI",
    "state_id": "20",
    "state_name": "KATSINA",
    "location": null
  },
  {
    "id": "100647",
    "name": "BULA AREWA I - PRI.SCHOOL",
    "registration_area_id": "5115",
    "precise_location": null,
    "abbreviation": "010",
    "units": "010",
    "delimitation": "20/27/09/010",
    "remark": "EXISTING PU",
    "ward_id": "5115",
    "ward_name": "KARAU",
    "local_government_id": "440",
    "local_government_name": "MASHI",
    "state_id": "20",
    "state_name": "KATSINA",
    "location": {
      "latitude": 12.9919807,
      "longitude": 7.5984096,
      "viewport": {
        "northeast": {
          "lat": 12.99326747989272,
          "lng": 7.599764229892722
        },
        "southwest": {
          "lat": 12.99056782010728,
          "lng": 7.597064570107278
        }
      },
      "formatted_address": "820101, Katsina, Nigeria",
      "google_map_url": "https://maps.google.com?q=12.9919807,7.5984096",
      "google_place_id": "ChIJxXBXXLg8sBEREHcdu6AGHBw"
    }
  },
  {
    "id": "100648",
    "name": "BULA AREWA II - PRI.SCHOOL",
    "registration_area_id": "5115",
    "precise_location": null,
    "abbreviation": "011",
    "units": "011",
    "delimitation": "20/27/09/011",
    "remark": "EXISTING PU",
    "ward_id": "5115",
    "ward_name": "KARAU",
    "local_government_id": "440",
    "local_government_name": "MASHI",
    "state_id": "20",
    "state_name": "KATSINA",
    "location": {
      "latitude": 12.9919807,
      "longitude": 7.5984096,
      "viewport": {
        "northeast": {
          "lat": 12.99326747989272,
          "lng": 7.599764229892722
        },
        "southwest": {
          "lat": 12.99056782010728,
          "lng": 7.597064570107278
        }
      },
      "formatted_address": "820101, Katsina, Nigeria",
      "google_map_url": "https://maps.google.com?q=12.9919807,7.5984096",
      "google_place_id": "ChIJxXBXXLg8sBEREHcdu6AGHBw"
    }
  },
  {
    "id": "100649",
    "name": "BULA KUDU - K/G DANLADI",
    "registration_area_id": "5115",
    "precise_location": null,
    "abbreviation": "012",
    "units": "012",
    "delimitation": "20/27/09/012",
    "remark": "EXISTING PU",
    "ward_id": "5115",
    "ward_name": "KARAU",
    "local_government_id": "440",
    "local_government_name": "MASHI",
    "state_id": "20",
    "state_name": "KATSINA",
    "location": null
  },
  {
    "id": "100650",
    "name": "BULA  - S/G BULA",
    "registration_area_id": "5115",
    "precise_location": null,
    "abbreviation": "013",
    "units": "013",
    "delimitation": "20/27/09/013",
    "remark": "EXISTING PU",
    "ward_id": "5115",
    "ward_name": "KARAU",
    "local_government_id": "440",
    "local_government_name": "MASHI",
    "state_id": "20",
    "state_name": "KATSINA",
    "location": null
  },
  {
    "id": "100651",
    "name": "WALOJI - K/G M.UNG",
    "registration_area_id": "5115",
    "precise_location": null,
    "abbreviation": "014",
    "units": "014",
    "delimitation": "20/27/09/014",
    "remark": "EXISTING PU",
    "ward_id": "5115",
    "ward_name": "KARAU",
    "local_government_id": "440",
    "local_government_name": "MASHI",
    "state_id": "20",
    "state_name": "KATSINA",
    "location": {
      "latitude": 13.0001356,
      "longitude": 7.6104051,
      "viewport": {
        "northeast": {
          "lat": 13.00188037989272,
          "lng": 7.611451429892723
        },
        "southwest": {
          "lat": 12.99918072010728,
          "lng": 7.608751770107278
        }
      },
      "formatted_address": "Makabarta filin samji, 820101, Katsina, Nigeria",
      "google_map_url": "https://maps.google.com?q=13.0001356,7.6104051",
      "google_place_id": "ChIJ1fGHYaU9sBERq4sgP5MdKBI"
    }
  },
  {
    "id": "100652",
    "name": "TUDU I - K/G MAI UNG ZUBAIRU",
    "registration_area_id": "5115",
    "precise_location": null,
    "abbreviation": "015",
    "units": "015",
    "delimitation": "20/27/09/015",
    "remark": "EXISTING PU",
    "ward_id": "5115",
    "ward_name": "KARAU",
    "local_government_id": "440",
    "local_government_name": "MASHI",
    "state_id": "20",
    "state_name": "KATSINA",
    "location": null
  },
  {
    "id": "100653",
    "name": "TUDU II - K/G MAI UNG ZUBAIRU",
    "registration_area_id": "5115",
    "precise_location": null,
    "abbreviation": "016",
    "units": "016",
    "delimitation": "20/27/09/016",
    "remark": "EXISTING PU",
    "ward_id": "5115",
    "ward_name": "KARAU",
    "local_government_id": "440",
    "local_government_name": "MASHI",
    "state_id": "20",
    "state_name": "KATSINA",
    "location": null
  },
  {
    "id": "100654",
    "name": "MUGUN DUTSE - MAI UNG ZUBAIRU",
    "registration_area_id": "5115",
    "precise_location": null,
    "abbreviation": "017",
    "units": "017",
    "delimitation": "20/27/09/017",
    "remark": "EXISTING PU",
    "ward_id": "5115",
    "ward_name": "KARAU",
    "local_government_id": "440",
    "local_government_name": "MASHI",
    "state_id": "20",
    "state_name": "KATSINA",
    "location": null
  },
  {
    "id": "100655",
    "name": "KARAU BADOLE - AFANAWA",
    "registration_area_id": "5115",
    "precise_location": null,
    "abbreviation": "018",
    "units": "018",
    "delimitation": "20/27/09/018",
    "remark": "EXISTING PU",
    "ward_id": "5115",
    "ward_name": "KARAU",
    "local_government_id": "440",
    "local_government_name": "MASHI",
    "state_id": "20",
    "state_name": "KATSINA",
    "location": null
  },
  {
    "id": "100656",
    "name": "KARAU TSABRE/F.MANDA",
    "registration_area_id": "5115",
    "precise_location": null,
    "abbreviation": "019",
    "units": "019",
    "delimitation": "20/27/09/019",
    "remark": "EXISTING PU",
    "ward_id": "5115",
    "ward_name": "KARAU",
    "local_government_id": "440",
    "local_government_name": "MASHI",
    "state_id": "20",
    "state_name": "KATSINA",
    "location": {
      "latitude": 13.0001356,
      "longitude": 7.6104051,
      "viewport": {
        "northeast": {
          "lat": 13.00188037989272,
          "lng": 7.611451429892723
        },
        "southwest": {
          "lat": 12.99918072010728,
          "lng": 7.608751770107278
        }
      },
      "formatted_address": "Makabarta filin samji, 820101, Katsina, Nigeria",
      "google_map_url": "https://maps.google.com?q=13.0001356,7.6104051",
      "google_place_id": "ChIJ1fGHYaU9sBERq4sgP5MdKBI"
    }
  },
  {
    "id": "100657",
    "name": "GARO TV CENTRE",
    "registration_area_id": "5115",
    "precise_location": null,
    "abbreviation": "020",
    "units": "020",
    "delimitation": "20/27/09/020",
    "remark": "NEW PU",
    "ward_id": "5115",
    "ward_name": "KARAU",
    "local_government_id": "440",
    "local_government_name": "MASHI",
    "state_id": "20",
    "state_name": "KATSINA",
    "location": {
      "latitude": 12.9882939,
      "longitude": 7.6039204,
      "viewport": {
        "northeast": {
          "lat": 12.98968242989272,
          "lng": 7.605262229892721
        },
        "southwest": {
          "lat": 12.98698277010728,
          "lng": 7.602562570107277
        }
      },
      "formatted_address": "XJQ3+8H7, 820101, Katsina, Nigeria",
      "google_map_url": "https://maps.google.com?q=12.9882939,7.6039204",
      "google_place_id": "ChIJidzE0bY8sBERM9k4abovxgo"
    }
  },
  {
    "id": "100658",
    "name": "GARO DISENSARY",
    "registration_area_id": "5115",
    "precise_location": null,
    "abbreviation": "021",
    "units": "021",
    "delimitation": "20/27/09/021",
    "remark": "NEW PU",
    "ward_id": "5115",
    "ward_name": "KARAU",
    "local_government_id": "440",
    "local_government_name": "MASHI",
    "state_id": "20",
    "state_name": "KATSINA",
    "location": {
      "latitude": 13.3238,
      "longitude": 7.9113,
      "viewport": {
        "northeast": {
          "lat": 13.32487127989272,
          "lng": 7.912420729892721
        },
        "southwest": {
          "lat": 13.32217162010728,
          "lng": 7.909721070107278
        }
      },
      "formatted_address": "8WF6+GGF, 823102, Katsina, Nigeria",
      "google_map_url": "https://maps.google.com?q=13.3238,7.9113",
      "google_place_id": "ChIJ3TCrPtT7rxERv6cOZYitCtA"
    }
  },
  {
    "id": "100659",
    "name": "LANGO KATSINA",
    "registration_area_id": "5115",
    "precise_location": null,
    "abbreviation": "022",
    "units": "022",
    "delimitation": "20/27/09/022",
    "remark": "NEW PU",
    "ward_id": "5115",
    "ward_name": "KARAU",
    "local_government_id": "440",
    "local_government_name": "MASHI",
    "state_id": "20",
    "state_name": "KATSINA",
    "location": {
      "latitude": 12.9806247,
      "longitude": 7.9402184,
      "viewport": {
        "northeast": {
          "lat": 12.98184752989272,
          "lng": 7.941550779892721
        },
        "southwest": {
          "lat": 12.97914787010728,
          "lng": 7.938851120107277
        }
      },
      "formatted_address": "ALH. SALEH AHMED HOUSE MASHI TAURIN KATSINA MASHI, Mashi, Katsina, Nigeria",
      "google_map_url": "https://maps.google.com?q=12.9806247,7.9402184",
      "google_place_id": "ChIJrb0fuF3drxER9nECLmsUNLs"
    }
  },
  {
    "id": "100660",
    "name": "SABON GARI NA SHIRO",
    "registration_area_id": "5115",
    "precise_location": null,
    "abbreviation": "023",
    "units": "023",
    "delimitation": "20/27/09/023",
    "remark": "NEW PU",
    "ward_id": "5115",
    "ward_name": "KARAU",
    "local_government_id": "440",
    "local_government_name": "MASHI",
    "state_id": "20",
    "state_name": "KATSINA",
    "location": null
  },
  {
    "id": "100661",
    "name": "BULA ISAR DAWA",
    "registration_area_id": "5115",
    "precise_location": null,
    "abbreviation": "024",
    "units": "024",
    "delimitation": "20/27/09/024",
    "remark": "NEW PU",
    "ward_id": "5115",
    "ward_name": "KARAU",
    "local_government_id": "440",
    "local_government_name": "MASHI",
    "state_id": "20",
    "state_name": "KATSINA",
    "location": null
  },
  {
    "id": "100662",
    "name": "FILIN MANDA DISPENSARY",
    "registration_area_id": "5115",
    "precise_location": null,
    "abbreviation": "025",
    "units": "025",
    "delimitation": "20/27/09/025",
    "remark": "NEW PU",
    "ward_id": "5115",
    "ward_name": "KARAU",
    "local_government_id": "440",
    "local_government_name": "MASHI",
    "state_id": "20",
    "state_name": "KATSINA",
    "location": {
      "latitude": 12.9799,
      "longitude": 7.935099999999998,
      "viewport": {
        "northeast": {
          "lat": 12.98123887989272,
          "lng": 7.936416629892721
        },
        "southwest": {
          "lat": 12.97853922010728,
          "lng": 7.933716970107278
        }
      },
      "formatted_address": "XWHP+X29, 823102, Katsina, Nigeria",
      "google_map_url": "https://maps.google.com?q=12.9799,7.935099999999998",
      "google_place_id": "ChIJz6srspXcrxERUBjxF5tN1ws"
    }
  }
]