[
  {
    "id": "102883",
    "name": "GWADANGAJI M.P.S. GWANDANGAJI",
    "registration_area_id": "5250",
    "precise_location": null,
    "abbreviation": "001",
    "units": "001",
    "delimitation": "21/06/08/001",
    "remark": "EXISTING PU",
    "ward_id": "5250",
    "ward_name": "GWADANGAJI",
    "local_government_id": "453",
    "local_government_name": "BIRNIN KEBBI",
    "state_id": "21",
    "state_name": "KEBBI",
    "location": {
      "latitude": 12.4742727,
      "longitude": 4.2474117,
      "viewport": {
        "northeast": {
          "lat": 12.47572492989272,
          "lng": 4.249056629892721
        },
        "southwest": {
          "lat": 12.47302527010728,
          "lng": 4.246356970107278
        }
      },
      "formatted_address": "F6FW+PX3, justice umar road gwadangaji birnin, Kalgo, Nigeria",
      "google_map_url": "https://maps.google.com?q=12.4742727,4.2474117",
      "google_place_id": "ChIJoyKDuOwNyRERnTzT-EADp80"
    }
  },
  {
    "id": "102884",
    "name": "BANIGATARI/YAR MAMARI G/HAKIMI YAR MAMARI",
    "registration_area_id": "5250",
    "precise_location": null,
    "abbreviation": "002",
    "units": "002",
    "delimitation": "21/06/08/002",
    "remark": "EXISTING PU",
    "ward_id": "5250",
    "ward_name": "GWADANGAJI",
    "local_government_id": "453",
    "local_government_name": "BIRNIN KEBBI",
    "state_id": "21",
    "state_name": "KEBBI",
    "location": {
      "latitude": 12.4552721,
      "longitude": 4.200008299999999,
      "viewport": {
        "northeast": {
          "lat": 12.45663192989272,
          "lng": 4.201331179892722
        },
        "southwest": {
          "lat": 12.45393227010728,
          "lng": 4.198631520107278
        }
      },
      "formatted_address": "F642+422, Along Haliru Abdu Road, 860101, Birnin Kebbi, Nigeria",
      "google_map_url": "https://maps.google.com?q=12.4552721,4.200008299999999",
      "google_place_id": "ChIJu5P1HVcSyRERAcCTjSjpvaw"
    }
  },
  {
    "id": "102885",
    "name": "YAWURAWA  G/SABO WAKILI",
    "registration_area_id": "5250",
    "precise_location": null,
    "abbreviation": "003",
    "units": "003",
    "delimitation": "21/06/08/003",
    "remark": "EXISTING PU",
    "ward_id": "5250",
    "ward_name": "GWADANGAJI",
    "local_government_id": "453",
    "local_government_name": "BIRNIN KEBBI",
    "state_id": "21",
    "state_name": "KEBBI",
    "location": {
      "latitude": 12.4642827,
      "longitude": 4.2230194,
      "viewport": {
        "northeast": {
          "lat": 12.46557817989272,
          "lng": 4.224233929892722
        },
        "southwest": {
          "lat": 12.46287852010727,
          "lng": 4.221534270107278
        }
      },
      "formatted_address": "F67F+P66, Argungu Road, 860101, Birnin Kebbi, Nigeria",
      "google_map_url": "https://maps.google.com?q=12.4642827,4.2230194",
      "google_place_id": "ChIJl32FpnUSyRERZKbhOQWzERM"
    }
  },
  {
    "id": "102886",
    "name": "BUSAWA  G/MAIRIGA WAKILI",
    "registration_area_id": "5250",
    "precise_location": null,
    "abbreviation": "004",
    "units": "004",
    "delimitation": "21/06/08/004",
    "remark": "EXISTING PU",
    "ward_id": "5250",
    "ward_name": "GWADANGAJI",
    "local_government_id": "453",
    "local_government_name": "BIRNIN KEBBI",
    "state_id": "21",
    "state_name": "KEBBI",
    "location": {
      "latitude": 12.4758951,
      "longitude": 4.2479885,
      "viewport": {
        "northeast": {
          "lat": 12.47724492989272,
          "lng": 4.249338329892721
        },
        "southwest": {
          "lat": 12.47454527010727,
          "lng": 4.246638670107277
        }
      },
      "formatted_address": "Gwadangaji, 860101, Gwadan Gaji, Nigeria",
      "google_map_url": "https://maps.google.com?q=12.4758951,4.2479885",
      "google_place_id": "ChIJkY0yj-wNyRERmOjOLho82dc"
    }
  },
  {
    "id": "102887",
    "name": "BANIGATARI  G/MAGAJI",
    "registration_area_id": "5250",
    "precise_location": null,
    "abbreviation": "005",
    "units": "005",
    "delimitation": "21/06/08/005",
    "remark": "EXISTING PU",
    "ward_id": "5250",
    "ward_name": "GWADANGAJI",
    "local_government_id": "453",
    "local_government_name": "BIRNIN KEBBI",
    "state_id": "21",
    "state_name": "KEBBI",
    "location": {
      "latitude": 12.4629776,
      "longitude": 4.2000572,
      "viewport": {
        "northeast": {
          "lat": 12.46441197989272,
          "lng": 4.201424429892722
        },
        "southwest": {
          "lat": 12.46171232010728,
          "lng": 4.198724770107278
        }
      },
      "formatted_address": "F672+52V, Murtala Mohammed Road, 860101, Birnin Kebbi, Nigeria",
      "google_map_url": "https://maps.google.com?q=12.4629776,4.2000572",
      "google_place_id": "ChIJS9T7JFATyRERD2XoM_zXhOw"
    }
  },
  {
    "id": "102888",
    "name": "KABAWA MASALLACI, KABAWA",
    "registration_area_id": "5250",
    "precise_location": null,
    "abbreviation": "006",
    "units": "006",
    "delimitation": "21/06/08/006",
    "remark": "EXISTING PU",
    "ward_id": "5250",
    "ward_name": "GWADANGAJI",
    "local_government_id": "453",
    "local_government_name": "BIRNIN KEBBI",
    "state_id": "21",
    "state_name": "KEBBI",
    "location": {
      "latitude": 12.4411786,
      "longitude": 4.1933004,
      "viewport": {
        "northeast": {
          "lat": 12.44298422989272,
          "lng": 4.194918179892722
        },
        "southwest": {
          "lat": 12.44028457010728,
          "lng": 4.192218520107279
        }
      },
      "formatted_address": "Haliru Abdu, 860101, Birnin Kebbi, Nigeria",
      "google_map_url": "https://maps.google.com?q=12.4411786,4.1933004",
      "google_place_id": "ChIJiaaiH1QTyRERdaOybd0nlEY"
    }
  },
  {
    "id": "102889",
    "name": "BUSAWA  KASUWAR DAJI BUSAWA",
    "registration_area_id": "5250",
    "precise_location": null,
    "abbreviation": "007",
    "units": "007",
    "delimitation": "21/06/08/007",
    "remark": "EXISTING PU",
    "ward_id": "5250",
    "ward_name": "GWADANGAJI",
    "local_government_id": "453",
    "local_government_name": "BIRNIN KEBBI",
    "state_id": "21",
    "state_name": "KEBBI",
    "location": {
      "latitude": 12.4758951,
      "longitude": 4.2479885,
      "viewport": {
        "northeast": {
          "lat": 12.47724492989272,
          "lng": 4.249338329892721
        },
        "southwest": {
          "lat": 12.47454527010727,
          "lng": 4.246638670107277
        }
      },
      "formatted_address": "Gwadangaji, 860101, Gwadan Gaji, Nigeria",
      "google_map_url": "https://maps.google.com?q=12.4758951,4.2479885",
      "google_place_id": "ChIJkY0yj-wNyRERmOjOLho82dc"
    }
  },
  {
    "id": "102890",
    "name": "KAWARA  G/UBANDAWAKI KAWARA",
    "registration_area_id": "5250",
    "precise_location": null,
    "abbreviation": "008",
    "units": "008",
    "delimitation": "21/06/08/008",
    "remark": "EXISTING PU",
    "ward_id": "5250",
    "ward_name": "GWADANGAJI",
    "local_government_id": "453",
    "local_government_name": "BIRNIN KEBBI",
    "state_id": "21",
    "state_name": "KEBBI",
    "location": {
      "latitude": 12.3330063,
      "longitude": 4.1552852,
      "viewport": {
        "northeast": {
          "lat": 12.33436087989272,
          "lng": 4.156618529892723
        },
        "southwest": {
          "lat": 12.33166122010728,
          "lng": 4.153918870107279
        }
      },
      "formatted_address": "85M4+643, Birnin Kebbi Kalgo Rd, 862104, Kalgo, Nigeria",
      "google_map_url": "https://maps.google.com?q=12.3330063,4.1552852",
      "google_place_id": "ChIJ3ygmyrBtyRERDwbkPrYA-VI"
    }
  },
  {
    "id": "102891",
    "name": "GAZO  G/DIKKO GAZO",
    "registration_area_id": "5250",
    "precise_location": null,
    "abbreviation": "009",
    "units": "009",
    "delimitation": "21/06/08/009",
    "remark": "EXISTING PU",
    "ward_id": "5250",
    "ward_name": "GWADANGAJI",
    "local_government_id": "453",
    "local_government_name": "BIRNIN KEBBI",
    "state_id": "21",
    "state_name": "KEBBI",
    "location": {
      "latitude": 12.4758951,
      "longitude": 4.2479885,
      "viewport": {
        "northeast": {
          "lat": 12.47724492989272,
          "lng": 4.249338329892721
        },
        "southwest": {
          "lat": 12.47454527010727,
          "lng": 4.246638670107277
        }
      },
      "formatted_address": "Gwadangaji, 860101, Gwadan Gaji, Nigeria",
      "google_map_url": "https://maps.google.com?q=12.4758951,4.2479885",
      "google_place_id": "ChIJkY0yj-wNyRERmOjOLho82dc"
    }
  },
  {
    "id": "102892",
    "name": "KASUWAR DAJI, GWADANGAJI",
    "registration_area_id": "5250",
    "precise_location": null,
    "abbreviation": "010",
    "units": "010",
    "delimitation": "21/06/08/010",
    "remark": "EXISTING PU",
    "ward_id": "5250",
    "ward_name": "GWADANGAJI",
    "local_government_id": "453",
    "local_government_name": "BIRNIN KEBBI",
    "state_id": "21",
    "state_name": "KEBBI",
    "location": {
      "latitude": 12.4757348,
      "longitude": 4.2485083,
      "viewport": {
        "northeast": {
          "lat": 12.47703332989272,
          "lng": 4.249740429892722
        },
        "southwest": {
          "lat": 12.47433367010728,
          "lng": 4.247040770107279
        }
      },
      "formatted_address": "Opp Kebbi State Secretariat Gwadangaji, Birnin Kebbi - Argungu Rd, Nigeria",
      "google_map_url": "https://maps.google.com?q=12.4757348,4.2485083",
      "google_place_id": "ChIJ1_8tg-wNyRERNKd1nxpL-rk"
    }
  },
  {
    "id": "102893",
    "name": "GWADANGAJI MASALLACI (DAN - FILI)",
    "registration_area_id": "5250",
    "precise_location": null,
    "abbreviation": "011",
    "units": "011",
    "delimitation": "21/06/08/011",
    "remark": "EXISTING PU",
    "ward_id": "5250",
    "ward_name": "GWADANGAJI",
    "local_government_id": "453",
    "local_government_name": "BIRNIN KEBBI",
    "state_id": "21",
    "state_name": "KEBBI",
    "location": {
      "latitude": 12.4668985,
      "longitude": 4.1998507,
      "viewport": {
        "northeast": {
          "lat": 12.46817887989272,
          "lng": 4.201208079892723
        },
        "southwest": {
          "lat": 12.46547922010728,
          "lng": 4.198508420107279
        }
      },
      "formatted_address": "F58X+QW5, Mal Haruna Gilma Road, 860101, Birnin Kebbi, Nigeria",
      "google_map_url": "https://maps.google.com?q=12.4668985,4.1998507",
      "google_place_id": "ChIJ7RAKQlcTyRERXbmtuW9Y_b8"
    }
  },
  {
    "id": "102894",
    "name": "GWADANGAJI MPS NURSERY SESSION",
    "registration_area_id": "5250",
    "precise_location": null,
    "abbreviation": "012",
    "units": "012",
    "delimitation": "21/06/08/012",
    "remark": "NEW PU",
    "ward_id": "5250",
    "ward_name": "GWADANGAJI",
    "local_government_id": "453",
    "local_government_name": "BIRNIN KEBBI",
    "state_id": "21",
    "state_name": "KEBBI",
    "location": {
      "latitude": 12.4458568,
      "longitude": 4.2261237,
      "viewport": {
        "northeast": {
          "lat": 12.44716447989272,
          "lng": 4.227326829892722
        },
        "southwest": {
          "lat": 12.44446482010728,
          "lng": 4.224627170107278
        }
      },
      "formatted_address": "C6WG+8CX, Sani Abacha Bye Pass, 860101, Birnin Kebbi, Nigeria",
      "google_map_url": "https://maps.google.com?q=12.4458568,4.2261237",
      "google_place_id": "ChIJBR69IiwTyRERLPf8i4jVLFw"
    }
  },
  {
    "id": "102895",
    "name": "PEARL HARBOUR MODEL ACADEMY GWADANGAJI",
    "registration_area_id": "5250",
    "precise_location": null,
    "abbreviation": "013",
    "units": "013",
    "delimitation": "21/06/08/013",
    "remark": "NEW PU",
    "ward_id": "5250",
    "ward_name": "GWADANGAJI",
    "local_government_id": "453",
    "local_government_name": "BIRNIN KEBBI",
    "state_id": "21",
    "state_name": "KEBBI",
    "location": {
      "latitude": 12.4758951,
      "longitude": 4.2479885,
      "viewport": {
        "northeast": {
          "lat": 12.47724492989272,
          "lng": 4.249338329892721
        },
        "southwest": {
          "lat": 12.47454527010727,
          "lng": 4.246638670107277
        }
      },
      "formatted_address": "Gwadangaji, 860101, Gwadan Gaji, Nigeria",
      "google_map_url": "https://maps.google.com?q=12.4758951,4.2479885",
      "google_place_id": "ChIJkY0yj-wNyRERmOjOLho82dc"
    }
  },
  {
    "id": "102896",
    "name": "GWADANGAJI TASHA",
    "registration_area_id": "5250",
    "precise_location": null,
    "abbreviation": "014",
    "units": "014",
    "delimitation": "21/06/08/014",
    "remark": "NEW PU",
    "ward_id": "5250",
    "ward_name": "GWADANGAJI",
    "local_government_id": "453",
    "local_government_name": "BIRNIN KEBBI",
    "state_id": "21",
    "state_name": "KEBBI",
    "location": {
      "latitude": 12.4755311,
      "longitude": 4.2470496,
      "viewport": {
        "northeast": {
          "lat": 12.47700652989272,
          "lng": 4.248487279892721
        },
        "southwest": {
          "lat": 12.47430687010728,
          "lng": 4.245787620107278
        }
      },
      "formatted_address": "Kebbi State Secretariat, Gwadangaji, 860101, Gwadan Gaji, Nigeria",
      "google_map_url": "https://maps.google.com?q=12.4755311,4.2470496",
      "google_place_id": "ChIJ74fS6-wNyRERRvCdtkT537c"
    }
  },
  {
    "id": "102897",
    "name": "ALIERO QUARTERS GIDAN RUWA",
    "registration_area_id": "5250",
    "precise_location": null,
    "abbreviation": "015",
    "units": "015",
    "delimitation": "21/06/08/015",
    "remark": "NEW PU",
    "ward_id": "5250",
    "ward_name": "GWADANGAJI",
    "local_government_id": "453",
    "local_government_name": "BIRNIN KEBBI",
    "state_id": "21",
    "state_name": "KEBBI",
    "location": {
      "latitude": 12.4734768,
      "longitude": 4.265249799999999,
      "viewport": {
        "northeast": {
          "lat": 12.47485012989272,
          "lng": 4.26667252989272
        },
        "southwest": {
          "lat": 12.47215047010728,
          "lng": 4.263972870107276
        }
      },
      "formatted_address": "F7F8+93X, Sani Abacha Bye Pass, 860101, Birnin Kebbi, Nigeria",
      "google_map_url": "https://maps.google.com?q=12.4734768,4.265249799999999",
      "google_place_id": "ChIJGZipH8gNyRERiEUhLknasHY"
    }
  },
  {
    "id": "102898",
    "name": "ALEIRO QUARTERS MPS",
    "registration_area_id": "5250",
    "precise_location": null,
    "abbreviation": "016",
    "units": "016",
    "delimitation": "21/06/08/016",
    "remark": "NEW PU",
    "ward_id": "5250",
    "ward_name": "GWADANGAJI",
    "local_government_id": "453",
    "local_government_name": "BIRNIN KEBBI",
    "state_id": "21",
    "state_name": "KEBBI",
    "location": {
      "latitude": 12.4734768,
      "longitude": 4.265249799999999,
      "viewport": {
        "northeast": {
          "lat": 12.47485012989272,
          "lng": 4.26667252989272
        },
        "southwest": {
          "lat": 12.47215047010728,
          "lng": 4.263972870107276
        }
      },
      "formatted_address": "F7F8+93X, Sani Abacha Bye Pass, 860101, Birnin Kebbi, Nigeria",
      "google_map_url": "https://maps.google.com?q=12.4734768,4.265249799999999",
      "google_place_id": "ChIJGZipH8gNyRERiEUhLknasHY"
    }
  },
  {
    "id": "102899",
    "name": "DANMANYA ANIMAL CHEMIST",
    "registration_area_id": "5250",
    "precise_location": null,
    "abbreviation": "017",
    "units": "017",
    "delimitation": "21/06/08/017",
    "remark": "NEW PU",
    "ward_id": "5250",
    "ward_name": "GWADANGAJI",
    "local_government_id": "453",
    "local_government_name": "BIRNIN KEBBI",
    "state_id": "21",
    "state_name": "KEBBI",
    "location": {
      "latitude": 12.4466564,
      "longitude": 4.180605799999999,
      "viewport": {
        "northeast": {
          "lat": 12.44801367989272,
          "lng": 4.181943979892722
        },
        "southwest": {
          "lat": 12.44531402010728,
          "lng": 4.179244320107278
        }
      },
      "formatted_address": "C5WJ+J6Q, Abubakar Gari Malam Road, Badariya 860101, Birnin Kebbi, Nigeria",
      "google_map_url": "https://maps.google.com?q=12.4466564,4.180605799999999",
      "google_place_id": "ChIJTVycYaUTyRERnhWErR6VLbg"
    }
  },
  {
    "id": "102900",
    "name": "GIDAN RUWA",
    "registration_area_id": "5250",
    "precise_location": null,
    "abbreviation": "018",
    "units": "018",
    "delimitation": "21/06/08/018",
    "remark": "NEW PU",
    "ward_id": "5250",
    "ward_name": "GWADANGAJI",
    "local_government_id": "453",
    "local_government_name": "BIRNIN KEBBI",
    "state_id": "21",
    "state_name": "KEBBI",
    "location": {
      "latitude": 12.4818811,
      "longitude": 4.2647593,
      "viewport": {
        "northeast": {
          "lat": 12.48333072989272,
          "lng": 4.266027429892722
        },
        "southwest": {
          "lat": 12.48063107010728,
          "lng": 4.263327770107278
        }
      },
      "formatted_address": "Birnin Kebbi - Argungu Rd, 860101, Gwadan Gaji, Nigeria",
      "google_map_url": "https://maps.google.com?q=12.4818811,4.2647593",
      "google_place_id": "ChIJ-ap6yFMNyRERs91COFyJJ8Y"
    }
  },
  {
    "id": "102901",
    "name": "YAWURAWA INJIMIN ZUHURI",
    "registration_area_id": "5250",
    "precise_location": null,
    "abbreviation": "019",
    "units": "019",
    "delimitation": "21/06/08/019",
    "remark": "NEW PU",
    "ward_id": "5250",
    "ward_name": "GWADANGAJI",
    "local_government_id": "453",
    "local_government_name": "BIRNIN KEBBI",
    "state_id": "21",
    "state_name": "KEBBI",
    "location": {
      "latitude": 12.4495178,
      "longitude": 4.2023016,
      "viewport": {
        "northeast": {
          "lat": 12.45086572989272,
          "lng": 4.203600679892721
        },
        "southwest": {
          "lat": 12.44816607010728,
          "lng": 4.200901020107278
        }
      },
      "formatted_address": "C6X2+QVW, Umaru Gwadu Road, 860101, Birnin Kebbi, Nigeria",
      "google_map_url": "https://maps.google.com?q=12.4495178,4.2023016",
      "google_place_id": "ChIJhaQIHgMTyRERUaR8X9hCbF4"
    }
  },
  {
    "id": "102902",
    "name": "BUSAWA FILIN SADO BAWA KADE",
    "registration_area_id": "5250",
    "precise_location": null,
    "abbreviation": "020",
    "units": "020",
    "delimitation": "21/06/08/020",
    "remark": "NEW PU",
    "ward_id": "5250",
    "ward_name": "GWADANGAJI",
    "local_government_id": "453",
    "local_government_name": "BIRNIN KEBBI",
    "state_id": "21",
    "state_name": "KEBBI",
    "location": {
      "latitude": 12.4495178,
      "longitude": 4.2023016,
      "viewport": {
        "northeast": {
          "lat": 12.45086572989272,
          "lng": 4.203600679892721
        },
        "southwest": {
          "lat": 12.44816607010728,
          "lng": 4.200901020107278
        }
      },
      "formatted_address": "C6X2+QVW, Umaru Gwadu Road, 860101, Birnin Kebbi, Nigeria",
      "google_map_url": "https://maps.google.com?q=12.4495178,4.2023016",
      "google_place_id": "ChIJhaQIHgMTyRERUaR8X9hCbF4"
    }
  },
  {
    "id": "102903",
    "name": "BANI GATARI SHARI'A COURT",
    "registration_area_id": "5250",
    "precise_location": null,
    "abbreviation": "021",
    "units": "021",
    "delimitation": "21/06/08/021",
    "remark": "NEW PU",
    "ward_id": "5250",
    "ward_name": "GWADANGAJI",
    "local_government_id": "453",
    "local_government_name": "BIRNIN KEBBI",
    "state_id": "21",
    "state_name": "KEBBI",
    "location": {
      "latitude": 8.9992016,
      "longitude": 7.4783902,
      "viewport": {
        "northeast": {
          "lat": 9.000501029892721,
          "lng": 7.480019279892722
        },
        "southwest": {
          "lat": 8.997801370107277,
          "lng": 7.477319620107278
        }
      },
      "formatted_address": "XFXH+M85, Gudu 900110, Abuja, Nigeria",
      "google_map_url": "https://maps.google.com?q=8.9992016,7.4783902",
      "google_place_id": "ChIJPTeRNfQMThARcVymh93iQMc"
    }
  },
  {
    "id": "102904",
    "name": "KABAWA GIDAN RUWA",
    "registration_area_id": "5250",
    "precise_location": null,
    "abbreviation": "022",
    "units": "022",
    "delimitation": "21/06/08/022",
    "remark": "NEW PU",
    "ward_id": "5250",
    "ward_name": "GWADANGAJI",
    "local_government_id": "453",
    "local_government_name": "BIRNIN KEBBI",
    "state_id": "21",
    "state_name": "KEBBI",
    "location": {
      "latitude": 12.4669866,
      "longitude": 4.204897799999999,
      "viewport": {
        "northeast": {
          "lat": 12.46836802989272,
          "lng": 4.206239879892721
        },
        "southwest": {
          "lat": 12.46566837010728,
          "lng": 4.203540220107277
        }
      },
      "formatted_address": "Ama Umar Close, 860101, Birnin Kebbi, Nigeria",
      "google_map_url": "https://maps.google.com?q=12.4669866,4.204897799999999",
      "google_place_id": "ChIJucngzKETyRERK25Pri04cHE"
    }
  },
  {
    "id": "102905",
    "name": "KABAWA KASUWAR GARI",
    "registration_area_id": "5250",
    "precise_location": null,
    "abbreviation": "023",
    "units": "023",
    "delimitation": "21/06/08/023",
    "remark": "NEW PU",
    "ward_id": "5250",
    "ward_name": "GWADANGAJI",
    "local_government_id": "453",
    "local_government_name": "BIRNIN KEBBI",
    "state_id": "21",
    "state_name": "KEBBI",
    "location": {
      "latitude": 12.4757348,
      "longitude": 4.2485083,
      "viewport": {
        "northeast": {
          "lat": 12.47703332989272,
          "lng": 4.249740429892722
        },
        "southwest": {
          "lat": 12.47433367010728,
          "lng": 4.247040770107279
        }
      },
      "formatted_address": "Opp Kebbi State Secretariat Gwadangaji, Birnin Kebbi - Argungu Rd, Nigeria",
      "google_map_url": "https://maps.google.com?q=12.4757348,4.2485083",
      "google_place_id": "ChIJ1_8tg-wNyRERNKd1nxpL-rk"
    }
  },
  {
    "id": "102906",
    "name": "KASUWA DAJI DARBEJUN ALA",
    "registration_area_id": "5250",
    "precise_location": null,
    "abbreviation": "024",
    "units": "024",
    "delimitation": "21/06/08/024",
    "remark": "NEW PU",
    "ward_id": "5250",
    "ward_name": "GWADANGAJI",
    "local_government_id": "453",
    "local_government_name": "BIRNIN KEBBI",
    "state_id": "21",
    "state_name": "KEBBI",
    "location": {
      "latitude": 12.3330063,
      "longitude": 4.1552852,
      "viewport": {
        "northeast": {
          "lat": 12.33436087989272,
          "lng": 4.156618529892723
        },
        "southwest": {
          "lat": 12.33166122010728,
          "lng": 4.153918870107279
        }
      },
      "formatted_address": "85M4+643, Birnin Kebbi Kalgo Rd, 862104, Kalgo, Nigeria",
      "google_map_url": "https://maps.google.com?q=12.3330063,4.1552852",
      "google_place_id": "ChIJ3ygmyrBtyRERDwbkPrYA-VI"
    }
  },
  {
    "id": "102907",
    "name": "GWADANGAJI MDGS CLINIC",
    "registration_area_id": "5250",
    "precise_location": null,
    "abbreviation": "025",
    "units": "025",
    "delimitation": "21/06/08/025",
    "remark": "NEW PU",
    "ward_id": "5250",
    "ward_name": "GWADANGAJI",
    "local_government_id": "453",
    "local_government_name": "BIRNIN KEBBI",
    "state_id": "21",
    "state_name": "KEBBI",
    "location": {
      "latitude": 12.4317584,
      "longitude": 4.1956212,
      "viewport": {
        "northeast": {
          "lat": 12.43309212989272,
          "lng": 4.196851329892723
        },
        "southwest": {
          "lat": 12.43039247010728,
          "lng": 4.194151670107279
        }
      },
      "formatted_address": "C5JW+P65, 860101, Birnin Kebbi, Nigeria",
      "google_map_url": "https://maps.google.com?q=12.4317584,4.1956212",
      "google_place_id": "ChIJnSLdsGITyRERcmcaErPx80I"
    }
  }
]