[
  {
    "id": "47420",
    "name": "UBURU CENTRAL SCHOOL",
    "registration_area_id": "2571",
    "precise_location": null,
    "abbreviation": "001",
    "units": "001",
    "delimitation": "11/11/04/001",
    "remark": "EXISTING PU",
    "ward_id": "2571",
    "ward_name": "OBIOZARA",
    "local_government_id": "222",
    "local_government_name": "OHAOZARA",
    "state_id": "11",
    "state_name": "EBONYI",
    "location": {
      "latitude": 6.0442846,
      "longitude": 7.756347700000001,
      "viewport": {
        "northeast": {
          "lat": 6.045633479892722,
          "lng": 7.757692629892722
        },
        "southwest": {
          "lat": 6.042933820107278,
          "lng": 7.754992970107278
        }
      },
      "formatted_address": "2QV4+PG9, 491105, Uburu, Nigeria",
      "google_map_url": "https://maps.google.com?q=6.0442846,7.756347700000001",
      "google_place_id": "ChIJ9THnYe9KQxARJb_nVt9pdcY"
    }
  },
  {
    "id": "47421",
    "name": "OLD MARKET SQUARE",
    "registration_area_id": "2571",
    "precise_location": null,
    "abbreviation": "002",
    "units": "002",
    "delimitation": "11/11/04/002",
    "remark": "EXISTING PU",
    "ward_id": "2571",
    "ward_name": "OBIOZARA",
    "local_government_id": "222",
    "local_government_name": "OHAOZARA",
    "state_id": "11",
    "state_name": "EBONYI",
    "location": {
      "latitude": 6.0469497,
      "longitude": 7.7552606,
      "viewport": {
        "northeast": {
          "lat": 6.048227779892722,
          "lng": 7.756554629892722
        },
        "southwest": {
          "lat": 6.045528120107278,
          "lng": 7.753854970107279
        }
      },
      "formatted_address": "2QW4+Q4C, Umuorji Eweze, 491101, Uburu, Nigeria",
      "google_map_url": "https://maps.google.com?q=6.0469497,7.7552606",
      "google_place_id": "ChIJM-AdPV1LQxARzuHecIJfTRI"
    }
  },
  {
    "id": "47422",
    "name": "NEW MARKET SQUARE",
    "registration_area_id": "2571",
    "precise_location": null,
    "abbreviation": "003",
    "units": "003",
    "delimitation": "11/11/04/003",
    "remark": "EXISTING PU",
    "ward_id": "2571",
    "ward_name": "OBIOZARA",
    "local_government_id": "222",
    "local_government_name": "OHAOZARA",
    "state_id": "11",
    "state_name": "EBONYI",
    "location": {
      "latitude": 6.0506807,
      "longitude": 7.741093899999999,
      "viewport": {
        "northeast": {
          "lat": 6.052031829892723,
          "lng": 7.742466029892722
        },
        "southwest": {
          "lat": 6.049332170107279,
          "lng": 7.739766370107279
        }
      },
      "formatted_address": "3P2R+7CH, 491101, Uburu, Nigeria",
      "google_map_url": "https://maps.google.com?q=6.0506807,7.741093899999999",
      "google_place_id": "ChIJ2-6V8VVKQxAR5m1Z8nyjxek"
    }
  },
  {
    "id": "47423",
    "name": "ISHIEKE VILLAGE SQUARE",
    "registration_area_id": "2571",
    "precise_location": null,
    "abbreviation": "004",
    "units": "004",
    "delimitation": "11/11/04/004",
    "remark": "EXISTING PU",
    "ward_id": "2571",
    "ward_name": "OBIOZARA",
    "local_government_id": "222",
    "local_government_name": "OHAOZARA",
    "state_id": "11",
    "state_name": "EBONYI",
    "location": {
      "latitude": 6.385025199999999,
      "longitude": 8.027427399999999,
      "viewport": {
        "northeast": {
          "lat": 6.386144429892723,
          "lng": 8.028743779892721
        },
        "southwest": {
          "lat": 6.383444770107279,
          "lng": 8.026044120107278
        }
      },
      "formatted_address": "92PG+2X7, 481101, Ishieke, Nigeria",
      "google_map_url": "https://maps.google.com?q=6.385025199999999,8.027427399999999",
      "google_place_id": "ChIJRwI6trxZWxARklbC_8pQG3M"
    }
  },
  {
    "id": "47424",
    "name": "UPE SCHOOL AMATA",
    "registration_area_id": "2571",
    "precise_location": null,
    "abbreviation": "005",
    "units": "005",
    "delimitation": "11/11/04/005",
    "remark": "EXISTING PU",
    "ward_id": "2571",
    "ward_name": "OBIOZARA",
    "local_government_id": "222",
    "local_government_name": "OHAOZARA",
    "state_id": "11",
    "state_name": "EBONYI",
    "location": {
      "latitude": 5.896389999999999,
      "longitude": 7.941055400000001,
      "viewport": {
        "northeast": {
          "lat": 5.897711179892722,
          "lng": 7.942401929892723
        },
        "southwest": {
          "lat": 5.895011520107278,
          "lng": 7.939702270107279
        }
      },
      "formatted_address": "VWWR+G9, 490103, Mgbom, Nigeria",
      "google_map_url": "https://maps.google.com?q=5.896389999999999,7.941055400000001",
      "google_place_id": "ChIJUQ4chpTPXBAR5Y_1OcATEds"
    }
  },
  {
    "id": "47425",
    "name": "UBURU CUSTOMARY COURT",
    "registration_area_id": "2571",
    "precise_location": null,
    "abbreviation": "006",
    "units": "006",
    "delimitation": "11/11/04/006",
    "remark": "EXISTING PU",
    "ward_id": "2571",
    "ward_name": "OBIOZARA",
    "local_government_id": "222",
    "local_government_name": "OHAOZARA",
    "state_id": "11",
    "state_name": "EBONYI",
    "location": {
      "latitude": 6.046947299999999,
      "longitude": 7.755251700000001,
      "viewport": {
        "northeast": {
          "lat": 6.048228029892721,
          "lng": 7.756554329892722
        },
        "southwest": {
          "lat": 6.045528370107277,
          "lng": 7.753854670107279
        }
      },
      "formatted_address": "491101, Uburu, Nigeria",
      "google_map_url": "https://maps.google.com?q=6.046947299999999,7.755251700000001",
      "google_place_id": "ChIJ-Wa1tGFLQxAReaWuBVyezYY"
    }
  },
  {
    "id": "47426",
    "name": "OBIOZARA CITY COMMERCIAL SCHOOL",
    "registration_area_id": "2571",
    "precise_location": null,
    "abbreviation": "007",
    "units": "007",
    "delimitation": "11/11/04/007",
    "remark": "EXISTING PU",
    "ward_id": "2571",
    "ward_name": "OBIOZARA",
    "local_government_id": "222",
    "local_government_name": "OHAOZARA",
    "state_id": "11",
    "state_name": "EBONYI",
    "location": {
      "latitude": 6.047859,
      "longitude": 7.773249000000001,
      "viewport": {
        "northeast": {
          "lat": 6.049146129892723,
          "lng": 7.774559329892722
        },
        "southwest": {
          "lat": 6.046446470107279,
          "lng": 7.771859670107278
        }
      },
      "formatted_address": "2QXF+47X, 491101, Okposi, Nigeria",
      "google_map_url": "https://maps.google.com?q=6.047859,7.773249000000001",
      "google_place_id": "ChIJHWCCbNpKQxARfLxS75zg64E"
    }
  },
  {
    "id": "47427",
    "name": "UMUOBASI HALL I",
    "registration_area_id": "2571",
    "precise_location": null,
    "abbreviation": "008",
    "units": "008",
    "delimitation": "11/11/04/008",
    "remark": "EXISTING PU",
    "ward_id": "2571",
    "ward_name": "OBIOZARA",
    "local_government_id": "222",
    "local_government_name": "OHAOZARA",
    "state_id": "11",
    "state_name": "EBONYI",
    "location": null
  },
  {
    "id": "47428",
    "name": "UMUOBASI HALL II",
    "registration_area_id": "2571",
    "precise_location": null,
    "abbreviation": "009",
    "units": "009",
    "delimitation": "11/11/04/009",
    "remark": "EXISTING PU",
    "ward_id": "2571",
    "ward_name": "OBIOZARA",
    "local_government_id": "222",
    "local_government_name": "OHAOZARA",
    "state_id": "11",
    "state_name": "EBONYI",
    "location": {
      "latitude": 6.0447967,
      "longitude": 7.751455300000001,
      "viewport": {
        "northeast": {
          "lat": 6.046145829892722,
          "lng": 7.752807179892722
        },
        "southwest": {
          "lat": 6.043446170107278,
          "lng": 7.750107520107278
        }
      },
      "formatted_address": "2QV2+WH8, 491105, Uburu, Nigeria",
      "google_map_url": "https://maps.google.com?q=6.0447967,7.751455300000001",
      "google_place_id": "ChIJpYKTo_pKQxARXw8EoUexsnE"
    }
  },
  {
    "id": "47429",
    "name": "IVUOGWU VILLAGE SQUARE",
    "registration_area_id": "2571",
    "precise_location": null,
    "abbreviation": "010",
    "units": "010",
    "delimitation": "11/11/04/010",
    "remark": "EXISTING PU",
    "ward_id": "2571",
    "ward_name": "OBIOZARA",
    "local_government_id": "222",
    "local_government_name": "OHAOZARA",
    "state_id": "11",
    "state_name": "EBONYI",
    "location": {
      "latitude": 6.0344099,
      "longitude": 7.821469700000001,
      "viewport": {
        "northeast": {
          "lat": 6.035849779892722,
          "lng": 7.822773729892722
        },
        "southwest": {
          "lat": 6.033150120107278,
          "lng": 7.820074070107278
        }
      },
      "formatted_address": "2RMC+QH9, Ugwulangwu, Ebonyi State, Okposi, Nigeria",
      "google_map_url": "https://maps.google.com?q=6.0344099,7.821469700000001",
      "google_place_id": "ChIJlyByp06wXBARJsCGOCZtoII"
    }
  },
  {
    "id": "47430",
    "name": "AJA AMAEZE MARKET SQAURE",
    "registration_area_id": "2571",
    "precise_location": null,
    "abbreviation": "011",
    "units": "011",
    "delimitation": "11/11/04/011",
    "remark": "EXISTING PU",
    "ward_id": "2571",
    "ward_name": "OBIOZARA",
    "local_government_id": "222",
    "local_government_name": "OHAOZARA",
    "state_id": "11",
    "state_name": "EBONYI",
    "location": {
      "latitude": 5.960859999999999,
      "longitude": 7.551126000000001,
      "viewport": {
        "northeast": {
          "lat": 5.962346779892722,
          "lng": 7.552468479892721
        },
        "southwest": {
          "lat": 5.959647120107278,
          "lng": 7.549768820107277
        }
      },
      "formatted_address": "XH62+8FR, 402143, Ishiagu, Nigeria",
      "google_map_url": "https://maps.google.com?q=5.960859999999999,7.551126000000001",
      "google_place_id": "ChIJTQwCJhc5QxARDwNmzGjYtWs"
    }
  },
  {
    "id": "47431",
    "name": "COMMUNITY HIGH SCHOOL UBURU",
    "registration_area_id": "2571",
    "precise_location": null,
    "abbreviation": "012",
    "units": "012",
    "delimitation": "11/11/04/012",
    "remark": "NEW PU",
    "ward_id": "2571",
    "ward_name": "OBIOZARA",
    "local_government_id": "222",
    "local_government_name": "OHAOZARA",
    "state_id": "11",
    "state_name": "EBONYI",
    "location": {
      "latitude": 6.0469499,
      "longitude": 7.755260199999999,
      "viewport": {
        "northeast": {
          "lat": 6.048228029892721,
          "lng": 7.756554329892722
        },
        "southwest": {
          "lat": 6.045528370107277,
          "lng": 7.753854670107279
        }
      },
      "formatted_address": "2QW4+Q4C, 491101, Uburu, Nigeria",
      "google_map_url": "https://maps.google.com?q=6.0469499,7.755260199999999",
      "google_place_id": "ChIJ0X6sCDxLQxARNjFE2wXGiPA"
    }
  },
  {
    "id": "47432",
    "name": "ONU - UNOUKORO VILLAGE SQUARE",
    "registration_area_id": "2571",
    "precise_location": null,
    "abbreviation": "013",
    "units": "013",
    "delimitation": "11/11/04/013",
    "remark": "NEW PU",
    "ward_id": "2571",
    "ward_name": "OBIOZARA",
    "local_government_id": "222",
    "local_government_name": "OHAOZARA",
    "state_id": "11",
    "state_name": "EBONYI",
    "location": {
      "latitude": 6.046947299999999,
      "longitude": 7.755251700000001,
      "viewport": {
        "northeast": {
          "lat": 6.048228029892721,
          "lng": 7.756554329892722
        },
        "southwest": {
          "lat": 6.045528370107277,
          "lng": 7.753854670107279
        }
      },
      "formatted_address": "491101, Uburu, Nigeria",
      "google_map_url": "https://maps.google.com?q=6.046947299999999,7.755251700000001",
      "google_place_id": "ChIJ-Wa1tGFLQxAReaWuBVyezYY"
    }
  },
  {
    "id": "47433",
    "name": "ONU NMAHI AGU VILLAGE SQUARE",
    "registration_area_id": "2571",
    "precise_location": null,
    "abbreviation": "014",
    "units": "014",
    "delimitation": "11/11/04/014",
    "remark": "NEW PU",
    "ward_id": "2571",
    "ward_name": "OBIOZARA",
    "local_government_id": "222",
    "local_government_name": "OHAOZARA",
    "state_id": "11",
    "state_name": "EBONYI",
    "location": {
      "latitude": 6.046947299999999,
      "longitude": 7.755251700000001,
      "viewport": {
        "northeast": {
          "lat": 6.048228029892721,
          "lng": 7.756554329892722
        },
        "southwest": {
          "lat": 6.045528370107277,
          "lng": 7.753854670107279
        }
      },
      "formatted_address": "491101, Uburu, Nigeria",
      "google_map_url": "https://maps.google.com?q=6.046947299999999,7.755251700000001",
      "google_place_id": "ChIJ-Wa1tGFLQxAReaWuBVyezYY"
    }
  },
  {
    "id": "47434",
    "name": "ISHIEKE VILLAGE SQUARE II",
    "registration_area_id": "2571",
    "precise_location": null,
    "abbreviation": "015",
    "units": "015",
    "delimitation": "11/11/04/015",
    "remark": "NEW PU",
    "ward_id": "2571",
    "ward_name": "OBIOZARA",
    "local_government_id": "222",
    "local_government_name": "OHAOZARA",
    "state_id": "11",
    "state_name": "EBONYI",
    "location": {
      "latitude": 6.3797378,
      "longitude": 8.0370657,
      "viewport": {
        "northeast": {
          "lat": 6.381090279892723,
          "lng": 8.038406279892722
        },
        "southwest": {
          "lat": 6.378390620107279,
          "lng": 8.035706620107279
        }
      },
      "formatted_address": "92HP+VRW, 482118, Ishieke, Nigeria",
      "google_map_url": "https://maps.google.com?q=6.3797378,8.0370657",
      "google_place_id": "ChIJReKd3nNZWxAR2KTQD5A5JFU"
    }
  },
  {
    "id": "47435",
    "name": "ONU OGBOROMA PLAY GROUND",
    "registration_area_id": "2571",
    "precise_location": null,
    "abbreviation": "016",
    "units": "016",
    "delimitation": "11/11/04/016",
    "remark": "NEW PU",
    "ward_id": "2571",
    "ward_name": "OBIOZARA",
    "local_government_id": "222",
    "local_government_name": "OHAOZARA",
    "state_id": "11",
    "state_name": "EBONYI",
    "location": {
      "latitude": 5.993913999999999,
      "longitude": 7.881232,
      "viewport": {
        "northeast": {
          "lat": 5.995288779892721,
          "lng": 7.882622079892722
        },
        "southwest": {
          "lat": 5.992589120107277,
          "lng": 7.879922420107278
        }
      },
      "formatted_address": "XVVJ+HF9, 491102, Okposi, Nigeria",
      "google_map_url": "https://maps.google.com?q=5.993913999999999,7.881232",
      "google_place_id": "ChIJ7U90OPLJXBARR3vVFEnCFKg"
    }
  }
]