[
  {
    "id": "332094",
    "name": "KWADAKI - OP",
    "registration_area_id": "16875",
    "precise_location": null,
    "abbreviation": "001",
    "units": "001",
    "delimitation": "25/04/03/001",
    "remark": "EXISTING PU",
    "ward_id": "16875",
    "ward_name": "KARSHI I",
    "local_government_id": "529",
    "local_government_name": "KARU",
    "state_id": "25",
    "state_name": "NASARAWA",
    "location": {
      "latitude": 8.8844727,
      "longitude": 7.660236500000001,
      "viewport": {
        "northeast": {
          "lat": 8.936995999999999,
          "lng": 7.6934336
        },
        "southwest": {
          "lat": 8.835352799999999,
          "lng": 7.591735399999999
        }
      },
      "formatted_address": "Karshi I, Nigeria",
      "google_map_url": "https://maps.google.com?q=8.8844727,7.660236500000001",
      "google_place_id": "ChIJs9lTlVkaThARW5VBi03wH48"
    }
  },
  {
    "id": "332095",
    "name": "KARSHI PADA - OP",
    "registration_area_id": "16875",
    "precise_location": null,
    "abbreviation": "002",
    "units": "002",
    "delimitation": "25/04/03/002",
    "remark": "EXISTING PU",
    "ward_id": "16875",
    "ward_name": "KARSHI I",
    "local_government_id": "529",
    "local_government_name": "KARU",
    "state_id": "25",
    "state_name": "NASARAWA",
    "location": {
      "latitude": 8.8083292,
      "longitude": 7.569414099999999,
      "viewport": {
        "northeast": {
          "lat": 8.81798,
          "lng": 7.573823999999999
        },
        "southwest": {
          "lat": 8.801834,
          "lng": 7.5463239
        }
      },
      "formatted_address": "900107, Karshi, Nigeria",
      "google_map_url": "https://maps.google.com?q=8.8083292,7.569414099999999",
      "google_place_id": "ChIJpdl_LekWThARB3Qw4J480Nk"
    }
  },
  {
    "id": "332096",
    "name": "PIYANKO BOLE - OP",
    "registration_area_id": "16875",
    "precise_location": null,
    "abbreviation": "003",
    "units": "003",
    "delimitation": "25/04/03/003",
    "remark": "EXISTING PU",
    "ward_id": "16875",
    "ward_name": "KARSHI I",
    "local_government_id": "529",
    "local_government_name": "KARU",
    "state_id": "25",
    "state_name": "NASARAWA",
    "location": {
      "latitude": 8.8195672,
      "longitude": 7.5625669,
      "viewport": {
        "northeast": {
          "lat": 8.820917029892719,
          "lng": 7.56391672989272
        },
        "southwest": {
          "lat": 8.818217370107275,
          "lng": 7.561217070107277
        }
      },
      "formatted_address": "JIKWOYI KARSHI ROAD ALONG FCT ABUJA PIYANKO, Abuja, Nigeria",
      "google_map_url": "https://maps.google.com?q=8.8195672,7.5625669",
      "google_place_id": "ChIJva0o19cXThARxoVx8Hy-LMY"
    }
  },
  {
    "id": "332097",
    "name": "KARSHI OROZO - OP",
    "registration_area_id": "16875",
    "precise_location": null,
    "abbreviation": "004",
    "units": "004",
    "delimitation": "25/04/03/004",
    "remark": "EXISTING PU",
    "ward_id": "16875",
    "ward_name": "KARSHI I",
    "local_government_id": "529",
    "local_government_name": "KARU",
    "state_id": "25",
    "state_name": "NASARAWA",
    "location": {
      "latitude": 9.0268067,
      "longitude": 7.6004644,
      "viewport": {
        "northeast": {
          "lat": 9.028173579892723,
          "lng": 7.601823229892722
        },
        "southwest": {
          "lat": 9.02547392010728,
          "lng": 7.599123570107278
        }
      },
      "formatted_address": "Zone d 35 off orozo karshi express way maraba loko nasarawa stsge, New Karu, Nigeria",
      "google_map_url": "https://maps.google.com?q=9.0268067,7.6004644",
      "google_place_id": "ChIJdbaaiq0JThAR0ZgWgbSmmNM"
    }
  },
  {
    "id": "332098",
    "name": "GIDAN SHANANA - OP",
    "registration_area_id": "16875",
    "precise_location": null,
    "abbreviation": "005",
    "units": "005",
    "delimitation": "25/04/03/005",
    "remark": "EXISTING PU",
    "ward_id": "16875",
    "ward_name": "KARSHI I",
    "local_government_id": "529",
    "local_government_name": "KARU",
    "state_id": "25",
    "state_name": "NASARAWA",
    "location": null
  },
  {
    "id": "332099",
    "name": "AURA AHMDIYA",
    "registration_area_id": "16875",
    "precise_location": null,
    "abbreviation": "006",
    "units": "006",
    "delimitation": "25/04/03/006",
    "remark": "NEW PU",
    "ward_id": "16875",
    "ward_name": "KARSHI I",
    "local_government_id": "529",
    "local_government_name": "KARU",
    "state_id": "25",
    "state_name": "NASARAWA",
    "location": {
      "latitude": 8.828455199999999,
      "longitude": 7.5800124,
      "viewport": {
        "northeast": {
          "lat": 8.82994182989272,
          "lng": 7.581398729892721
        },
        "southwest": {
          "lat": 8.827242170107276,
          "lng": 7.578699070107278
        }
      },
      "formatted_address": "RHHH+9X5, Palace Road, 900107, Karshi, Nigeria",
      "google_map_url": "https://maps.google.com?q=8.828455199999999,7.5800124",
      "google_place_id": "ChIJ7Uy43DQXThARUpN30rQWy6E"
    }
  },
  {
    "id": "332100",
    "name": "NGBOGANI-OP",
    "registration_area_id": "16875",
    "precise_location": null,
    "abbreviation": "007",
    "units": "007",
    "delimitation": "25/04/03/007",
    "remark": "NEW PU",
    "ward_id": "16875",
    "ward_name": "KARSHI I",
    "local_government_id": "529",
    "local_government_name": "KARU",
    "state_id": "25",
    "state_name": "NASARAWA",
    "location": {
      "latitude": 9.0000973,
      "longitude": 7.633112999999999,
      "viewport": {
        "northeast": {
          "lat": 9.001302279892721,
          "lng": 7.63446552989272
        },
        "southwest": {
          "lat": 8.998602620107278,
          "lng": 7.631765870107277
        }
      },
      "formatted_address": "12,Gwandara abuja, New Karu, Nigeria",
      "google_map_url": "https://maps.google.com?q=9.0000973,7.633112999999999",
      "google_place_id": "ChIJTTAdYLYFThARj_0oGSNGYec"
    }
  },
  {
    "id": "332101",
    "name": "KARSHI PADA I-OP",
    "registration_area_id": "16875",
    "precise_location": null,
    "abbreviation": "008",
    "units": "008",
    "delimitation": "25/04/03/008",
    "remark": "NEW PU",
    "ward_id": "16875",
    "ward_name": "KARSHI I",
    "local_government_id": "529",
    "local_government_name": "KARU",
    "state_id": "25",
    "state_name": "NASARAWA",
    "location": {
      "latitude": 8.8844727,
      "longitude": 7.660236500000001,
      "viewport": {
        "northeast": {
          "lat": 8.936995999999999,
          "lng": 7.6934336
        },
        "southwest": {
          "lat": 8.835352799999999,
          "lng": 7.591735399999999
        }
      },
      "formatted_address": "Karshi I, Nigeria",
      "google_map_url": "https://maps.google.com?q=8.8844727,7.660236500000001",
      "google_place_id": "ChIJs9lTlVkaThARW5VBi03wH48"
    }
  },
  {
    "id": "332102",
    "name": "KASHI PADA II",
    "registration_area_id": "16875",
    "precise_location": null,
    "abbreviation": "009",
    "units": "009",
    "delimitation": "25/04/03/009",
    "remark": "NEW PU",
    "ward_id": "16875",
    "ward_name": "KARSHI I",
    "local_government_id": "529",
    "local_government_name": "KARU",
    "state_id": "25",
    "state_name": "NASARAWA",
    "location": {
      "latitude": 8.8844727,
      "longitude": 7.660236500000001,
      "viewport": {
        "northeast": {
          "lat": 8.936995999999999,
          "lng": 7.6934336
        },
        "southwest": {
          "lat": 8.835352799999999,
          "lng": 7.591735399999999
        }
      },
      "formatted_address": "Karshi I, Nigeria",
      "google_map_url": "https://maps.google.com?q=8.8844727,7.660236500000001",
      "google_place_id": "ChIJs9lTlVkaThARW5VBi03wH48"
    }
  },
  {
    "id": "332103",
    "name": "ANG. GALADIMA",
    "registration_area_id": "16875",
    "precise_location": null,
    "abbreviation": "010",
    "units": "010",
    "delimitation": "25/04/03/010",
    "remark": "NEW PU",
    "ward_id": "16875",
    "ward_name": "KARSHI I",
    "local_government_id": "529",
    "local_government_name": "KARU",
    "state_id": "25",
    "state_name": "NASARAWA",
    "location": {
      "latitude": 8.82952,
      "longitude": 7.5788108,
      "viewport": {
        "northeast": {
          "lat": 8.830913929892722,
          "lng": 7.580181779892721
        },
        "southwest": {
          "lat": 8.828214270107278,
          "lng": 7.577482120107277
        }
      },
      "formatted_address": "RHHH+RG3, Nyanya-Karshi Road, 900107, Abuja, Nigeria",
      "google_map_url": "https://maps.google.com?q=8.82952,7.5788108",
      "google_place_id": "ChIJUSDgMiMXThARP3oD_y4MtCw"
    }
  },
  {
    "id": "332104",
    "name": "PIANKO PRI. SCH.",
    "registration_area_id": "16875",
    "precise_location": null,
    "abbreviation": "011",
    "units": "011",
    "delimitation": "25/04/03/011",
    "remark": "NEW PU",
    "ward_id": "16875",
    "ward_name": "KARSHI I",
    "local_government_id": "529",
    "local_government_name": "KARU",
    "state_id": "25",
    "state_name": "NASARAWA",
    "location": {
      "latitude": 8.828455199999999,
      "longitude": 7.5800124,
      "viewport": {
        "northeast": {
          "lat": 8.82994182989272,
          "lng": 7.581398729892721
        },
        "southwest": {
          "lat": 8.827242170107276,
          "lng": 7.578699070107278
        }
      },
      "formatted_address": "RHHH+9X5, Palace Road, 900107, Karshi, Nigeria",
      "google_map_url": "https://maps.google.com?q=8.828455199999999,7.5800124",
      "google_place_id": "ChIJ7Uy43DQXThARUpN30rQWy6E"
    }
  },
  {
    "id": "332105",
    "name": "BAKIN UZA-OP",
    "registration_area_id": "16875",
    "precise_location": null,
    "abbreviation": "012",
    "units": "012",
    "delimitation": "25/04/03/012",
    "remark": "NEW PU",
    "ward_id": "16875",
    "ward_name": "KARSHI I",
    "local_government_id": "529",
    "local_government_name": "KARU",
    "state_id": "25",
    "state_name": "NASARAWA",
    "location": null
  },
  {
    "id": "332106",
    "name": "GASAKI",
    "registration_area_id": "16875",
    "precise_location": null,
    "abbreviation": "013",
    "units": "013",
    "delimitation": "25/04/03/013",
    "remark": "NEW PU",
    "ward_id": "16875",
    "ward_name": "KARSHI I",
    "local_government_id": "529",
    "local_government_name": "KARU",
    "state_id": "25",
    "state_name": "NASARAWA",
    "location": {
      "latitude": 8.8687632,
      "longitude": 7.589135799999999,
      "viewport": {
        "northeast": {
          "lat": 8.870042729892722,
          "lng": 7.590450729892722
        },
        "southwest": {
          "lat": 8.867343070107278,
          "lng": 7.587751070107278
        }
      },
      "formatted_address": "VH9Q+GM2, Nyanya-Karshi Road, 900107, Abuja, Nigeria",
      "google_map_url": "https://maps.google.com?q=8.8687632,7.589135799999999",
      "google_place_id": "ChIJA8XHX-MWThARaBwiKMd6hek"
    }
  },
  {
    "id": "332107",
    "name": "KARSHI OROZO PRI. SCH",
    "registration_area_id": "16875",
    "precise_location": null,
    "abbreviation": "014",
    "units": "014",
    "delimitation": "25/04/03/014",
    "remark": "NEW PU",
    "ward_id": "16875",
    "ward_name": "KARSHI I",
    "local_government_id": "529",
    "local_government_name": "KARU",
    "state_id": "25",
    "state_name": "NASARAWA",
    "location": {
      "latitude": 8.828242699999999,
      "longitude": 7.5676411,
      "viewport": {
        "northeast": {
          "lat": 8.829620279892723,
          "lng": 7.569006729892721
        },
        "southwest": {
          "lat": 8.826920620107279,
          "lng": 7.566307070107277
        }
      },
      "formatted_address": "RHH9+73C, 900107, Karshi, Nigeria",
      "google_map_url": "https://maps.google.com?q=8.828242699999999,7.5676411",
      "google_place_id": "ChIJp_lfj98WThARPgPS8Ctgfw0"
    }
  },
  {
    "id": "332108",
    "name": "KARSHI OROZO SEC. SCH",
    "registration_area_id": "16875",
    "precise_location": null,
    "abbreviation": "015",
    "units": "015",
    "delimitation": "25/04/03/015",
    "remark": "NEW PU",
    "ward_id": "16875",
    "ward_name": "KARSHI I",
    "local_government_id": "529",
    "local_government_name": "KARU",
    "state_id": "25",
    "state_name": "NASARAWA",
    "location": {
      "latitude": 8.8166391,
      "longitude": 7.556109999999999,
      "viewport": {
        "northeast": {
          "lat": 8.817904929892721,
          "lng": 7.557211079892721
        },
        "southwest": {
          "lat": 8.815205270107276,
          "lng": 7.554511420107278
        }
      },
      "formatted_address": "RH84+MC5, 900107, Karshi, Nigeria",
      "google_map_url": "https://maps.google.com?q=8.8166391,7.556109999999999",
      "google_place_id": "ChIJcVsK6-8WThARNyZ4VmoBb40"
    }
  },
  {
    "id": "332109",
    "name": "ANG. SARKI FADA",
    "registration_area_id": "16875",
    "precise_location": null,
    "abbreviation": "016",
    "units": "016",
    "delimitation": "25/04/03/016",
    "remark": "NEW PU",
    "ward_id": "16875",
    "ward_name": "KARSHI I",
    "local_government_id": "529",
    "local_government_name": "KARU",
    "state_id": "25",
    "state_name": "NASARAWA",
    "location": {
      "latitude": 8.82952,
      "longitude": 7.5788108,
      "viewport": {
        "northeast": {
          "lat": 8.830913929892722,
          "lng": 7.580181779892721
        },
        "southwest": {
          "lat": 8.828214270107278,
          "lng": 7.577482120107277
        }
      },
      "formatted_address": "RHHH+RG3, Nyanya-Karshi Road, 900107, Abuja, Nigeria",
      "google_map_url": "https://maps.google.com?q=8.82952,7.5788108",
      "google_place_id": "ChIJUSDgMiMXThARP3oD_y4MtCw"
    }
  },
  {
    "id": "332110",
    "name": "LOKO PRI. SCH.",
    "registration_area_id": "16875",
    "precise_location": null,
    "abbreviation": "017",
    "units": "017",
    "delimitation": "25/04/03/017",
    "remark": "NEW PU",
    "ward_id": "16875",
    "ward_name": "KARSHI I",
    "local_government_id": "529",
    "local_government_name": "KARU",
    "state_id": "25",
    "state_name": "NASARAWA",
    "location": {
      "latitude": 8.828455199999999,
      "longitude": 7.5800124,
      "viewport": {
        "northeast": {
          "lat": 8.82994182989272,
          "lng": 7.581398729892721
        },
        "southwest": {
          "lat": 8.827242170107276,
          "lng": 7.578699070107278
        }
      },
      "formatted_address": "RHHH+9X5, Palace Road, 900107, Karshi, Nigeria",
      "google_map_url": "https://maps.google.com?q=8.828455199999999,7.5800124",
      "google_place_id": "ChIJ7Uy43DQXThARUpN30rQWy6E"
    }
  },
  {
    "id": "332111",
    "name": "GIDAN JAFARU",
    "registration_area_id": "16875",
    "precise_location": null,
    "abbreviation": "018",
    "units": "018",
    "delimitation": "25/04/03/018",
    "remark": "NEW PU",
    "ward_id": "16875",
    "ward_name": "KARSHI I",
    "local_government_id": "529",
    "local_government_name": "KARU",
    "state_id": "25",
    "state_name": "NASARAWA",
    "location": {
      "latitude": 8.886562999999999,
      "longitude": 7.600761399999999,
      "viewport": {
        "northeast": {
          "lat": 8.887923129892721,
          "lng": 7.602123629892722
        },
        "southwest": {
          "lat": 8.885223470107277,
          "lng": 7.599423970107278
        }
      },
      "formatted_address": "VJP2+J79, 961104, Nasarawa, Nigeria",
      "google_map_url": "https://maps.google.com?q=8.886562999999999,7.600761399999999",
      "google_place_id": "ChIJ9dMAHYYQThARl2v78MUsPVU"
    }
  },
  {
    "id": "332112",
    "name": "GIDAN MUDU",
    "registration_area_id": "16875",
    "precise_location": null,
    "abbreviation": "019",
    "units": "019",
    "delimitation": "25/04/03/019",
    "remark": "NEW PU",
    "ward_id": "16875",
    "ward_name": "KARSHI I",
    "local_government_id": "529",
    "local_government_name": "KARU",
    "state_id": "25",
    "state_name": "NASARAWA",
    "location": {
      "latitude": 8.992779600000002,
      "longitude": 7.572462199999999,
      "viewport": {
        "northeast": {
          "lat": 8.994924100000002,
          "lng": 7.573545999999999
        },
        "southwest": {
          "lat": 8.989090899999999,
          "lng": 7.5707691
        }
      },
      "formatted_address": "900101, New Karu, Nigeria",
      "google_map_url": "https://maps.google.com?q=8.992779600000002,7.572462199999999",
      "google_place_id": "ChIJd2d5dv4FThARmsw0CSyNPog"
    }
  },
  {
    "id": "332113",
    "name": "NAVY ESTATE",
    "registration_area_id": "16875",
    "precise_location": null,
    "abbreviation": "020",
    "units": "020",
    "delimitation": "25/04/03/020",
    "remark": "NEW PU",
    "ward_id": "16875",
    "ward_name": "KARSHI I",
    "local_government_id": "529",
    "local_government_name": "KARU",
    "state_id": "25",
    "state_name": "NASARAWA",
    "location": {
      "latitude": 8.8858519,
      "longitude": 7.609587299999999,
      "viewport": {
        "northeast": {
          "lat": 8.88720302989272,
          "lng": 7.61087662989272
        },
        "southwest": {
          "lat": 8.884503370107277,
          "lng": 7.608176970107277
        }
      },
      "formatted_address": "VJP5+8RW, yayale Ahmed road, boundaryline, Nigeria",
      "google_map_url": "https://maps.google.com?q=8.8858519,7.609587299999999",
      "google_place_id": "ChIJRdYyj4EQThARZ_jf71t7gkw"
    }
  },
  {
    "id": "332114",
    "name": "ANG. BAKO",
    "registration_area_id": "16875",
    "precise_location": null,
    "abbreviation": "021",
    "units": "021",
    "delimitation": "25/04/03/021",
    "remark": "NEW PU",
    "ward_id": "16875",
    "ward_name": "KARSHI I",
    "local_government_id": "529",
    "local_government_name": "KARU",
    "state_id": "25",
    "state_name": "NASARAWA",
    "location": {
      "latitude": 8.8083292,
      "longitude": 7.569414099999999,
      "viewport": {
        "northeast": {
          "lat": 8.81798,
          "lng": 7.573823999999999
        },
        "southwest": {
          "lat": 8.801834,
          "lng": 7.5463239
        }
      },
      "formatted_address": "900107, Karshi, Nigeria",
      "google_map_url": "https://maps.google.com?q=8.8083292,7.569414099999999",
      "google_place_id": "ChIJpdl_LekWThARB3Qw4J480Nk"
    }
  },
  {
    "id": "332115",
    "name": "KAJA ESTATE",
    "registration_area_id": "16875",
    "precise_location": null,
    "abbreviation": "022",
    "units": "022",
    "delimitation": "25/04/03/022",
    "remark": "NEW PU",
    "ward_id": "16875",
    "ward_name": "KARSHI I",
    "local_government_id": "529",
    "local_government_name": "KARU",
    "state_id": "25",
    "state_name": "NASARAWA",
    "location": {
      "latitude": 8.9030947,
      "longitude": 7.588273999999999,
      "viewport": {
        "northeast": {
          "lat": 8.904324229892723,
          "lng": 7.589628979892722
        },
        "southwest": {
          "lat": 8.901624570107279,
          "lng": 7.586929320107278
        }
      },
      "formatted_address": "WH3Q+68J, 900107, Nasarawa, Nigeria",
      "google_map_url": "https://maps.google.com?q=8.9030947,7.588273999999999",
      "google_place_id": "ChIJgct0yEIQThAR-OVJvippEYE"
    }
  }
]