[
  {
    "id": "341497",
    "name": "CUSTOMARY COURT HALL AJILETE  I",
    "registration_area_id": "17330",
    "precise_location": null,
    "abbreviation": "001",
    "units": "001",
    "delimitation": "27/05/10/001",
    "remark": "EXISTING PU",
    "ward_id": "17330",
    "ward_name": "AJILETE",
    "local_government_id": "566",
    "local_government_name": "EGBADO SOUTH",
    "state_id": "27",
    "state_name": "OGUN",
    "location": {
      "latitude": 6.6371134,
      "longitude": 2.7372265,
      "viewport": {
        "northeast": {
          "lat": 6.638453729892722,
          "lng": 2.738546879892723
        },
        "southwest": {
          "lat": 6.635754070107278,
          "lng": 2.735847220107278
        }
      },
      "formatted_address": "JPPP+RVX, 112101, Idiroko, Nigeria",
      "google_map_url": "https://maps.google.com?q=6.6371134,2.7372265",
      "google_place_id": "ChIJ_dB43MpDOxARp77PoOl3aKQ"
    }
  },
  {
    "id": "341498",
    "name": "CUSTOMARY COURT HALL AJILETE II",
    "registration_area_id": "17330",
    "precise_location": null,
    "abbreviation": "002",
    "units": "002",
    "delimitation": "27/05/10/002",
    "remark": "EXISTING PU",
    "ward_id": "17330",
    "ward_name": "AJILETE",
    "local_government_id": "566",
    "local_government_name": "EGBADO SOUTH",
    "state_id": "27",
    "state_name": "OGUN",
    "location": {
      "latitude": 6.6371134,
      "longitude": 2.7372265,
      "viewport": {
        "northeast": {
          "lat": 6.638453729892722,
          "lng": 2.738546879892723
        },
        "southwest": {
          "lat": 6.635754070107278,
          "lng": 2.735847220107278
        }
      },
      "formatted_address": "JPPP+RVX, 112101, Idiroko, Nigeria",
      "google_map_url": "https://maps.google.com?q=6.6371134,2.7372265",
      "google_place_id": "ChIJ_dB43MpDOxARp77PoOl3aKQ"
    }
  },
  {
    "id": "341499",
    "name": "A.U.D. SCHOOL AJILETE  I",
    "registration_area_id": "17330",
    "precise_location": null,
    "abbreviation": "003",
    "units": "003",
    "delimitation": "27/05/10/003",
    "remark": "EXISTING PU",
    "ward_id": "17330",
    "ward_name": "AJILETE",
    "local_government_id": "566",
    "local_government_name": "EGBADO SOUTH",
    "state_id": "27",
    "state_name": "OGUN",
    "location": {
      "latitude": 6.7002722,
      "longitude": 2.9284025,
      "viewport": {
        "northeast": {
          "lat": 6.701678679892722,
          "lng": 2.929753279892722
        },
        "southwest": {
          "lat": 6.698979020107278,
          "lng": 2.927053620107277
        }
      },
      "formatted_address": "6FR4PW2H+38P Ajilete Ajilete yewa south Ogun Oke Odan, Nigeria",
      "google_map_url": "https://maps.google.com?q=6.7002722,2.9284025",
      "google_place_id": "ChIJd2bwJg5tOxAR5n47qqi2PR0"
    }
  },
  {
    "id": "341500",
    "name": "A.U.D. SCHOOL AJILETE  II",
    "registration_area_id": "17330",
    "precise_location": null,
    "abbreviation": "004",
    "units": "004",
    "delimitation": "27/05/10/004",
    "remark": "EXISTING PU",
    "ward_id": "17330",
    "ward_name": "AJILETE",
    "local_government_id": "566",
    "local_government_name": "EGBADO SOUTH",
    "state_id": "27",
    "state_name": "OGUN",
    "location": {
      "latitude": 6.7002722,
      "longitude": 2.9284025,
      "viewport": {
        "northeast": {
          "lat": 6.701678679892722,
          "lng": 2.929753279892722
        },
        "southwest": {
          "lat": 6.698979020107278,
          "lng": 2.927053620107277
        }
      },
      "formatted_address": "6FR4PW2H+38P Ajilete Ajilete yewa south Ogun Oke Odan, Nigeria",
      "google_map_url": "https://maps.google.com?q=6.7002722,2.9284025",
      "google_place_id": "ChIJd2bwJg5tOxAR5n47qqi2PR0"
    }
  },
  {
    "id": "341501",
    "name": "ST. JOHN'S SCHOOL AJILETE I",
    "registration_area_id": "17330",
    "precise_location": null,
    "abbreviation": "005",
    "units": "005",
    "delimitation": "27/05/10/005",
    "remark": "EXISTING PU",
    "ward_id": "17330",
    "ward_name": "AJILETE",
    "local_government_id": "566",
    "local_government_name": "EGBADO SOUTH",
    "state_id": "27",
    "state_name": "OGUN",
    "location": {
      "latitude": 6.6991108,
      "longitude": 2.921964,
      "viewport": {
        "northeast": {
          "lat": 6.700461979892723,
          "lng": 2.923311479892722
        },
        "southwest": {
          "lat": 6.697762320107278,
          "lng": 2.920611820107278
        }
      },
      "formatted_address": "6FR4MWXC+MQ2 Ajilete Ajilete yewa south Ogun Oke Odan, Nigeria",
      "google_map_url": "https://maps.google.com?q=6.6991108,2.921964",
      "google_place_id": "ChIJxaEwNAdtOxAROu0kf1zNAbU"
    }
  },
  {
    "id": "341502",
    "name": "YEWA HIGH SCHOOL AJILETE  I",
    "registration_area_id": "17330",
    "precise_location": null,
    "abbreviation": "006",
    "units": "006",
    "delimitation": "27/05/10/006",
    "remark": "EXISTING PU",
    "ward_id": "17330",
    "ward_name": "AJILETE",
    "local_government_id": "566",
    "local_government_name": "EGBADO SOUTH",
    "state_id": "27",
    "state_name": "OGUN",
    "location": {
      "latitude": 6.707756,
      "longitude": 2.9271397,
      "viewport": {
        "northeast": {
          "lat": 6.709002479892721,
          "lng": 2.928468179892722
        },
        "southwest": {
          "lat": 6.706302820107277,
          "lng": 2.925768520107278
        }
      },
      "formatted_address": "6FR4PW5G+4R8 Ajilete Ajilete yewa south Ogun Oke Odan, Nigeria",
      "google_map_url": "https://maps.google.com?q=6.707756,2.9271397",
      "google_place_id": "ChIJCQKtanBtOxARuHokcgRGT5Q"
    }
  },
  {
    "id": "341503",
    "name": "YEWA HIGH SCHOOL AJILETE II",
    "registration_area_id": "17330",
    "precise_location": null,
    "abbreviation": "007",
    "units": "007",
    "delimitation": "27/05/10/007",
    "remark": "EXISTING PU",
    "ward_id": "17330",
    "ward_name": "AJILETE",
    "local_government_id": "566",
    "local_government_name": "EGBADO SOUTH",
    "state_id": "27",
    "state_name": "OGUN",
    "location": {
      "latitude": 6.707756,
      "longitude": 2.9271397,
      "viewport": {
        "northeast": {
          "lat": 6.709002479892721,
          "lng": 2.928468179892722
        },
        "southwest": {
          "lat": 6.706302820107277,
          "lng": 2.925768520107278
        }
      },
      "formatted_address": "6FR4PW5G+4R8 Ajilete Ajilete yewa south Ogun Oke Odan, Nigeria",
      "google_map_url": "https://maps.google.com?q=6.707756,2.9271397",
      "google_place_id": "ChIJCQKtanBtOxARuHokcgRGT5Q"
    }
  },
  {
    "id": "341504",
    "name": "APOSTOLIC CHURCH 4-CORNER AREA I",
    "registration_area_id": "17330",
    "precise_location": null,
    "abbreviation": "008",
    "units": "008",
    "delimitation": "27/05/10/008",
    "remark": "EXISTING PU",
    "ward_id": "17330",
    "ward_name": "AJILETE",
    "local_government_id": "566",
    "local_government_name": "EGBADO SOUTH",
    "state_id": "27",
    "state_name": "OGUN",
    "location": {
      "latitude": 6.693849699999999,
      "longitude": 2.9859872,
      "viewport": {
        "northeast": {
          "lat": 6.695179879892723,
          "lng": 2.987368779892722
        },
        "southwest": {
          "lat": 6.692480220107279,
          "lng": 2.984669120107278
        }
      },
      "formatted_address": "Owode 4Corner, Nigeria",
      "google_map_url": "https://maps.google.com?q=6.693849699999999,2.9859872",
      "google_place_id": "ChIJq5psg95zOxAR5kJP66yUOPI"
    }
  },
  {
    "id": "341505",
    "name": "APOSTOLIC CHURCH 4-CORNER AREA II",
    "registration_area_id": "17330",
    "precise_location": null,
    "abbreviation": "009",
    "units": "009",
    "delimitation": "27/05/10/009",
    "remark": "EXISTING PU",
    "ward_id": "17330",
    "ward_name": "AJILETE",
    "local_government_id": "566",
    "local_government_name": "EGBADO SOUTH",
    "state_id": "27",
    "state_name": "OGUN",
    "location": {
      "latitude": 6.693849699999999,
      "longitude": 2.9859872,
      "viewport": {
        "northeast": {
          "lat": 6.695179879892723,
          "lng": 2.987368779892722
        },
        "southwest": {
          "lat": 6.692480220107279,
          "lng": 2.984669120107278
        }
      },
      "formatted_address": "Owode 4Corner, Nigeria",
      "google_map_url": "https://maps.google.com?q=6.693849699999999,2.9859872",
      "google_place_id": "ChIJq5psg95zOxAR5kJP66yUOPI"
    }
  },
  {
    "id": "341506",
    "name": "E.S.L.G. SCHOOL KAJOLA",
    "registration_area_id": "17330",
    "precise_location": null,
    "abbreviation": "010",
    "units": "010",
    "delimitation": "27/05/10/010",
    "remark": "EXISTING PU",
    "ward_id": "17330",
    "ward_name": "AJILETE",
    "local_government_id": "566",
    "local_government_name": "EGBADO SOUTH",
    "state_id": "27",
    "state_name": "OGUN",
    "location": {
      "latitude": 6.7698627,
      "longitude": 2.969012,
      "viewport": {
        "northeast": {
          "lat": 6.771212529892722,
          "lng": 2.970361829892723
        },
        "southwest": {
          "lat": 6.768512870107278,
          "lng": 2.967662170107278
        }
      },
      "formatted_address": "QX99+WJR, 112106, Owode, Nigeria",
      "google_map_url": "https://maps.google.com?q=6.7698627,2.969012",
      "google_place_id": "ChIJuYu-9RoNOxARdbKkHaFuvxw"
    }
  },
  {
    "id": "341507",
    "name": "BOOTH AT OJU-OTA SQUARE",
    "registration_area_id": "17330",
    "precise_location": null,
    "abbreviation": "011",
    "units": "011",
    "delimitation": "27/05/10/011",
    "remark": "EXISTING PU",
    "ward_id": "17330",
    "ward_name": "AJILETE",
    "local_government_id": "566",
    "local_government_name": "EGBADO SOUTH",
    "state_id": "27",
    "state_name": "OGUN",
    "location": {
      "latitude": 6.7943276,
      "longitude": 2.9541249,
      "viewport": {
        "northeast": {
          "lat": 6.795718379892722,
          "lng": 2.954756829892722
        },
        "southwest": {
          "lat": 6.793018720107278,
          "lng": 2.952057170107278
        }
      },
      "formatted_address": "112106, Oju Ota, Nigeria",
      "google_map_url": "https://maps.google.com?q=6.7943276,2.9541249",
      "google_place_id": "ChIJ17_cW5cNOxARWuK3grG_FQs"
    }
  },
  {
    "id": "341508",
    "name": "COMM. PRY SCHOOL IBIO",
    "registration_area_id": "17330",
    "precise_location": null,
    "abbreviation": "012",
    "units": "012",
    "delimitation": "27/05/10/012",
    "remark": "EXISTING PU",
    "ward_id": "17330",
    "ward_name": "AJILETE",
    "local_government_id": "566",
    "local_government_name": "EGBADO SOUTH",
    "state_id": "27",
    "state_name": "OGUN",
    "location": {
      "latitude": 6.7563094,
      "longitude": 2.9167955,
      "viewport": {
        "northeast": {
          "lat": 6.757659229892722,
          "lng": 2.918145329892722
        },
        "southwest": {
          "lat": 6.754959570107278,
          "lng": 2.915445670107277
        }
      },
      "formatted_address": "6FR4QW48+GP7 Ibio Ajilete, Abu, Nigeria",
      "google_map_url": "https://maps.google.com?q=6.7563094,2.9167955",
      "google_place_id": "ChIJwfeMaVsTOxARNnlNKDzuKgc"
    }
  },
  {
    "id": "341509",
    "name": "DISPENSARY EREDO",
    "registration_area_id": "17330",
    "precise_location": null,
    "abbreviation": "013",
    "units": "013",
    "delimitation": "27/05/10/013",
    "remark": "EXISTING PU",
    "ward_id": "17330",
    "ward_name": "AJILETE",
    "local_government_id": "566",
    "local_government_name": "EGBADO SOUTH",
    "state_id": "27",
    "state_name": "OGUN",
    "location": {
      "latitude": 6.7740044,
      "longitude": 2.9995175,
      "viewport": {
        "northeast": {
          "lat": 6.775332929892721,
          "lng": 3.000868829892722
        },
        "southwest": {
          "lat": 6.772633270107277,
          "lng": 2.998169170107277
        }
      },
      "formatted_address": "QXFX+JR2, 112106, Iwoye, Nigeria",
      "google_map_url": "https://maps.google.com?q=6.7740044,2.9995175",
      "google_place_id": "ChIJrcN0Do0MOxARknvh7WXCScU"
    }
  },
  {
    "id": "341510",
    "name": "BOOTH BESIDE A/C AJILETE",
    "registration_area_id": "17330",
    "precise_location": null,
    "abbreviation": "014",
    "units": "014",
    "delimitation": "27/05/10/014",
    "remark": "EXISTING PU",
    "ward_id": "17330",
    "ward_name": "AJILETE",
    "local_government_id": "566",
    "local_government_name": "EGBADO SOUTH",
    "state_id": "27",
    "state_name": "OGUN",
    "location": {
      "latitude": 6.707756,
      "longitude": 2.9271397,
      "viewport": {
        "northeast": {
          "lat": 6.709002479892721,
          "lng": 2.928468179892722
        },
        "southwest": {
          "lat": 6.706302820107277,
          "lng": 2.925768520107278
        }
      },
      "formatted_address": "6FR4PW5G+4R8 Ajilete Ajilete yewa south Ogun Oke Odan, Nigeria",
      "google_map_url": "https://maps.google.com?q=6.707756,2.9271397",
      "google_place_id": "ChIJCQKtanBtOxARuHokcgRGT5Q"
    }
  },
  {
    "id": "341511",
    "name": "BESIDE AGO-EYO MOSQUE I",
    "registration_area_id": "17330",
    "precise_location": null,
    "abbreviation": "015",
    "units": "015",
    "delimitation": "27/05/10/015",
    "remark": "EXISTING PU",
    "ward_id": "17330",
    "ward_name": "AJILETE",
    "local_government_id": "566",
    "local_government_name": "EGBADO SOUTH",
    "state_id": "27",
    "state_name": "OGUN",
    "location": {
      "latitude": 6.960435299999999,
      "longitude": 3.9375823,
      "viewport": {
        "northeast": {
          "lat": 6.961764129892723,
          "lng": 3.938911779892721
        },
        "southwest": {
          "lat": 6.959064470107279,
          "lng": 3.936212120107277
        }
      },
      "formatted_address": "XW6Q+52H, 120106, Ago-Iwoye, Nigeria",
      "google_map_url": "https://maps.google.com?q=6.960435299999999,3.9375823",
      "google_place_id": "ChIJYfkzcOVwORAROMA6NjtSF20"
    }
  },
  {
    "id": "341512",
    "name": "BESIDE AGO-EYO MOSQUE II",
    "registration_area_id": "17330",
    "precise_location": null,
    "abbreviation": "016",
    "units": "016",
    "delimitation": "27/05/10/016",
    "remark": "EXISTING PU",
    "ward_id": "17330",
    "ward_name": "AJILETE",
    "local_government_id": "566",
    "local_government_name": "EGBADO SOUTH",
    "state_id": "27",
    "state_name": "OGUN",
    "location": {
      "latitude": 6.829922199999999,
      "longitude": 3.9164154,
      "viewport": {
        "northeast": {
          "lat": 6.831299479892723,
          "lng": 3.917826129892722
        },
        "southwest": {
          "lat": 6.82859982010728,
          "lng": 3.915126470107278
        }
      },
      "formatted_address": "RWH8+XH7, Etitale street, 120101, Ijebu Ode, Nigeria",
      "google_map_url": "https://maps.google.com?q=6.829922199999999,3.9164154",
      "google_place_id": "ChIJLWVzOQBvORARCS8l3ZPlMww"
    }
  },
  {
    "id": "341513",
    "name": "ORI-OKUTA SQUARE ILARO QUARTERS",
    "registration_area_id": "17330",
    "precise_location": null,
    "abbreviation": "017",
    "units": "017",
    "delimitation": "27/05/10/017",
    "remark": "EXISTING PU",
    "ward_id": "17330",
    "ward_name": "AJILETE",
    "local_government_id": "566",
    "local_government_name": "EGBADO SOUTH",
    "state_id": "27",
    "state_name": "OGUN",
    "location": {
      "latitude": 6.895832899999999,
      "longitude": 3.0217388,
      "viewport": {
        "northeast": {
          "lat": 6.897212179892721,
          "lng": 3.022955929892722
        },
        "southwest": {
          "lat": 6.894512520107277,
          "lng": 3.020256270107277
        }
      },
      "formatted_address": "V2WC+8MQ, 112106, Ilaro, Nigeria",
      "google_map_url": "https://maps.google.com?q=6.895832899999999,3.0217388",
      "google_place_id": "ChIJXRek8bMIOxARLHHlP0SryLM"
    }
  },
  {
    "id": "341514",
    "name": "ST. JOHN'S SCHOOL BLOCK II",
    "registration_area_id": "17330",
    "precise_location": null,
    "abbreviation": "018",
    "units": "018",
    "delimitation": "27/05/10/018",
    "remark": "EXISTING PU",
    "ward_id": "17330",
    "ward_name": "AJILETE",
    "local_government_id": "566",
    "local_government_name": "EGBADO SOUTH",
    "state_id": "27",
    "state_name": "OGUN",
    "location": {
      "latitude": 6.6991108,
      "longitude": 2.921964,
      "viewport": {
        "northeast": {
          "lat": 6.700461979892723,
          "lng": 2.923311479892722
        },
        "southwest": {
          "lat": 6.697762320107278,
          "lng": 2.920611820107278
        }
      },
      "formatted_address": "6FR4MWXC+MQ2 Ajilete Ajilete yewa south Ogun Oke Odan, Nigeria",
      "google_map_url": "https://maps.google.com?q=6.6991108,2.921964",
      "google_place_id": "ChIJxaEwNAdtOxAROu0kf1zNAbU"
    }
  },
  {
    "id": "341515",
    "name": "ARAROMI MARKET",
    "registration_area_id": "17330",
    "precise_location": null,
    "abbreviation": "019",
    "units": "019",
    "delimitation": "27/05/10/019",
    "remark": "NEW PU",
    "ward_id": "17330",
    "ward_name": "AJILETE",
    "local_government_id": "566",
    "local_government_name": "EGBADO SOUTH",
    "state_id": "27",
    "state_name": "OGUN",
    "location": null
  },
  {
    "id": "341516",
    "name": "OPEN SPACE AT AJEGUNLE SQUARE AJILETE",
    "registration_area_id": "17330",
    "precise_location": null,
    "abbreviation": "020",
    "units": "020",
    "delimitation": "27/05/10/020",
    "remark": "NEW PU",
    "ward_id": "17330",
    "ward_name": "AJILETE",
    "local_government_id": "566",
    "local_government_name": "EGBADO SOUTH",
    "state_id": "27",
    "state_name": "OGUN",
    "location": {
      "latitude": 6.707756,
      "longitude": 2.9271397,
      "viewport": {
        "northeast": {
          "lat": 6.709002479892721,
          "lng": 2.928468179892722
        },
        "southwest": {
          "lat": 6.706302820107277,
          "lng": 2.925768520107278
        }
      },
      "formatted_address": "6FR4PW5G+4R8 Ajilete Ajilete yewa south Ogun Oke Odan, Nigeria",
      "google_map_url": "https://maps.google.com?q=6.707756,2.9271397",
      "google_place_id": "ChIJCQKtanBtOxARuHokcgRGT5Q"
    }
  },
  {
    "id": "341517",
    "name": "OPEN SPACE AT AKOREDE COMMUNITY BESIDE TRANSFORMER",
    "registration_area_id": "17330",
    "precise_location": null,
    "abbreviation": "021",
    "units": "021",
    "delimitation": "27/05/10/021",
    "remark": "NEW PU",
    "ward_id": "17330",
    "ward_name": "AJILETE",
    "local_government_id": "566",
    "local_government_name": "EGBADO SOUTH",
    "state_id": "27",
    "state_name": "OGUN",
    "location": null
  },
  {
    "id": "341518",
    "name": "IDO OLUBO VILLAGE SQUARE",
    "registration_area_id": "17330",
    "precise_location": null,
    "abbreviation": "022",
    "units": "022",
    "delimitation": "27/05/10/022",
    "remark": "NEW PU",
    "ward_id": "17330",
    "ward_name": "AJILETE",
    "local_government_id": "566",
    "local_government_name": "EGBADO SOUTH",
    "state_id": "27",
    "state_name": "OGUN",
    "location": null
  },
  {
    "id": "341519",
    "name": "IFELODUN CDA TOWN HALL",
    "registration_area_id": "17330",
    "precise_location": null,
    "abbreviation": "023",
    "units": "023",
    "delimitation": "27/05/10/023",
    "remark": "NEW PU",
    "ward_id": "17330",
    "ward_name": "AJILETE",
    "local_government_id": "566",
    "local_government_name": "EGBADO SOUTH",
    "state_id": "27",
    "state_name": "OGUN",
    "location": null
  }
]