[
  {
    "id": "66881",
    "name": "COMM. PRIMARY SCHOOL IRETE I",
    "registration_area_id": "3656",
    "precise_location": null,
    "abbreviation": "001",
    "units": "001",
    "delimitation": "16/27/10/001",
    "remark": "EXISTING PU",
    "ward_id": "3656",
    "ward_name": "IRETE/OROGWE",
    "local_government_id": "319",
    "local_government_name": "OWERRI WEST (UMUGUMA)",
    "state_id": "16",
    "state_name": "IMO",
    "location": {
      "latitude": 5.5198876,
      "longitude": 6.9709393,
      "viewport": {
        "northeast": {
          "lat": 5.521236279892722,
          "lng": 6.972287679892722
        },
        "southwest": {
          "lat": 5.518536620107279,
          "lng": 6.969588020107278
        }
      },
      "formatted_address": "GX9C+X93, Umuohia Irete Okuku road, Ndegwu, Nigeria",
      "google_map_url": "https://maps.google.com?q=5.5198876,6.9709393",
      "google_place_id": "ChIJW3T-k3haQhARML4HgvoF_hE"
    }
  },
  {
    "id": "66882",
    "name": "COMM. PRIMARY SCHOOL IRETE II",
    "registration_area_id": "3656",
    "precise_location": null,
    "abbreviation": "002",
    "units": "002",
    "delimitation": "16/27/10/002",
    "remark": "EXISTING PU",
    "ward_id": "3656",
    "ward_name": "IRETE/OROGWE",
    "local_government_id": "319",
    "local_government_name": "OWERRI WEST (UMUGUMA)",
    "state_id": "16",
    "state_name": "IMO",
    "location": {
      "latitude": 5.5198876,
      "longitude": 6.9709393,
      "viewport": {
        "northeast": {
          "lat": 5.521236279892722,
          "lng": 6.972287679892722
        },
        "southwest": {
          "lat": 5.518536620107279,
          "lng": 6.969588020107278
        }
      },
      "formatted_address": "GX9C+X93, Umuohia Irete Okuku road, Ndegwu, Nigeria",
      "google_map_url": "https://maps.google.com?q=5.5198876,6.9709393",
      "google_place_id": "ChIJW3T-k3haQhARML4HgvoF_hE"
    }
  },
  {
    "id": "66883",
    "name": "IRETE SEC. TECH. SCHOOL I",
    "registration_area_id": "3656",
    "precise_location": null,
    "abbreviation": "003",
    "units": "003",
    "delimitation": "16/27/10/003",
    "remark": "EXISTING PU",
    "ward_id": "3656",
    "ward_name": "IRETE/OROGWE",
    "local_government_id": "319",
    "local_government_name": "OWERRI WEST (UMUGUMA)",
    "state_id": "16",
    "state_name": "IMO",
    "location": {
      "latitude": 5.5198876,
      "longitude": 6.9709393,
      "viewport": {
        "northeast": {
          "lat": 5.521236279892722,
          "lng": 6.972287679892722
        },
        "southwest": {
          "lat": 5.518536620107279,
          "lng": 6.969588020107278
        }
      },
      "formatted_address": "GX9C+X93, Umuohia Irete Okuku road, Ndegwu, Nigeria",
      "google_map_url": "https://maps.google.com?q=5.5198876,6.9709393",
      "google_place_id": "ChIJW3T-k3haQhARML4HgvoF_hE"
    }
  },
  {
    "id": "66884",
    "name": "COMM. SCHOOL IRETE I",
    "registration_area_id": "3656",
    "precise_location": null,
    "abbreviation": "004",
    "units": "004",
    "delimitation": "16/27/10/004",
    "remark": "EXISTING PU",
    "ward_id": "3656",
    "ward_name": "IRETE/OROGWE",
    "local_government_id": "319",
    "local_government_name": "OWERRI WEST (UMUGUMA)",
    "state_id": "16",
    "state_name": "IMO",
    "location": {
      "latitude": 5.5198876,
      "longitude": 6.9709393,
      "viewport": {
        "northeast": {
          "lat": 5.521236279892722,
          "lng": 6.972287679892722
        },
        "southwest": {
          "lat": 5.518536620107279,
          "lng": 6.969588020107278
        }
      },
      "formatted_address": "GX9C+X93, Umuohia Irete Okuku road, Ndegwu, Nigeria",
      "google_map_url": "https://maps.google.com?q=5.5198876,6.9709393",
      "google_place_id": "ChIJW3T-k3haQhARML4HgvoF_hE"
    }
  },
  {
    "id": "66885",
    "name": "COMM. SCHOOL IRETE II",
    "registration_area_id": "3656",
    "precise_location": null,
    "abbreviation": "005",
    "units": "005",
    "delimitation": "16/27/10/005",
    "remark": "EXISTING PU",
    "ward_id": "3656",
    "ward_name": "IRETE/OROGWE",
    "local_government_id": "319",
    "local_government_name": "OWERRI WEST (UMUGUMA)",
    "state_id": "16",
    "state_name": "IMO",
    "location": {
      "latitude": 5.5198876,
      "longitude": 6.9709393,
      "viewport": {
        "northeast": {
          "lat": 5.521236279892722,
          "lng": 6.972287679892722
        },
        "southwest": {
          "lat": 5.518536620107279,
          "lng": 6.969588020107278
        }
      },
      "formatted_address": "GX9C+X93, Umuohia Irete Okuku road, Ndegwu, Nigeria",
      "google_map_url": "https://maps.google.com?q=5.5198876,6.9709393",
      "google_place_id": "ChIJW3T-k3haQhARML4HgvoF_hE"
    }
  },
  {
    "id": "66886",
    "name": "T.T.C. IRETE I",
    "registration_area_id": "3656",
    "precise_location": null,
    "abbreviation": "006",
    "units": "006",
    "delimitation": "16/27/10/006",
    "remark": "EXISTING PU",
    "ward_id": "3656",
    "ward_name": "IRETE/OROGWE",
    "local_government_id": "319",
    "local_government_name": "OWERRI WEST (UMUGUMA)",
    "state_id": "16",
    "state_name": "IMO",
    "location": {
      "latitude": 5.5197957,
      "longitude": 6.9917461,
      "viewport": {
        "northeast": {
          "lat": 5.521051329892722,
          "lng": 6.993049929892721
        },
        "southwest": {
          "lat": 5.518351670107278,
          "lng": 6.990350270107277
        }
      },
      "formatted_address": "25 Irete Road, New Owerri 460102, Owerri, Nigeria",
      "google_map_url": "https://maps.google.com?q=5.5197957,6.9917461",
      "google_place_id": "ChIJuaW76AlaQhARArIyowkMLdk"
    }
  },
  {
    "id": "66887",
    "name": "T.T.C. IRETE II",
    "registration_area_id": "3656",
    "precise_location": null,
    "abbreviation": "007",
    "units": "007",
    "delimitation": "16/27/10/007",
    "remark": "EXISTING PU",
    "ward_id": "3656",
    "ward_name": "IRETE/OROGWE",
    "local_government_id": "319",
    "local_government_name": "OWERRI WEST (UMUGUMA)",
    "state_id": "16",
    "state_name": "IMO",
    "location": {
      "latitude": 5.5198876,
      "longitude": 6.9709393,
      "viewport": {
        "northeast": {
          "lat": 5.521236279892722,
          "lng": 6.972287679892722
        },
        "southwest": {
          "lat": 5.518536620107279,
          "lng": 6.969588020107278
        }
      },
      "formatted_address": "GX9C+X93, Umuohia Irete Okuku road, Ndegwu, Nigeria",
      "google_map_url": "https://maps.google.com?q=5.5198876,6.9709393",
      "google_place_id": "ChIJW3T-k3haQhARML4HgvoF_hE"
    }
  },
  {
    "id": "66888",
    "name": "T.T.C. IRETE III",
    "registration_area_id": "3656",
    "precise_location": null,
    "abbreviation": "008",
    "units": "008",
    "delimitation": "16/27/10/008",
    "remark": "EXISTING PU",
    "ward_id": "3656",
    "ward_name": "IRETE/OROGWE",
    "local_government_id": "319",
    "local_government_name": "OWERRI WEST (UMUGUMA)",
    "state_id": "16",
    "state_name": "IMO",
    "location": {
      "latitude": 5.5198876,
      "longitude": 6.9709393,
      "viewport": {
        "northeast": {
          "lat": 5.521236279892722,
          "lng": 6.972287679892722
        },
        "southwest": {
          "lat": 5.518536620107279,
          "lng": 6.969588020107278
        }
      },
      "formatted_address": "GX9C+X93, Umuohia Irete Okuku road, Ndegwu, Nigeria",
      "google_map_url": "https://maps.google.com?q=5.5198876,6.9709393",
      "google_place_id": "ChIJW3T-k3haQhARML4HgvoF_hE"
    }
  },
  {
    "id": "66889",
    "name": "T.T.C. IRETE IV",
    "registration_area_id": "3656",
    "precise_location": null,
    "abbreviation": "009",
    "units": "009",
    "delimitation": "16/27/10/009",
    "remark": "EXISTING PU",
    "ward_id": "3656",
    "ward_name": "IRETE/OROGWE",
    "local_government_id": "319",
    "local_government_name": "OWERRI WEST (UMUGUMA)",
    "state_id": "16",
    "state_name": "IMO",
    "location": {
      "latitude": 5.5198876,
      "longitude": 6.9709393,
      "viewport": {
        "northeast": {
          "lat": 5.521236279892722,
          "lng": 6.972287679892722
        },
        "southwest": {
          "lat": 5.518536620107279,
          "lng": 6.969588020107278
        }
      },
      "formatted_address": "GX9C+X93, Umuohia Irete Okuku road, Ndegwu, Nigeria",
      "google_map_url": "https://maps.google.com?q=5.5198876,6.9709393",
      "google_place_id": "ChIJW3T-k3haQhARML4HgvoF_hE"
    }
  },
  {
    "id": "66890",
    "name": "T.T.C. IRETE V",
    "registration_area_id": "3656",
    "precise_location": null,
    "abbreviation": "010",
    "units": "010",
    "delimitation": "16/27/10/010",
    "remark": "EXISTING PU",
    "ward_id": "3656",
    "ward_name": "IRETE/OROGWE",
    "local_government_id": "319",
    "local_government_name": "OWERRI WEST (UMUGUMA)",
    "state_id": "16",
    "state_name": "IMO",
    "location": {
      "latitude": 5.5198876,
      "longitude": 6.9709393,
      "viewport": {
        "northeast": {
          "lat": 5.521236279892722,
          "lng": 6.972287679892722
        },
        "southwest": {
          "lat": 5.518536620107279,
          "lng": 6.969588020107278
        }
      },
      "formatted_address": "GX9C+X93, Umuohia Irete Okuku road, Ndegwu, Nigeria",
      "google_map_url": "https://maps.google.com?q=5.5198876,6.9709393",
      "google_place_id": "ChIJW3T-k3haQhARML4HgvoF_hE"
    }
  },
  {
    "id": "66891",
    "name": "T.T.C. IRETE VI",
    "registration_area_id": "3656",
    "precise_location": null,
    "abbreviation": "011",
    "units": "011",
    "delimitation": "16/27/10/011",
    "remark": "EXISTING PU",
    "ward_id": "3656",
    "ward_name": "IRETE/OROGWE",
    "local_government_id": "319",
    "local_government_name": "OWERRI WEST (UMUGUMA)",
    "state_id": "16",
    "state_name": "IMO",
    "location": {
      "latitude": 5.5198876,
      "longitude": 6.9709393,
      "viewport": {
        "northeast": {
          "lat": 5.521236279892722,
          "lng": 6.972287679892722
        },
        "southwest": {
          "lat": 5.518536620107279,
          "lng": 6.969588020107278
        }
      },
      "formatted_address": "GX9C+X93, Umuohia Irete Okuku road, Ndegwu, Nigeria",
      "google_map_url": "https://maps.google.com?q=5.5198876,6.9709393",
      "google_place_id": "ChIJW3T-k3haQhARML4HgvoF_hE"
    }
  },
  {
    "id": "66892",
    "name": "T.T.C. IRETE VII",
    "registration_area_id": "3656",
    "precise_location": null,
    "abbreviation": "012",
    "units": "012",
    "delimitation": "16/27/10/012",
    "remark": "EXISTING PU",
    "ward_id": "3656",
    "ward_name": "IRETE/OROGWE",
    "local_government_id": "319",
    "local_government_name": "OWERRI WEST (UMUGUMA)",
    "state_id": "16",
    "state_name": "IMO",
    "location": {
      "latitude": 5.5198876,
      "longitude": 6.9709393,
      "viewport": {
        "northeast": {
          "lat": 5.521236279892722,
          "lng": 6.972287679892722
        },
        "southwest": {
          "lat": 5.518536620107279,
          "lng": 6.969588020107278
        }
      },
      "formatted_address": "GX9C+X93, Umuohia Irete Okuku road, Ndegwu, Nigeria",
      "google_map_url": "https://maps.google.com?q=5.5198876,6.9709393",
      "google_place_id": "ChIJW3T-k3haQhARML4HgvoF_hE"
    }
  },
  {
    "id": "66893",
    "name": "IRETE SEC. TECH. SCHOOL II",
    "registration_area_id": "3656",
    "precise_location": null,
    "abbreviation": "013",
    "units": "013",
    "delimitation": "16/27/10/013",
    "remark": "EXISTING PU",
    "ward_id": "3656",
    "ward_name": "IRETE/OROGWE",
    "local_government_id": "319",
    "local_government_name": "OWERRI WEST (UMUGUMA)",
    "state_id": "16",
    "state_name": "IMO",
    "location": {
      "latitude": 5.5198876,
      "longitude": 6.9709393,
      "viewport": {
        "northeast": {
          "lat": 5.521236279892722,
          "lng": 6.972287679892722
        },
        "southwest": {
          "lat": 5.518536620107279,
          "lng": 6.969588020107278
        }
      },
      "formatted_address": "GX9C+X93, Umuohia Irete Okuku road, Ndegwu, Nigeria",
      "google_map_url": "https://maps.google.com?q=5.5198876,6.9709393",
      "google_place_id": "ChIJW3T-k3haQhARML4HgvoF_hE"
    }
  },
  {
    "id": "66894",
    "name": "UKWEZI PRIMARY SCHOOL OROGWE I",
    "registration_area_id": "3656",
    "precise_location": null,
    "abbreviation": "014",
    "units": "014",
    "delimitation": "16/27/10/014",
    "remark": "EXISTING PU",
    "ward_id": "3656",
    "ward_name": "IRETE/OROGWE",
    "local_government_id": "319",
    "local_government_name": "OWERRI WEST (UMUGUMA)",
    "state_id": "16",
    "state_name": "IMO",
    "location": {
      "latitude": 5.4926409,
      "longitude": 7.0383343,
      "viewport": {
        "northeast": {
          "lat": 5.494052179892721,
          "lng": 7.039728279892723
        },
        "southwest": {
          "lat": 5.491352520107277,
          "lng": 7.037028620107279
        }
      },
      "formatted_address": "Mbari Rd, opposite fidelity bank, Ikenegbu Layout 460281, Owerri, Nigeria",
      "google_map_url": "https://maps.google.com?q=5.4926409,7.0383343",
      "google_place_id": "ChIJ4X_jbLpZQhARclHSFoHZ-Y4"
    }
  },
  {
    "id": "66895",
    "name": "UKWEZI PRIMARY SCHOOL OROGWE II",
    "registration_area_id": "3656",
    "precise_location": null,
    "abbreviation": "015",
    "units": "015",
    "delimitation": "16/27/10/015",
    "remark": "EXISTING PU",
    "ward_id": "3656",
    "ward_name": "IRETE/OROGWE",
    "local_government_id": "319",
    "local_government_name": "OWERRI WEST (UMUGUMA)",
    "state_id": "16",
    "state_name": "IMO",
    "location": {
      "latitude": 5.4926409,
      "longitude": 7.0383343,
      "viewport": {
        "northeast": {
          "lat": 5.494052179892721,
          "lng": 7.039728279892723
        },
        "southwest": {
          "lat": 5.491352520107277,
          "lng": 7.037028620107279
        }
      },
      "formatted_address": "Mbari Rd, opposite fidelity bank, Ikenegbu Layout 460281, Owerri, Nigeria",
      "google_map_url": "https://maps.google.com?q=5.4926409,7.0383343",
      "google_place_id": "ChIJ4X_jbLpZQhARclHSFoHZ-Y4"
    }
  },
  {
    "id": "66896",
    "name": "UBA VILLAGE SQUARE",
    "registration_area_id": "3656",
    "precise_location": null,
    "abbreviation": "016",
    "units": "016",
    "delimitation": "16/27/10/016",
    "remark": "EXISTING PU",
    "ward_id": "3656",
    "ward_name": "IRETE/OROGWE",
    "local_government_id": "319",
    "local_government_name": "OWERRI WEST (UMUGUMA)",
    "state_id": "16",
    "state_name": "IMO",
    "location": {
      "latitude": 5.5382855,
      "longitude": 6.981095,
      "viewport": {
        "northeast": {
          "lat": 5.539636729892722,
          "lng": 6.982441629892723
        },
        "southwest": {
          "lat": 5.536937070107278,
          "lng": 6.979741970107279
        }
      },
      "formatted_address": "GXQJ+8F7, New Owerri 460102, Orogwe, Nigeria",
      "google_map_url": "https://maps.google.com?q=5.5382855,6.981095",
      "google_place_id": "ChIJI41lngxRQhARHkHr_S6AZQs"
    }
  },
  {
    "id": "66897",
    "name": "COMM. SCHOOL OROGWE",
    "registration_area_id": "3656",
    "precise_location": null,
    "abbreviation": "017",
    "units": "017",
    "delimitation": "16/27/10/017",
    "remark": "EXISTING PU",
    "ward_id": "3656",
    "ward_name": "IRETE/OROGWE",
    "local_government_id": "319",
    "local_government_name": "OWERRI WEST (UMUGUMA)",
    "state_id": "16",
    "state_name": "IMO",
    "location": {
      "latitude": 5.5198876,
      "longitude": 6.9709393,
      "viewport": {
        "northeast": {
          "lat": 5.521236279892722,
          "lng": 6.972287679892722
        },
        "southwest": {
          "lat": 5.518536620107279,
          "lng": 6.969588020107278
        }
      },
      "formatted_address": "GX9C+X93, Umuohia Irete Okuku road, Ndegwu, Nigeria",
      "google_map_url": "https://maps.google.com?q=5.5198876,6.9709393",
      "google_place_id": "ChIJW3T-k3haQhARML4HgvoF_hE"
    }
  },
  {
    "id": "66898",
    "name": "UMUNOMO VILLAGE SQUARE",
    "registration_area_id": "3656",
    "precise_location": null,
    "abbreviation": "018",
    "units": "018",
    "delimitation": "16/27/10/018",
    "remark": "EXISTING PU",
    "ward_id": "3656",
    "ward_name": "IRETE/OROGWE",
    "local_government_id": "319",
    "local_government_name": "OWERRI WEST (UMUGUMA)",
    "state_id": "16",
    "state_name": "IMO",
    "location": {
      "latitude": 5.5382855,
      "longitude": 6.981095,
      "viewport": {
        "northeast": {
          "lat": 5.539636729892722,
          "lng": 6.982441629892723
        },
        "southwest": {
          "lat": 5.536937070107278,
          "lng": 6.979741970107279
        }
      },
      "formatted_address": "GXQJ+8F7, New Owerri 460102, Orogwe, Nigeria",
      "google_map_url": "https://maps.google.com?q=5.5382855,6.981095",
      "google_place_id": "ChIJI41lngxRQhARHkHr_S6AZQs"
    }
  },
  {
    "id": "66899",
    "name": "AMATO WELL I",
    "registration_area_id": "3656",
    "precise_location": null,
    "abbreviation": "019",
    "units": "019",
    "delimitation": "16/27/10/019",
    "remark": "EXISTING PU",
    "ward_id": "3656",
    "ward_name": "IRETE/OROGWE",
    "local_government_id": "319",
    "local_government_name": "OWERRI WEST (UMUGUMA)",
    "state_id": "16",
    "state_name": "IMO",
    "location": {
      "latitude": 5.5382855,
      "longitude": 6.981095,
      "viewport": {
        "northeast": {
          "lat": 5.539636729892722,
          "lng": 6.982441629892723
        },
        "southwest": {
          "lat": 5.536937070107278,
          "lng": 6.979741970107279
        }
      },
      "formatted_address": "GXQJ+8F7, New Owerri 460102, Orogwe, Nigeria",
      "google_map_url": "https://maps.google.com?q=5.5382855,6.981095",
      "google_place_id": "ChIJI41lngxRQhARHkHr_S6AZQs"
    }
  },
  {
    "id": "66900",
    "name": "AMATO WELL II",
    "registration_area_id": "3656",
    "precise_location": null,
    "abbreviation": "020",
    "units": "020",
    "delimitation": "16/27/10/020",
    "remark": "EXISTING PU",
    "ward_id": "3656",
    "ward_name": "IRETE/OROGWE",
    "local_government_id": "319",
    "local_government_name": "OWERRI WEST (UMUGUMA)",
    "state_id": "16",
    "state_name": "IMO",
    "location": {
      "latitude": 5.5382855,
      "longitude": 6.981095,
      "viewport": {
        "northeast": {
          "lat": 5.539636729892722,
          "lng": 6.982441629892723
        },
        "southwest": {
          "lat": 5.536937070107278,
          "lng": 6.979741970107279
        }
      },
      "formatted_address": "GXQJ+8F7, New Owerri 460102, Orogwe, Nigeria",
      "google_map_url": "https://maps.google.com?q=5.5382855,6.981095",
      "google_place_id": "ChIJI41lngxRQhARHkHr_S6AZQs"
    }
  },
  {
    "id": "66901",
    "name": "COCACOLA SQUARE",
    "registration_area_id": "3656",
    "precise_location": null,
    "abbreviation": "021",
    "units": "021",
    "delimitation": "16/27/10/021",
    "remark": "EXISTING PU",
    "ward_id": "3656",
    "ward_name": "IRETE/OROGWE",
    "local_government_id": "319",
    "local_government_name": "OWERRI WEST (UMUGUMA)",
    "state_id": "16",
    "state_name": "IMO",
    "location": {
      "latitude": 5.5000672,
      "longitude": 7.000253400000001,
      "viewport": {
        "northeast": {
          "lat": 5.501476329892722,
          "lng": 7.001595129892723
        },
        "southwest": {
          "lat": 5.498776670107278,
          "lng": 6.998895470107279
        }
      },
      "formatted_address": "Industrial layout plotc3 Irete Irete, New Owerri, Owerri, Nigeria",
      "google_map_url": "https://maps.google.com?q=5.5000672,7.000253400000001",
      "google_place_id": "ChIJwapHPCBaQhARmzb8ZMeFpeo"
    }
  },
  {
    "id": "66902",
    "name": "IRETE SEC. TECH. SCHOOL III",
    "registration_area_id": "3656",
    "precise_location": null,
    "abbreviation": "022",
    "units": "022",
    "delimitation": "16/27/10/022",
    "remark": "EXISTING PU",
    "ward_id": "3656",
    "ward_name": "IRETE/OROGWE",
    "local_government_id": "319",
    "local_government_name": "OWERRI WEST (UMUGUMA)",
    "state_id": "16",
    "state_name": "IMO",
    "location": {
      "latitude": 5.5198876,
      "longitude": 6.9709393,
      "viewport": {
        "northeast": {
          "lat": 5.521236279892722,
          "lng": 6.972287679892722
        },
        "southwest": {
          "lat": 5.518536620107279,
          "lng": 6.969588020107278
        }
      },
      "formatted_address": "GX9C+X93, Umuohia Irete Okuku road, Ndegwu, Nigeria",
      "google_map_url": "https://maps.google.com?q=5.5198876,6.9709393",
      "google_place_id": "ChIJW3T-k3haQhARML4HgvoF_hE"
    }
  },
  {
    "id": "66903",
    "name": "COMM. PRIMARY SCHOOL IRETE III",
    "registration_area_id": "3656",
    "precise_location": null,
    "abbreviation": "023",
    "units": "023",
    "delimitation": "16/27/10/023",
    "remark": "EXISTING PU",
    "ward_id": "3656",
    "ward_name": "IRETE/OROGWE",
    "local_government_id": "319",
    "local_government_name": "OWERRI WEST (UMUGUMA)",
    "state_id": "16",
    "state_name": "IMO",
    "location": {
      "latitude": 5.5198876,
      "longitude": 6.9709393,
      "viewport": {
        "northeast": {
          "lat": 5.521236279892722,
          "lng": 6.972287679892722
        },
        "southwest": {
          "lat": 5.518536620107279,
          "lng": 6.969588020107278
        }
      },
      "formatted_address": "GX9C+X93, Umuohia Irete Okuku road, Ndegwu, Nigeria",
      "google_map_url": "https://maps.google.com?q=5.5198876,6.9709393",
      "google_place_id": "ChIJW3T-k3haQhARML4HgvoF_hE"
    }
  },
  {
    "id": "66904",
    "name": "T.T.C. IRETE VIII",
    "registration_area_id": "3656",
    "precise_location": null,
    "abbreviation": "024",
    "units": "024",
    "delimitation": "16/27/10/024",
    "remark": "EXISTING PU",
    "ward_id": "3656",
    "ward_name": "IRETE/OROGWE",
    "local_government_id": "319",
    "local_government_name": "OWERRI WEST (UMUGUMA)",
    "state_id": "16",
    "state_name": "IMO",
    "location": {
      "latitude": 5.5198876,
      "longitude": 6.9709393,
      "viewport": {
        "northeast": {
          "lat": 5.521236279892722,
          "lng": 6.972287679892722
        },
        "southwest": {
          "lat": 5.518536620107279,
          "lng": 6.969588020107278
        }
      },
      "formatted_address": "GX9C+X93, Umuohia Irete Okuku road, Ndegwu, Nigeria",
      "google_map_url": "https://maps.google.com?q=5.5198876,6.9709393",
      "google_place_id": "ChIJW3T-k3haQhARML4HgvoF_hE"
    }
  },
  {
    "id": "66905",
    "name": "AMA OSINACHI SQ. UMUOMA IRETTE",
    "registration_area_id": "3656",
    "precise_location": null,
    "abbreviation": "025",
    "units": "025",
    "delimitation": "16/27/10/025",
    "remark": "NEW PU",
    "ward_id": "3656",
    "ward_name": "IRETE/OROGWE",
    "local_government_id": "319",
    "local_government_name": "OWERRI WEST (UMUGUMA)",
    "state_id": "16",
    "state_name": "IMO",
    "location": null
  },
  {
    "id": "66906",
    "name": "AMA OKOROSHA UMUNGADA IRETTE",
    "registration_area_id": "3656",
    "precise_location": null,
    "abbreviation": "026",
    "units": "026",
    "delimitation": "16/27/10/026",
    "remark": "NEW PU",
    "ward_id": "3656",
    "ward_name": "IRETE/OROGWE",
    "local_government_id": "319",
    "local_government_name": "OWERRI WEST (UMUGUMA)",
    "state_id": "16",
    "state_name": "IMO",
    "location": {
      "latitude": 5.5382855,
      "longitude": 6.981095,
      "viewport": {
        "northeast": {
          "lat": 5.539636729892722,
          "lng": 6.982441629892723
        },
        "southwest": {
          "lat": 5.536937070107278,
          "lng": 6.979741970107279
        }
      },
      "formatted_address": "GXQJ+8F7, New Owerri 460102, Orogwe, Nigeria",
      "google_map_url": "https://maps.google.com?q=5.5382855,6.981095",
      "google_place_id": "ChIJI41lngxRQhARHkHr_S6AZQs"
    }
  },
  {
    "id": "66907",
    "name": "OGBU AMAKO SQ. IRETE",
    "registration_area_id": "3656",
    "precise_location": null,
    "abbreviation": "027",
    "units": "027",
    "delimitation": "16/27/10/027",
    "remark": "NEW PU",
    "ward_id": "3656",
    "ward_name": "IRETE/OROGWE",
    "local_government_id": "319",
    "local_government_name": "OWERRI WEST (UMUGUMA)",
    "state_id": "16",
    "state_name": "IMO",
    "location": {
      "latitude": 5.5382855,
      "longitude": 6.981095,
      "viewport": {
        "northeast": {
          "lat": 5.539636729892722,
          "lng": 6.982441629892723
        },
        "southwest": {
          "lat": 5.536937070107278,
          "lng": 6.979741970107279
        }
      },
      "formatted_address": "GXQJ+8F7, New Owerri 460102, Orogwe, Nigeria",
      "google_map_url": "https://maps.google.com?q=5.5382855,6.981095",
      "google_place_id": "ChIJI41lngxRQhARHkHr_S6AZQs"
    }
  },
  {
    "id": "66908",
    "name": "AMA OKOROSHA UMUOMA IRETTE",
    "registration_area_id": "3656",
    "precise_location": null,
    "abbreviation": "028",
    "units": "028",
    "delimitation": "16/27/10/028",
    "remark": "NEW PU",
    "ward_id": "3656",
    "ward_name": "IRETE/OROGWE",
    "local_government_id": "319",
    "local_government_name": "OWERRI WEST (UMUGUMA)",
    "state_id": "16",
    "state_name": "IMO",
    "location": {
      "latitude": 5.5382855,
      "longitude": 6.981095,
      "viewport": {
        "northeast": {
          "lat": 5.539636729892722,
          "lng": 6.982441629892723
        },
        "southwest": {
          "lat": 5.536937070107278,
          "lng": 6.979741970107279
        }
      },
      "formatted_address": "GXQJ+8F7, New Owerri 460102, Orogwe, Nigeria",
      "google_map_url": "https://maps.google.com?q=5.5382855,6.981095",
      "google_place_id": "ChIJI41lngxRQhARHkHr_S6AZQs"
    }
  },
  {
    "id": "66909",
    "name": "AMA UMUZUBI SQ. IRETE",
    "registration_area_id": "3656",
    "precise_location": null,
    "abbreviation": "029",
    "units": "029",
    "delimitation": "16/27/10/029",
    "remark": "NEW PU",
    "ward_id": "3656",
    "ward_name": "IRETE/OROGWE",
    "local_government_id": "319",
    "local_government_name": "OWERRI WEST (UMUGUMA)",
    "state_id": "16",
    "state_name": "IMO",
    "location": {
      "latitude": 5.5096455,
      "longitude": 7.0390904,
      "viewport": {
        "northeast": {
          "lat": 5.511005629892722,
          "lng": 7.040414079892722
        },
        "southwest": {
          "lat": 5.508305970107278,
          "lng": 7.037714420107278
        }
      },
      "formatted_address": "West,, Owerri, Nigeria",
      "google_map_url": "https://maps.google.com?q=5.5096455,7.0390904",
      "google_place_id": "ChIJ2Sn4xqdbQhAR5XjmRYCnyk0"
    }
  },
  {
    "id": "66910",
    "name": "UKWU UDARA UMUAFOM OROGWE",
    "registration_area_id": "3656",
    "precise_location": null,
    "abbreviation": "030",
    "units": "030",
    "delimitation": "16/27/10/030",
    "remark": "NEW PU",
    "ward_id": "3656",
    "ward_name": "IRETE/OROGWE",
    "local_government_id": "319",
    "local_government_name": "OWERRI WEST (UMUGUMA)",
    "state_id": "16",
    "state_name": "IMO",
    "location": {
      "latitude": 5.5382855,
      "longitude": 6.981095,
      "viewport": {
        "northeast": {
          "lat": 5.539636729892722,
          "lng": 6.982441629892723
        },
        "southwest": {
          "lat": 5.536937070107278,
          "lng": 6.979741970107279
        }
      },
      "formatted_address": "GXQJ+8F7, New Owerri 460102, Orogwe, Nigeria",
      "google_map_url": "https://maps.google.com?q=5.5382855,6.981095",
      "google_place_id": "ChIJI41lngxRQhARHkHr_S6AZQs"
    }
  },
  {
    "id": "66911",
    "name": "COMM. SEC. SCH. OROGWE",
    "registration_area_id": "3656",
    "precise_location": null,
    "abbreviation": "031",
    "units": "031",
    "delimitation": "16/27/10/031",
    "remark": "NEW PU",
    "ward_id": "3656",
    "ward_name": "IRETE/OROGWE",
    "local_government_id": "319",
    "local_government_name": "OWERRI WEST (UMUGUMA)",
    "state_id": "16",
    "state_name": "IMO",
    "location": {
      "latitude": 5.489059,
      "longitude": 7.0175879,
      "viewport": {
        "northeast": {
          "lat": 5.490456479892722,
          "lng": 7.018996529892721
        },
        "southwest": {
          "lat": 5.487756820107278,
          "lng": 7.016296870107277
        }
      },
      "formatted_address": "25 Concorde Ave, New Owerri 460281, Owerri, Nigeria",
      "google_map_url": "https://maps.google.com?q=5.489059,7.0175879",
      "google_place_id": "ChIJp-pD3Fn-QhARqqmhg-qLeOI"
    }
  },
  {
    "id": "66912",
    "name": "AMATO TRIANGLE JUNCTION OROGWE",
    "registration_area_id": "3656",
    "precise_location": null,
    "abbreviation": "032",
    "units": "032",
    "delimitation": "16/27/10/032",
    "remark": "NEW PU",
    "ward_id": "3656",
    "ward_name": "IRETE/OROGWE",
    "local_government_id": "319",
    "local_government_name": "OWERRI WEST (UMUGUMA)",
    "state_id": "16",
    "state_name": "IMO",
    "location": {
      "latitude": 5.5382855,
      "longitude": 6.981095,
      "viewport": {
        "northeast": {
          "lat": 5.539636729892722,
          "lng": 6.982441629892723
        },
        "southwest": {
          "lat": 5.536937070107278,
          "lng": 6.979741970107279
        }
      },
      "formatted_address": "GXQJ+8F7, New Owerri 460102, Orogwe, Nigeria",
      "google_map_url": "https://maps.google.com?q=5.5382855,6.981095",
      "google_place_id": "ChIJI41lngxRQhARHkHr_S6AZQs"
    }
  },
  {
    "id": "66913",
    "name": "AMA UMUNBE SQ. IRETE",
    "registration_area_id": "3656",
    "precise_location": null,
    "abbreviation": "033",
    "units": "033",
    "delimitation": "16/27/10/033",
    "remark": "NEW PU",
    "ward_id": "3656",
    "ward_name": "IRETE/OROGWE",
    "local_government_id": "319",
    "local_government_name": "OWERRI WEST (UMUGUMA)",
    "state_id": "16",
    "state_name": "IMO",
    "location": {
      "latitude": 5.5096455,
      "longitude": 7.0390904,
      "viewport": {
        "northeast": {
          "lat": 5.511005629892722,
          "lng": 7.040414079892722
        },
        "southwest": {
          "lat": 5.508305970107278,
          "lng": 7.037714420107278
        }
      },
      "formatted_address": "West,, Owerri, Nigeria",
      "google_map_url": "https://maps.google.com?q=5.5096455,7.0390904",
      "google_place_id": "ChIJ2Sn4xqdbQhAR5XjmRYCnyk0"
    }
  }
]