[
  {
    "id": "346883",
    "name": "OKE OJEGE, OKE OJEGE",
    "registration_area_id": "17620",
    "precise_location": null,
    "abbreviation": "001",
    "units": "001",
    "delimitation": "28/11/08/001",
    "remark": "EXISTING PU",
    "ward_id": "17620",
    "ward_name": "OKE-IGBO 11",
    "local_government_id": "592",
    "local_government_name": "ILEOLUJI/OKEIGBO",
    "state_id": "28",
    "state_name": "ONDO",
    "location": {
      "latitude": 7.1600648,
      "longitude": 4.7432763,
      "viewport": {
        "northeast": {
          "lat": 7.1897001,
          "lng": 4.7619963
        },
        "southwest": {
          "lat": 7.1319016,
          "lng": 4.7123883
        }
      },
      "formatted_address": "Oke-Igbo 11, 351107, Nigeria",
      "google_map_url": "https://maps.google.com?q=7.1600648,4.7432763",
      "google_place_id": "ChIJzQce7lFnOBARvYOhXYoBqMs"
    }
  },
  {
    "id": "346884",
    "name": "OKE OJEGE, OKE OJEGE",
    "registration_area_id": "17620",
    "precise_location": null,
    "abbreviation": "002",
    "units": "002",
    "delimitation": "28/11/08/002",
    "remark": "EXISTING PU",
    "ward_id": "17620",
    "ward_name": "OKE-IGBO 11",
    "local_government_id": "592",
    "local_government_name": "ILEOLUJI/OKEIGBO",
    "state_id": "28",
    "state_name": "ONDO",
    "location": {
      "latitude": 7.1600648,
      "longitude": 4.7432763,
      "viewport": {
        "northeast": {
          "lat": 7.1897001,
          "lng": 4.7619963
        },
        "southwest": {
          "lat": 7.1319016,
          "lng": 4.7123883
        }
      },
      "formatted_address": "Oke-Igbo 11, 351107, Nigeria",
      "google_map_url": "https://maps.google.com?q=7.1600648,4.7432763",
      "google_place_id": "ChIJzQce7lFnOBARvYOhXYoBqMs"
    }
  },
  {
    "id": "346885",
    "name": "SURULERE, SURULERE",
    "registration_area_id": "17620",
    "precise_location": null,
    "abbreviation": "003",
    "units": "003",
    "delimitation": "28/11/08/003",
    "remark": "EXISTING PU",
    "ward_id": "17620",
    "ward_name": "OKE-IGBO 11",
    "local_government_id": "592",
    "local_government_name": "ILEOLUJI/OKEIGBO",
    "state_id": "28",
    "state_name": "ONDO",
    "location": null
  },
  {
    "id": "346886",
    "name": "AGO IJEBU, AGO IJEBU",
    "registration_area_id": "17620",
    "precise_location": null,
    "abbreviation": "004",
    "units": "004",
    "delimitation": "28/11/08/004",
    "remark": "EXISTING PU",
    "ward_id": "17620",
    "ward_name": "OKE-IGBO 11",
    "local_government_id": "592",
    "local_government_name": "ILEOLUJI/OKEIGBO",
    "state_id": "28",
    "state_name": "ONDO",
    "location": {
      "latitude": 7.1600648,
      "longitude": 4.7432763,
      "viewport": {
        "northeast": {
          "lat": 7.1897001,
          "lng": 4.7619963
        },
        "southwest": {
          "lat": 7.1319016,
          "lng": 4.7123883
        }
      },
      "formatted_address": "Oke-Igbo 11, 351107, Nigeria",
      "google_map_url": "https://maps.google.com?q=7.1600648,4.7432763",
      "google_place_id": "ChIJzQce7lFnOBARvYOhXYoBqMs"
    }
  },
  {
    "id": "346887",
    "name": "OLORUNTELE, OLORUNTELE",
    "registration_area_id": "17620",
    "precise_location": null,
    "abbreviation": "005",
    "units": "005",
    "delimitation": "28/11/08/005",
    "remark": "EXISTING PU",
    "ward_id": "17620",
    "ward_name": "OKE-IGBO 11",
    "local_government_id": "592",
    "local_government_name": "ILEOLUJI/OKEIGBO",
    "state_id": "28",
    "state_name": "ONDO",
    "location": {
      "latitude": 7.1526,
      "longitude": 4.7538,
      "viewport": {
        "northeast": {
          "lat": 7.153868829892722,
          "lng": 4.755298779892722
        },
        "southwest": {
          "lat": 7.151169170107278,
          "lng": 4.752599120107278
        }
      },
      "formatted_address": "5Q33+2GV, 351107, Ondo, Nigeria",
      "google_map_url": "https://maps.google.com?q=7.1526,4.7538",
      "google_place_id": "ChIJu_XWnMxgOBARGIwf9xZvwwY"
    }
  },
  {
    "id": "346888",
    "name": "OLORUNTELE, OLORUNTELE",
    "registration_area_id": "17620",
    "precise_location": null,
    "abbreviation": "006",
    "units": "006",
    "delimitation": "28/11/08/006",
    "remark": "EXISTING PU",
    "ward_id": "17620",
    "ward_name": "OKE-IGBO 11",
    "local_government_id": "592",
    "local_government_name": "ILEOLUJI/OKEIGBO",
    "state_id": "28",
    "state_name": "ONDO",
    "location": {
      "latitude": 7.1526,
      "longitude": 4.7538,
      "viewport": {
        "northeast": {
          "lat": 7.153868829892722,
          "lng": 4.755298779892722
        },
        "southwest": {
          "lat": 7.151169170107278,
          "lng": 4.752599120107278
        }
      },
      "formatted_address": "5Q33+2GV, 351107, Ondo, Nigeria",
      "google_map_url": "https://maps.google.com?q=7.1526,4.7538",
      "google_place_id": "ChIJu_XWnMxgOBARGIwf9xZvwwY"
    }
  },
  {
    "id": "346889",
    "name": "PAROBA, PAROBA",
    "registration_area_id": "17620",
    "precise_location": null,
    "abbreviation": "007",
    "units": "007",
    "delimitation": "28/11/08/007",
    "remark": "EXISTING PU",
    "ward_id": "17620",
    "ward_name": "OKE-IGBO 11",
    "local_government_id": "592",
    "local_government_name": "ILEOLUJI/OKEIGBO",
    "state_id": "28",
    "state_name": "ONDO",
    "location": {
      "latitude": 7.1592099,
      "longitude": 4.7306487,
      "viewport": {
        "northeast": {
          "lat": 7.160459179892722,
          "lng": 4.732342979892721
        },
        "southwest": {
          "lat": 7.157759520107279,
          "lng": 4.729643320107277
        }
      },
      "formatted_address": "5P5J+M6C, 351107, Okeigbo, Nigeria",
      "google_map_url": "https://maps.google.com?q=7.1592099,4.7306487",
      "google_place_id": "ChIJXf8GSClnOBAR8y3PhJtSDHI"
    }
  },
  {
    "id": "346890",
    "name": "EHINOKE, EHINOKE/AJIBIKE",
    "registration_area_id": "17620",
    "precise_location": null,
    "abbreviation": "008",
    "units": "008",
    "delimitation": "28/11/08/008",
    "remark": "EXISTING PU",
    "ward_id": "17620",
    "ward_name": "OKE-IGBO 11",
    "local_government_id": "592",
    "local_government_name": "ILEOLUJI/OKEIGBO",
    "state_id": "28",
    "state_name": "ONDO",
    "location": null
  },
  {
    "id": "346891",
    "name": "OPEN SPACE AT IFE-OLU JUNCTION, SURULERE",
    "registration_area_id": "17620",
    "precise_location": null,
    "abbreviation": "009",
    "units": "009",
    "delimitation": "28/11/08/009",
    "remark": "NEW PU",
    "ward_id": "17620",
    "ward_name": "OKE-IGBO 11",
    "local_government_id": "592",
    "local_government_name": "ILEOLUJI/OKEIGBO",
    "state_id": "28",
    "state_name": "ONDO",
    "location": null
  },
  {
    "id": "346892",
    "name": "OPEN SPACE BESIDE STRAIGHT EDGE HOTEL, OLORUNTELE",
    "registration_area_id": "17620",
    "precise_location": null,
    "abbreviation": "010",
    "units": "010",
    "delimitation": "28/11/08/010",
    "remark": "NEW PU",
    "ward_id": "17620",
    "ward_name": "OKE-IGBO 11",
    "local_government_id": "592",
    "local_government_name": "ILEOLUJI/OKEIGBO",
    "state_id": "28",
    "state_name": "ONDO",
    "location": {
      "latitude": 7.164863,
      "longitude": 4.7207054,
      "viewport": {
        "northeast": {
          "lat": 7.16623052989272,
          "lng": 4.722081279892721
        },
        "southwest": {
          "lat": 7.163530870107277,
          "lng": 4.719381620107277
        }
      },
      "formatted_address": "Ondo- Ife Rd, 351107, Okeigbo, Nigeria",
      "google_map_url": "https://maps.google.com?q=7.164863,4.7207054",
      "google_place_id": "ChIJa9fV0JxjOBARQN3g_ypsmRo"
    }
  },
  {
    "id": "346893",
    "name": "ST PETER'S PRIMARY SCHOOL OLORUNTELE",
    "registration_area_id": "17620",
    "precise_location": null,
    "abbreviation": "011",
    "units": "011",
    "delimitation": "28/11/08/011",
    "remark": "NEW PU",
    "ward_id": "17620",
    "ward_name": "OKE-IGBO 11",
    "local_government_id": "592",
    "local_government_name": "ILEOLUJI/OKEIGBO",
    "state_id": "28",
    "state_name": "ONDO",
    "location": {
      "latitude": 7.2037819,
      "longitude": 4.8672973,
      "viewport": {
        "northeast": {
          "lat": 7.20515507989272,
          "lng": 4.868657829892721
        },
        "southwest": {
          "lat": 7.202455420107276,
          "lng": 4.865958170107278
        }
      },
      "formatted_address": "6V38+FWR, 351110, Ile Oluji, Nigeria",
      "google_map_url": "https://maps.google.com?q=7.2037819,4.8672973",
      "google_place_id": "ChIJGePC2RtlOBARXxgkPmekE3E"
    }
  },
  {
    "id": "346894",
    "name": "OPEN SPACE OPPOSITE BOVAS FILLING STATION, ALONG ONDO-IFE ROAD",
    "registration_area_id": "17620",
    "precise_location": null,
    "abbreviation": "012",
    "units": "012",
    "delimitation": "28/11/08/012",
    "remark": "NEW PU",
    "ward_id": "17620",
    "ward_name": "OKE-IGBO 11",
    "local_government_id": "592",
    "local_government_name": "ILEOLUJI/OKEIGBO",
    "state_id": "28",
    "state_name": "ONDO",
    "location": {
      "latitude": 7.0979785,
      "longitude": 4.8315737,
      "viewport": {
        "northeast": {
          "lat": 7.099306429892723,
          "lng": 4.832921729892723
        },
        "southwest": {
          "lat": 7.096606770107279,
          "lng": 4.830222070107279
        }
      },
      "formatted_address": "3RXJ+5JW, Surulere St, 351103, Ondo, Nigeria",
      "google_map_url": "https://maps.google.com?q=7.0979785,4.8315737",
      "google_place_id": "ChIJf0BohkdiOBARZgfYwaCi_aw"
    }
  }
]