[
  {
    "id": "247",
    "name": "GULF COURSE PRIMARY SCHOOL  - SCHOOL PREMISES I",
    "registration_area_id": "7",
    "precise_location": null,
    "abbreviation": "001",
    "units": "001",
    "delimitation": "01/01/07/001",
    "remark": "EXISTING PU",
    "ward_id": "7",
    "ward_name": "OLD ABA GRA",
    "local_government_id": "1",
    "local_government_name": "ABA NORTH",
    "state_id": "1",
    "state_name": "ABIA",
    "location": {
      "latitude": 5.1153863,
      "longitude": 7.364125800000001,
      "viewport": {
        "northeast": {
          "lat": 5.116680679892722,
          "lng": 7.365417529892722
        },
        "southwest": {
          "lat": 5.113981020107278,
          "lng": 7.362717870107278
        }
      },
      "formatted_address": "2/6 Okigwe Rd, Aba 450102, Aba, Nigeria",
      "google_map_url": "https://maps.google.com?q=5.1153863,7.364125800000001",
      "google_place_id": "ChIJJTWSlESZQhARFK_wYIR6SQA"
    }
  },
  {
    "id": "248",
    "name": "GULF COURSE PRIMARY SCHOOL  - SCHOOL PREMISES II",
    "registration_area_id": "7",
    "precise_location": null,
    "abbreviation": "002",
    "units": "002",
    "delimitation": "01/01/07/002",
    "remark": "EXISTING PU",
    "ward_id": "7",
    "ward_name": "OLD ABA GRA",
    "local_government_id": "1",
    "local_government_name": "ABA NORTH",
    "state_id": "1",
    "state_name": "ABIA",
    "location": {
      "latitude": 5.1153863,
      "longitude": 7.364125800000001,
      "viewport": {
        "northeast": {
          "lat": 5.116680679892722,
          "lng": 7.365417529892722
        },
        "southwest": {
          "lat": 5.113981020107278,
          "lng": 7.362717870107278
        }
      },
      "formatted_address": "2/6 Okigwe Rd, Aba 450102, Aba, Nigeria",
      "google_map_url": "https://maps.google.com?q=5.1153863,7.364125800000001",
      "google_place_id": "ChIJJTWSlESZQhARFK_wYIR6SQA"
    }
  },
  {
    "id": "249",
    "name": "GULF COURSE PRIMARY SCHOOL  - SCHOOL PREMISES III",
    "registration_area_id": "7",
    "precise_location": null,
    "abbreviation": "003",
    "units": "003",
    "delimitation": "01/01/07/003",
    "remark": "EXISTING PU",
    "ward_id": "7",
    "ward_name": "OLD ABA GRA",
    "local_government_id": "1",
    "local_government_name": "ABA NORTH",
    "state_id": "1",
    "state_name": "ABIA",
    "location": {
      "latitude": 5.1153863,
      "longitude": 7.364125800000001,
      "viewport": {
        "northeast": {
          "lat": 5.116680679892722,
          "lng": 7.365417529892722
        },
        "southwest": {
          "lat": 5.113981020107278,
          "lng": 7.362717870107278
        }
      },
      "formatted_address": "2/6 Okigwe Rd, Aba 450102, Aba, Nigeria",
      "google_map_url": "https://maps.google.com?q=5.1153863,7.364125800000001",
      "google_place_id": "ChIJJTWSlESZQhARFK_wYIR6SQA"
    }
  },
  {
    "id": "250",
    "name": "GULF COURSE PRIMARY SCHOOL  - SCHOOL PREMISES IV",
    "registration_area_id": "7",
    "precise_location": null,
    "abbreviation": "004",
    "units": "004",
    "delimitation": "01/01/07/004",
    "remark": "EXISTING PU",
    "ward_id": "7",
    "ward_name": "OLD ABA GRA",
    "local_government_id": "1",
    "local_government_name": "ABA NORTH",
    "state_id": "1",
    "state_name": "ABIA",
    "location": {
      "latitude": 5.1153863,
      "longitude": 7.364125800000001,
      "viewport": {
        "northeast": {
          "lat": 5.116680679892722,
          "lng": 7.365417529892722
        },
        "southwest": {
          "lat": 5.113981020107278,
          "lng": 7.362717870107278
        }
      },
      "formatted_address": "2/6 Okigwe Rd, Aba 450102, Aba, Nigeria",
      "google_map_url": "https://maps.google.com?q=5.1153863,7.364125800000001",
      "google_place_id": "ChIJJTWSlESZQhARFK_wYIR6SQA"
    }
  },
  {
    "id": "251",
    "name": "GULF COURSE PRIMARY SCHOOL  - SCHOOL PREMISES V",
    "registration_area_id": "7",
    "precise_location": null,
    "abbreviation": "005",
    "units": "005",
    "delimitation": "01/01/07/005",
    "remark": "EXISTING PU",
    "ward_id": "7",
    "ward_name": "OLD ABA GRA",
    "local_government_id": "1",
    "local_government_name": "ABA NORTH",
    "state_id": "1",
    "state_name": "ABIA",
    "location": {
      "latitude": 5.1153863,
      "longitude": 7.364125800000001,
      "viewport": {
        "northeast": {
          "lat": 5.116680679892722,
          "lng": 7.365417529892722
        },
        "southwest": {
          "lat": 5.113981020107278,
          "lng": 7.362717870107278
        }
      },
      "formatted_address": "2/6 Okigwe Rd, Aba 450102, Aba, Nigeria",
      "google_map_url": "https://maps.google.com?q=5.1153863,7.364125800000001",
      "google_place_id": "ChIJJTWSlESZQhARFK_wYIR6SQA"
    }
  },
  {
    "id": "252",
    "name": "GULF COURSE PRIMARY SCHOOL  - SCHOOL PREMISES VI",
    "registration_area_id": "7",
    "precise_location": null,
    "abbreviation": "006",
    "units": "006",
    "delimitation": "01/01/07/006",
    "remark": "EXISTING PU",
    "ward_id": "7",
    "ward_name": "OLD ABA GRA",
    "local_government_id": "1",
    "local_government_name": "ABA NORTH",
    "state_id": "1",
    "state_name": "ABIA",
    "location": {
      "latitude": 5.1153863,
      "longitude": 7.364125800000001,
      "viewport": {
        "northeast": {
          "lat": 5.116680679892722,
          "lng": 7.365417529892722
        },
        "southwest": {
          "lat": 5.113981020107278,
          "lng": 7.362717870107278
        }
      },
      "formatted_address": "2/6 Okigwe Rd, Aba 450102, Aba, Nigeria",
      "google_map_url": "https://maps.google.com?q=5.1153863,7.364125800000001",
      "google_place_id": "ChIJJTWSlESZQhARFK_wYIR6SQA"
    }
  },
  {
    "id": "253",
    "name": "GULF COURSE PRIMARY SCHOOL  - SCHOOL PREMISES VII",
    "registration_area_id": "7",
    "precise_location": null,
    "abbreviation": "007",
    "units": "007",
    "delimitation": "01/01/07/007",
    "remark": "EXISTING PU",
    "ward_id": "7",
    "ward_name": "OLD ABA GRA",
    "local_government_id": "1",
    "local_government_name": "ABA NORTH",
    "state_id": "1",
    "state_name": "ABIA",
    "location": {
      "latitude": 5.1153863,
      "longitude": 7.364125800000001,
      "viewport": {
        "northeast": {
          "lat": 5.116680679892722,
          "lng": 7.365417529892722
        },
        "southwest": {
          "lat": 5.113981020107278,
          "lng": 7.362717870107278
        }
      },
      "formatted_address": "2/6 Okigwe Rd, Aba 450102, Aba, Nigeria",
      "google_map_url": "https://maps.google.com?q=5.1153863,7.364125800000001",
      "google_place_id": "ChIJJTWSlESZQhARFK_wYIR6SQA"
    }
  },
  {
    "id": "254",
    "name": "GULF COURSE PRIMARY SCHOOL  - SCHOOL PREMISES VIII",
    "registration_area_id": "7",
    "precise_location": null,
    "abbreviation": "008",
    "units": "008",
    "delimitation": "01/01/07/008",
    "remark": "EXISTING PU",
    "ward_id": "7",
    "ward_name": "OLD ABA GRA",
    "local_government_id": "1",
    "local_government_name": "ABA NORTH",
    "state_id": "1",
    "state_name": "ABIA",
    "location": {
      "latitude": 5.1153863,
      "longitude": 7.364125800000001,
      "viewport": {
        "northeast": {
          "lat": 5.116680679892722,
          "lng": 7.365417529892722
        },
        "southwest": {
          "lat": 5.113981020107278,
          "lng": 7.362717870107278
        }
      },
      "formatted_address": "2/6 Okigwe Rd, Aba 450102, Aba, Nigeria",
      "google_map_url": "https://maps.google.com?q=5.1153863,7.364125800000001",
      "google_place_id": "ChIJJTWSlESZQhARFK_wYIR6SQA"
    }
  },
  {
    "id": "255",
    "name": "GULF COURSE PRIMARY SCHOOL  - SCHOOL PREMISES IX",
    "registration_area_id": "7",
    "precise_location": null,
    "abbreviation": "009",
    "units": "009",
    "delimitation": "01/01/07/009",
    "remark": "EXISTING PU",
    "ward_id": "7",
    "ward_name": "OLD ABA GRA",
    "local_government_id": "1",
    "local_government_name": "ABA NORTH",
    "state_id": "1",
    "state_name": "ABIA",
    "location": {
      "latitude": 5.1153863,
      "longitude": 7.364125800000001,
      "viewport": {
        "northeast": {
          "lat": 5.116680679892722,
          "lng": 7.365417529892722
        },
        "southwest": {
          "lat": 5.113981020107278,
          "lng": 7.362717870107278
        }
      },
      "formatted_address": "2/6 Okigwe Rd, Aba 450102, Aba, Nigeria",
      "google_map_url": "https://maps.google.com?q=5.1153863,7.364125800000001",
      "google_place_id": "ChIJJTWSlESZQhARFK_wYIR6SQA"
    }
  },
  {
    "id": "256",
    "name": "GULF COURSE PRIMARY SCHOOL  - SCHOOL PREMISES X",
    "registration_area_id": "7",
    "precise_location": null,
    "abbreviation": "010",
    "units": "010",
    "delimitation": "01/01/07/010",
    "remark": "EXISTING PU",
    "ward_id": "7",
    "ward_name": "OLD ABA GRA",
    "local_government_id": "1",
    "local_government_name": "ABA NORTH",
    "state_id": "1",
    "state_name": "ABIA",
    "location": {
      "latitude": 5.1153863,
      "longitude": 7.364125800000001,
      "viewport": {
        "northeast": {
          "lat": 5.116680679892722,
          "lng": 7.365417529892722
        },
        "southwest": {
          "lat": 5.113981020107278,
          "lng": 7.362717870107278
        }
      },
      "formatted_address": "2/6 Okigwe Rd, Aba 450102, Aba, Nigeria",
      "google_map_url": "https://maps.google.com?q=5.1153863,7.364125800000001",
      "google_place_id": "ChIJJTWSlESZQhARFK_wYIR6SQA"
    }
  },
  {
    "id": "257",
    "name": "GULF COURSE PRIMARY SCHOOL  - SCHOOL PREMISES XI",
    "registration_area_id": "7",
    "precise_location": null,
    "abbreviation": "011",
    "units": "011",
    "delimitation": "01/01/07/011",
    "remark": "EXISTING PU",
    "ward_id": "7",
    "ward_name": "OLD ABA GRA",
    "local_government_id": "1",
    "local_government_name": "ABA NORTH",
    "state_id": "1",
    "state_name": "ABIA",
    "location": {
      "latitude": 5.1153863,
      "longitude": 7.364125800000001,
      "viewport": {
        "northeast": {
          "lat": 5.116680679892722,
          "lng": 7.365417529892722
        },
        "southwest": {
          "lat": 5.113981020107278,
          "lng": 7.362717870107278
        }
      },
      "formatted_address": "2/6 Okigwe Rd, Aba 450102, Aba, Nigeria",
      "google_map_url": "https://maps.google.com?q=5.1153863,7.364125800000001",
      "google_place_id": "ChIJJTWSlESZQhARFK_wYIR6SQA"
    }
  },
  {
    "id": "258",
    "name": "SPORTS CLUB-GOVERNOR'S LODGE I",
    "registration_area_id": "7",
    "precise_location": null,
    "abbreviation": "012",
    "units": "012",
    "delimitation": "01/01/07/012",
    "remark": "EXISTING PU",
    "ward_id": "7",
    "ward_name": "OLD ABA GRA",
    "local_government_id": "1",
    "local_government_name": "ABA NORTH",
    "state_id": "1",
    "state_name": "ABIA",
    "location": {
      "latitude": 5.1204095,
      "longitude": 7.3666689,
      "viewport": {
        "northeast": {
          "lat": 5.121800079892721,
          "lng": 7.368062679892722
        },
        "southwest": {
          "lat": 5.119100420107277,
          "lng": 7.365363020107278
        }
      },
      "formatted_address": "1 Club Road, Aba 450102, Aba, Nigeria",
      "google_map_url": "https://maps.google.com?q=5.1204095,7.3666689",
      "google_place_id": "ChIJ91GvOEKZQhAR_K1TubwfpmI"
    }
  },
  {
    "id": "259",
    "name": "SPORTS CLUB-GOVERNOR'S LODGE II",
    "registration_area_id": "7",
    "precise_location": null,
    "abbreviation": "013",
    "units": "013",
    "delimitation": "01/01/07/013",
    "remark": "EXISTING PU",
    "ward_id": "7",
    "ward_name": "OLD ABA GRA",
    "local_government_id": "1",
    "local_government_name": "ABA NORTH",
    "state_id": "1",
    "state_name": "ABIA",
    "location": {
      "latitude": 5.1204095,
      "longitude": 7.3666689,
      "viewport": {
        "northeast": {
          "lat": 5.121800079892721,
          "lng": 7.368062679892722
        },
        "southwest": {
          "lat": 5.119100420107277,
          "lng": 7.365363020107278
        }
      },
      "formatted_address": "1 Club Road, Aba 450102, Aba, Nigeria",
      "google_map_url": "https://maps.google.com?q=5.1204095,7.3666689",
      "google_place_id": "ChIJ91GvOEKZQhAR_K1TubwfpmI"
    }
  },
  {
    "id": "260",
    "name": "SPORTS CLUB-GOVERNOR'S LODGE III",
    "registration_area_id": "7",
    "precise_location": null,
    "abbreviation": "014",
    "units": "014",
    "delimitation": "01/01/07/014",
    "remark": "EXISTING PU",
    "ward_id": "7",
    "ward_name": "OLD ABA GRA",
    "local_government_id": "1",
    "local_government_name": "ABA NORTH",
    "state_id": "1",
    "state_name": "ABIA",
    "location": {
      "latitude": 5.1204095,
      "longitude": 7.3666689,
      "viewport": {
        "northeast": {
          "lat": 5.121800079892721,
          "lng": 7.368062679892722
        },
        "southwest": {
          "lat": 5.119100420107277,
          "lng": 7.365363020107278
        }
      },
      "formatted_address": "1 Club Road, Aba 450102, Aba, Nigeria",
      "google_map_url": "https://maps.google.com?q=5.1204095,7.3666689",
      "google_place_id": "ChIJ91GvOEKZQhAR_K1TubwfpmI"
    }
  },
  {
    "id": "261",
    "name": "SPORTS CLUB-GOVERNOR'S LODGE IV",
    "registration_area_id": "7",
    "precise_location": null,
    "abbreviation": "015",
    "units": "015",
    "delimitation": "01/01/07/015",
    "remark": "EXISTING PU",
    "ward_id": "7",
    "ward_name": "OLD ABA GRA",
    "local_government_id": "1",
    "local_government_name": "ABA NORTH",
    "state_id": "1",
    "state_name": "ABIA",
    "location": {
      "latitude": 5.1204095,
      "longitude": 7.3666689,
      "viewport": {
        "northeast": {
          "lat": 5.121800079892721,
          "lng": 7.368062679892722
        },
        "southwest": {
          "lat": 5.119100420107277,
          "lng": 7.365363020107278
        }
      },
      "formatted_address": "1 Club Road, Aba 450102, Aba, Nigeria",
      "google_map_url": "https://maps.google.com?q=5.1204095,7.3666689",
      "google_place_id": "ChIJ91GvOEKZQhAR_K1TubwfpmI"
    }
  },
  {
    "id": "262",
    "name": "SPORTS CLUB-GOVERNOR'S LODGE V",
    "registration_area_id": "7",
    "precise_location": null,
    "abbreviation": "016",
    "units": "016",
    "delimitation": "01/01/07/016",
    "remark": "EXISTING PU",
    "ward_id": "7",
    "ward_name": "OLD ABA GRA",
    "local_government_id": "1",
    "local_government_name": "ABA NORTH",
    "state_id": "1",
    "state_name": "ABIA",
    "location": {
      "latitude": 5.1204095,
      "longitude": 7.3666689,
      "viewport": {
        "northeast": {
          "lat": 5.121800079892721,
          "lng": 7.368062679892722
        },
        "southwest": {
          "lat": 5.119100420107277,
          "lng": 7.365363020107278
        }
      },
      "formatted_address": "1 Club Road, Aba 450102, Aba, Nigeria",
      "google_map_url": "https://maps.google.com?q=5.1204095,7.3666689",
      "google_place_id": "ChIJ91GvOEKZQhAR_K1TubwfpmI"
    }
  },
  {
    "id": "263",
    "name": "WATER TANK WATER TANK PREMISES I",
    "registration_area_id": "7",
    "precise_location": null,
    "abbreviation": "017",
    "units": "017",
    "delimitation": "01/01/07/017",
    "remark": "EXISTING PU",
    "ward_id": "7",
    "ward_name": "OLD ABA GRA",
    "local_government_id": "1",
    "local_government_name": "ABA NORTH",
    "state_id": "1",
    "state_name": "ABIA",
    "location": {
      "latitude": 5.1283001,
      "longitude": 7.3631529,
      "viewport": {
        "northeast": {
          "lat": 5.129496729892722,
          "lng": 7.36464932989272
        },
        "southwest": {
          "lat": 5.126797070107278,
          "lng": 7.361949670107276
        }
      },
      "formatted_address": "Brass Junction,, Opposite Abia State Polytechnics,, 450272, Aba, Nigeria",
      "google_map_url": "https://maps.google.com?q=5.1283001,7.3631529",
      "google_place_id": "ChIJq-_-9EOZQhARMR7kDRoICC8"
    }
  },
  {
    "id": "264",
    "name": "WATER TANK WATER TANK PREMISES II",
    "registration_area_id": "7",
    "precise_location": null,
    "abbreviation": "018",
    "units": "018",
    "delimitation": "01/01/07/018",
    "remark": "EXISTING PU",
    "ward_id": "7",
    "ward_name": "OLD ABA GRA",
    "local_government_id": "1",
    "local_government_name": "ABA NORTH",
    "state_id": "1",
    "state_name": "ABIA",
    "location": {
      "latitude": 5.1283001,
      "longitude": 7.3631529,
      "viewport": {
        "northeast": {
          "lat": 5.129496729892722,
          "lng": 7.36464932989272
        },
        "southwest": {
          "lat": 5.126797070107278,
          "lng": 7.361949670107276
        }
      },
      "formatted_address": "Brass Junction,, Opposite Abia State Polytechnics,, 450272, Aba, Nigeria",
      "google_map_url": "https://maps.google.com?q=5.1283001,7.3631529",
      "google_place_id": "ChIJq-_-9EOZQhARMR7kDRoICC8"
    }
  },
  {
    "id": "265",
    "name": "WATER TANK WATER TANK PREMISES III",
    "registration_area_id": "7",
    "precise_location": null,
    "abbreviation": "019",
    "units": "019",
    "delimitation": "01/01/07/019",
    "remark": "EXISTING PU",
    "ward_id": "7",
    "ward_name": "OLD ABA GRA",
    "local_government_id": "1",
    "local_government_name": "ABA NORTH",
    "state_id": "1",
    "state_name": "ABIA",
    "location": {
      "latitude": 5.1283001,
      "longitude": 7.3631529,
      "viewport": {
        "northeast": {
          "lat": 5.129496729892722,
          "lng": 7.36464932989272
        },
        "southwest": {
          "lat": 5.126797070107278,
          "lng": 7.361949670107276
        }
      },
      "formatted_address": "Brass Junction,, Opposite Abia State Polytechnics,, 450272, Aba, Nigeria",
      "google_map_url": "https://maps.google.com?q=5.1283001,7.3631529",
      "google_place_id": "ChIJq-_-9EOZQhARMR7kDRoICC8"
    }
  },
  {
    "id": "266",
    "name": "WATER TANK WATER TANK PREMISES IV",
    "registration_area_id": "7",
    "precise_location": null,
    "abbreviation": "020",
    "units": "020",
    "delimitation": "01/01/07/020",
    "remark": "EXISTING PU",
    "ward_id": "7",
    "ward_name": "OLD ABA GRA",
    "local_government_id": "1",
    "local_government_name": "ABA NORTH",
    "state_id": "1",
    "state_name": "ABIA",
    "location": {
      "latitude": 5.1283001,
      "longitude": 7.3631529,
      "viewport": {
        "northeast": {
          "lat": 5.129496729892722,
          "lng": 7.36464932989272
        },
        "southwest": {
          "lat": 5.126797070107278,
          "lng": 7.361949670107276
        }
      },
      "formatted_address": "Brass Junction,, Opposite Abia State Polytechnics,, 450272, Aba, Nigeria",
      "google_map_url": "https://maps.google.com?q=5.1283001,7.3631529",
      "google_place_id": "ChIJq-_-9EOZQhARMR7kDRoICC8"
    }
  },
  {
    "id": "267",
    "name": "WATER TANK WATER TANK PREMISES V",
    "registration_area_id": "7",
    "precise_location": null,
    "abbreviation": "021",
    "units": "021",
    "delimitation": "01/01/07/021",
    "remark": "EXISTING PU",
    "ward_id": "7",
    "ward_name": "OLD ABA GRA",
    "local_government_id": "1",
    "local_government_name": "ABA NORTH",
    "state_id": "1",
    "state_name": "ABIA",
    "location": {
      "latitude": 5.1077378,
      "longitude": 7.360652099999999,
      "viewport": {
        "northeast": {
          "lat": 5.109087629892722,
          "lng": 7.362001929892722
        },
        "southwest": {
          "lat": 5.106387970107278,
          "lng": 7.359302270107277
        }
      },
      "formatted_address": "1, Tenant Road, Eziukwu Road, Nigeria",
      "google_map_url": "https://maps.google.com?q=5.1077378,7.360652099999999",
      "google_place_id": "ChIJ30FJqyaZQhARtCze2J0aMik"
    }
  },
  {
    "id": "268",
    "name": "WATER TANK WATER TANK PREMISES VI",
    "registration_area_id": "7",
    "precise_location": null,
    "abbreviation": "022",
    "units": "022",
    "delimitation": "01/01/07/022",
    "remark": "EXISTING PU",
    "ward_id": "7",
    "ward_name": "OLD ABA GRA",
    "local_government_id": "1",
    "local_government_name": "ABA NORTH",
    "state_id": "1",
    "state_name": "ABIA",
    "location": null
  },
  {
    "id": "269",
    "name": "WATER TANK WATER TANK PREMISES VII",
    "registration_area_id": "7",
    "precise_location": null,
    "abbreviation": "023",
    "units": "023",
    "delimitation": "01/01/07/023",
    "remark": "EXISTING PU",
    "ward_id": "7",
    "ward_name": "OLD ABA GRA",
    "local_government_id": "1",
    "local_government_name": "ABA NORTH",
    "state_id": "1",
    "state_name": "ABIA",
    "location": {
      "latitude": 5.1283001,
      "longitude": 7.3631529,
      "viewport": {
        "northeast": {
          "lat": 5.129496729892722,
          "lng": 7.36464932989272
        },
        "southwest": {
          "lat": 5.126797070107278,
          "lng": 7.361949670107276
        }
      },
      "formatted_address": "Brass Junction,, Opposite Abia State Polytechnics,, 450272, Aba, Nigeria",
      "google_map_url": "https://maps.google.com?q=5.1283001,7.3631529",
      "google_place_id": "ChIJq-_-9EOZQhARMR7kDRoICC8"
    }
  },
  {
    "id": "270",
    "name": "WATER TANK WATER TANK PREMISES VIII",
    "registration_area_id": "7",
    "precise_location": null,
    "abbreviation": "024",
    "units": "024",
    "delimitation": "01/01/07/024",
    "remark": "EXISTING PU",
    "ward_id": "7",
    "ward_name": "OLD ABA GRA",
    "local_government_id": "1",
    "local_government_name": "ABA NORTH",
    "state_id": "1",
    "state_name": "ABIA",
    "location": {
      "latitude": 5.1283001,
      "longitude": 7.3631529,
      "viewport": {
        "northeast": {
          "lat": 5.129496729892722,
          "lng": 7.36464932989272
        },
        "southwest": {
          "lat": 5.126797070107278,
          "lng": 7.361949670107276
        }
      },
      "formatted_address": "Brass Junction,, Opposite Abia State Polytechnics,, 450272, Aba, Nigeria",
      "google_map_url": "https://maps.google.com?q=5.1283001,7.3631529",
      "google_place_id": "ChIJq-_-9EOZQhARMR7kDRoICC8"
    }
  },
  {
    "id": "271",
    "name": "UGWUEZI SQUARE I",
    "registration_area_id": "7",
    "precise_location": null,
    "abbreviation": "025",
    "units": "025",
    "delimitation": "01/01/07/025",
    "remark": "NEW PU",
    "ward_id": "7",
    "ward_name": "OLD ABA GRA",
    "local_government_id": "1",
    "local_government_name": "ABA NORTH",
    "state_id": "1",
    "state_name": "ABIA",
    "location": {
      "latitude": 5.1343118,
      "longitude": 7.3553248,
      "viewport": {
        "northeast": {
          "lat": 5.135698829892722,
          "lng": 7.356630179892723
        },
        "southwest": {
          "lat": 5.132999170107278,
          "lng": 7.353930520107279
        }
      },
      "formatted_address": "161Oweri Road, Aba 450102, Aba, Nigeria",
      "google_map_url": "https://maps.google.com?q=5.1343118,7.3553248",
      "google_place_id": "ChIJhZ-3Vw2ZQhARY9HxxMtCzGA"
    }
  },
  {
    "id": "272",
    "name": "UGWUEZI SQUARE II",
    "registration_area_id": "7",
    "precise_location": null,
    "abbreviation": "026",
    "units": "026",
    "delimitation": "01/01/07/026",
    "remark": "NEW PU",
    "ward_id": "7",
    "ward_name": "OLD ABA GRA",
    "local_government_id": "1",
    "local_government_name": "ABA NORTH",
    "state_id": "1",
    "state_name": "ABIA",
    "location": {
      "latitude": 5.121578,
      "longitude": 7.373262200000001,
      "viewport": {
        "northeast": {
          "lat": 5.123000129892722,
          "lng": 7.374661379892721
        },
        "southwest": {
          "lat": 5.120300470107278,
          "lng": 7.371961720107278
        }
      },
      "formatted_address": "49CF+J79, Aba 450101, Aba, Nigeria",
      "google_map_url": "https://maps.google.com?q=5.121578,7.373262200000001",
      "google_place_id": "ChIJ_____z-ZQhAR54OXU8e46R4"
    }
  },
  {
    "id": "273",
    "name": "UGWUEZI SQUARE III",
    "registration_area_id": "7",
    "precise_location": null,
    "abbreviation": "027",
    "units": "027",
    "delimitation": "01/01/07/027",
    "remark": "NEW PU",
    "ward_id": "7",
    "ward_name": "OLD ABA GRA",
    "local_government_id": "1",
    "local_government_name": "ABA NORTH",
    "state_id": "1",
    "state_name": "ABIA",
    "location": {
      "latitude": 5.121578,
      "longitude": 7.373262200000001,
      "viewport": {
        "northeast": {
          "lat": 5.123000129892722,
          "lng": 7.374661379892721
        },
        "southwest": {
          "lat": 5.120300470107278,
          "lng": 7.371961720107278
        }
      },
      "formatted_address": "49CF+J79, Aba 450101, Aba, Nigeria",
      "google_map_url": "https://maps.google.com?q=5.121578,7.373262200000001",
      "google_place_id": "ChIJ_____z-ZQhAR54OXU8e46R4"
    }
  },
  {
    "id": "274",
    "name": "UGWUEZI SQUARE IV",
    "registration_area_id": "7",
    "precise_location": null,
    "abbreviation": "028",
    "units": "028",
    "delimitation": "01/01/07/028",
    "remark": "NEW PU",
    "ward_id": "7",
    "ward_name": "OLD ABA GRA",
    "local_government_id": "1",
    "local_government_name": "ABA NORTH",
    "state_id": "1",
    "state_name": "ABIA",
    "location": {
      "latitude": 5.1283001,
      "longitude": 7.3631529,
      "viewport": {
        "northeast": {
          "lat": 5.129496729892722,
          "lng": 7.36464932989272
        },
        "southwest": {
          "lat": 5.126797070107278,
          "lng": 7.361949670107276
        }
      },
      "formatted_address": "Brass Junction,, Opposite Abia State Polytechnics,, 450272, Aba, Nigeria",
      "google_map_url": "https://maps.google.com?q=5.1283001,7.3631529",
      "google_place_id": "ChIJq-_-9EOZQhARMR7kDRoICC8"
    }
  },
  {
    "id": "275",
    "name": "UGWUEZI SQUARE V",
    "registration_area_id": "7",
    "precise_location": null,
    "abbreviation": "029",
    "units": "029",
    "delimitation": "01/01/07/029",
    "remark": "NEW PU",
    "ward_id": "7",
    "ward_name": "OLD ABA GRA",
    "local_government_id": "1",
    "local_government_name": "ABA NORTH",
    "state_id": "1",
    "state_name": "ABIA",
    "location": {
      "latitude": 5.1248798,
      "longitude": 7.3549136,
      "viewport": {
        "northeast": {
          "lat": 5.126219729892722,
          "lng": 7.356272679892721
        },
        "southwest": {
          "lat": 5.123520070107278,
          "lng": 7.353573020107278
        }
      },
      "formatted_address": "49F3+XX2, Unnamed Road, Aba 450102, Aba, Nigeria",
      "google_map_url": "https://maps.google.com?q=5.1248798,7.3549136",
      "google_place_id": "ChIJhUQMKWGZQhAR4Lj2u6xIJeE"
    }
  },
  {
    "id": "276",
    "name": "AMA NWAIGWE SQUARE VI",
    "registration_area_id": "7",
    "precise_location": null,
    "abbreviation": "030",
    "units": "030",
    "delimitation": "01/01/07/030",
    "remark": "NEW PU",
    "ward_id": "7",
    "ward_name": "OLD ABA GRA",
    "local_government_id": "1",
    "local_government_name": "ABA NORTH",
    "state_id": "1",
    "state_name": "ABIA",
    "location": {
      "latitude": 5.116819,
      "longitude": 7.370903999999999,
      "viewport": {
        "northeast": {
          "lat": 5.118281629892722,
          "lng": 7.372374629892722
        },
        "southwest": {
          "lat": 5.115581970107278,
          "lng": 7.369674970107278
        }
      },
      "formatted_address": "11, FACTORY ROAD ABA, ABA NORTH ABIA STATE#, Nigeria",
      "google_map_url": "https://maps.google.com?q=5.116819,7.370903999999999",
      "google_place_id": "ChIJWbU9RdqZQhARsPifgXs5Sfo"
    }
  },
  {
    "id": "277",
    "name": "AMA NWAIGWE SQUARE II",
    "registration_area_id": "7",
    "precise_location": null,
    "abbreviation": "031",
    "units": "031",
    "delimitation": "01/01/07/031",
    "remark": "NEW PU",
    "ward_id": "7",
    "ward_name": "OLD ABA GRA",
    "local_government_id": "1",
    "local_government_name": "ABA NORTH",
    "state_id": "1",
    "state_name": "ABIA",
    "location": {
      "latitude": 5.116819,
      "longitude": 7.370903999999999,
      "viewport": {
        "northeast": {
          "lat": 5.118281629892722,
          "lng": 7.372374629892722
        },
        "southwest": {
          "lat": 5.115581970107278,
          "lng": 7.369674970107278
        }
      },
      "formatted_address": "11, FACTORY ROAD ABA, ABA NORTH ABIA STATE#, Nigeria",
      "google_map_url": "https://maps.google.com?q=5.116819,7.370903999999999",
      "google_place_id": "ChIJWbU9RdqZQhARsPifgXs5Sfo"
    }
  },
  {
    "id": "278",
    "name": "AMA NWAIGWE SQUARE III",
    "registration_area_id": "7",
    "precise_location": null,
    "abbreviation": "032",
    "units": "032",
    "delimitation": "01/01/07/032",
    "remark": "NEW PU",
    "ward_id": "7",
    "ward_name": "OLD ABA GRA",
    "local_government_id": "1",
    "local_government_name": "ABA NORTH",
    "state_id": "1",
    "state_name": "ABIA",
    "location": {
      "latitude": 5.1283001,
      "longitude": 7.3631529,
      "viewport": {
        "northeast": {
          "lat": 5.129496729892722,
          "lng": 7.36464932989272
        },
        "southwest": {
          "lat": 5.126797070107278,
          "lng": 7.361949670107276
        }
      },
      "formatted_address": "Brass Junction,, Opposite Abia State Polytechnics,, 450272, Aba, Nigeria",
      "google_map_url": "https://maps.google.com?q=5.1283001,7.3631529",
      "google_place_id": "ChIJq-_-9EOZQhARMR7kDRoICC8"
    }
  },
  {
    "id": "279",
    "name": "AMA NWAIGWE SQUARE IV",
    "registration_area_id": "7",
    "precise_location": null,
    "abbreviation": "033",
    "units": "033",
    "delimitation": "01/01/07/033",
    "remark": "NEW PU",
    "ward_id": "7",
    "ward_name": "OLD ABA GRA",
    "local_government_id": "1",
    "local_government_name": "ABA NORTH",
    "state_id": "1",
    "state_name": "ABIA",
    "location": {
      "latitude": 5.1283001,
      "longitude": 7.3631529,
      "viewport": {
        "northeast": {
          "lat": 5.129496729892722,
          "lng": 7.36464932989272
        },
        "southwest": {
          "lat": 5.126797070107278,
          "lng": 7.361949670107276
        }
      },
      "formatted_address": "Brass Junction,, Opposite Abia State Polytechnics,, 450272, Aba, Nigeria",
      "google_map_url": "https://maps.google.com?q=5.1283001,7.3631529",
      "google_place_id": "ChIJq-_-9EOZQhARMR7kDRoICC8"
    }
  },
  {
    "id": "280",
    "name": "AMA NWAIGWE SQUARE V",
    "registration_area_id": "7",
    "precise_location": null,
    "abbreviation": "034",
    "units": "034",
    "delimitation": "01/01/07/034",
    "remark": "NEW PU",
    "ward_id": "7",
    "ward_name": "OLD ABA GRA",
    "local_government_id": "1",
    "local_government_name": "ABA NORTH",
    "state_id": "1",
    "state_name": "ABIA",
    "location": {
      "latitude": 5.1283001,
      "longitude": 7.3631529,
      "viewport": {
        "northeast": {
          "lat": 5.129496729892722,
          "lng": 7.36464932989272
        },
        "southwest": {
          "lat": 5.126797070107278,
          "lng": 7.361949670107276
        }
      },
      "formatted_address": "Brass Junction,, Opposite Abia State Polytechnics,, 450272, Aba, Nigeria",
      "google_map_url": "https://maps.google.com?q=5.1283001,7.3631529",
      "google_place_id": "ChIJq-_-9EOZQhARMR7kDRoICC8"
    }
  },
  {
    "id": "281",
    "name": "SPORTS CLUB/GOVERNOR'S LODGE VI",
    "registration_area_id": "7",
    "precise_location": null,
    "abbreviation": "035",
    "units": "035",
    "delimitation": "01/01/07/035",
    "remark": "NEW PU",
    "ward_id": "7",
    "ward_name": "OLD ABA GRA",
    "local_government_id": "1",
    "local_government_name": "ABA NORTH",
    "state_id": "1",
    "state_name": "ABIA",
    "location": {
      "latitude": 5.1204095,
      "longitude": 7.3666689,
      "viewport": {
        "northeast": {
          "lat": 5.121800079892721,
          "lng": 7.368062679892722
        },
        "southwest": {
          "lat": 5.119100420107277,
          "lng": 7.365363020107278
        }
      },
      "formatted_address": "1 Club Road, Aba 450102, Aba, Nigeria",
      "google_map_url": "https://maps.google.com?q=5.1204095,7.3666689",
      "google_place_id": "ChIJ91GvOEKZQhAR_K1TubwfpmI"
    }
  },
  {
    "id": "282",
    "name": "SPORTS CLUB/GOVERNOR'S LODGE VII",
    "registration_area_id": "7",
    "precise_location": null,
    "abbreviation": "036",
    "units": "036",
    "delimitation": "01/01/07/036",
    "remark": "NEW PU",
    "ward_id": "7",
    "ward_name": "OLD ABA GRA",
    "local_government_id": "1",
    "local_government_name": "ABA NORTH",
    "state_id": "1",
    "state_name": "ABIA",
    "location": {
      "latitude": 5.1204095,
      "longitude": 7.3666689,
      "viewport": {
        "northeast": {
          "lat": 5.121800079892721,
          "lng": 7.368062679892722
        },
        "southwest": {
          "lat": 5.119100420107277,
          "lng": 7.365363020107278
        }
      },
      "formatted_address": "1 Club Road, Aba 450102, Aba, Nigeria",
      "google_map_url": "https://maps.google.com?q=5.1204095,7.3666689",
      "google_place_id": "ChIJ91GvOEKZQhAR_K1TubwfpmI"
    }
  },
  {
    "id": "283",
    "name": "BATA PREM IV",
    "registration_area_id": "7",
    "precise_location": null,
    "abbreviation": "037",
    "units": "037",
    "delimitation": "01/01/07/037",
    "remark": "NEW PU",
    "ward_id": "7",
    "ward_name": "OLD ABA GRA",
    "local_government_id": "1",
    "local_government_name": "ABA NORTH",
    "state_id": "1",
    "state_name": "ABIA",
    "location": {
      "latitude": 5.133499599999999,
      "longitude": 7.3554506,
      "viewport": {
        "northeast": {
          "lat": 5.134885479892722,
          "lng": 7.356838129892721
        },
        "southwest": {
          "lat": 5.132185820107278,
          "lng": 7.354138470107277
        }
      },
      "formatted_address": "98 Aba-Owerri Rd, Aba 450102, Aba, Nigeria",
      "google_map_url": "https://maps.google.com?q=5.133499599999999,7.3554506",
      "google_place_id": "ChIJ2Vu6lXyZQhARYEkUbo_jw08"
    }
  }
]