[
  {
    "id": "356345",
    "name": "AJIMATI COMPOUND",
    "registration_area_id": "18223",
    "precise_location": null,
    "abbreviation": "001",
    "units": "001",
    "delimitation": "30/18/07/001",
    "remark": "EXISTING PU",
    "ward_id": "18223",
    "ward_name": "SABI GANA I",
    "local_government_id": "645",
    "local_government_name": "IWAJOWA",
    "state_id": "30",
    "state_name": "OYO",
    "location": {
      "latitude": 7.837575200000001,
      "longitude": 3.9402169,
      "viewport": {
        "northeast": {
          "lat": 7.83895222989272,
          "lng": 3.941614379892723
        },
        "southwest": {
          "lat": 7.836252570107276,
          "lng": 3.938914720107279
        }
      },
      "formatted_address": "RWQR+23G, Along Oyo-Ogbomoso Road, Oyo Town, Nigeria",
      "google_map_url": "https://maps.google.com?q=7.837575200000001,3.9402169",
      "google_place_id": "ChIJYf19d3xZNxAROFyZpVAUE84"
    }
  },
  {
    "id": "356346",
    "name": "COURT HALL, IGANA",
    "registration_area_id": "18223",
    "precise_location": null,
    "abbreviation": "002",
    "units": "002",
    "delimitation": "30/18/07/002",
    "remark": "EXISTING PU",
    "ward_id": "18223",
    "ward_name": "SABI GANA I",
    "local_government_id": "645",
    "local_government_name": "IWAJOWA",
    "state_id": "30",
    "state_name": "OYO",
    "location": {
      "latitude": 7.853829499999999,
      "longitude": 3.9117276,
      "viewport": {
        "northeast": {
          "lat": 7.855143979892721,
          "lng": 3.913154829892722
        },
        "southwest": {
          "lat": 7.852444320107277,
          "lng": 3.910455170107278
        }
      },
      "formatted_address": "VW36+GMQ, Atilola Street, Ojongbodu Area, Oyo, Nigeria",
      "google_map_url": "https://maps.google.com?q=7.853829499999999,3.9117276",
      "google_place_id": "ChIJlWbU-_5ZNxARIQyI7ChYQj4"
    }
  },
  {
    "id": "356347",
    "name": "LIBRARY, IGANA I",
    "registration_area_id": "18223",
    "precise_location": null,
    "abbreviation": "003",
    "units": "003",
    "delimitation": "30/18/07/003",
    "remark": "EXISTING PU",
    "ward_id": "18223",
    "ward_name": "SABI GANA I",
    "local_government_id": "645",
    "local_government_name": "IWAJOWA",
    "state_id": "30",
    "state_name": "OYO",
    "location": {
      "latitude": 7.9883517,
      "longitude": 3.5794285,
      "viewport": {
        "northeast": {
          "lat": 7.989620029892721,
          "lng": 3.580702229892722
        },
        "southwest": {
          "lat": 7.986920370107277,
          "lng": 3.578002570107277
        }
      },
      "formatted_address": "XHQH+8QV Muslim Area Shaki, Saki-Iseyin Road, 202101, Iseyin, Nigeria",
      "google_map_url": "https://maps.google.com?q=7.9883517,3.5794285",
      "google_place_id": "ChIJ07x3xX-6MBARj2u-QJFsnK0"
    }
  },
  {
    "id": "356348",
    "name": "LIBRARY, IGANA II",
    "registration_area_id": "18223",
    "precise_location": null,
    "abbreviation": "004",
    "units": "004",
    "delimitation": "30/18/07/004",
    "remark": "EXISTING PU",
    "ward_id": "18223",
    "ward_name": "SABI GANA I",
    "local_government_id": "645",
    "local_government_name": "IWAJOWA",
    "state_id": "30",
    "state_name": "OYO",
    "location": {
      "latitude": 7.9883517,
      "longitude": 3.5794285,
      "viewport": {
        "northeast": {
          "lat": 7.989620029892721,
          "lng": 3.580702229892722
        },
        "southwest": {
          "lat": 7.986920370107277,
          "lng": 3.578002570107277
        }
      },
      "formatted_address": "XHQH+8QV Muslim Area Shaki, Saki-Iseyin Road, 202101, Iseyin, Nigeria",
      "google_map_url": "https://maps.google.com?q=7.9883517,3.5794285",
      "google_place_id": "ChIJ07x3xX-6MBARj2u-QJFsnK0"
    }
  },
  {
    "id": "356349",
    "name": "LEMOMU'S COMPOUND",
    "registration_area_id": "18223",
    "precise_location": null,
    "abbreviation": "005",
    "units": "005",
    "delimitation": "30/18/07/005",
    "remark": "EXISTING PU",
    "ward_id": "18223",
    "ward_name": "SABI GANA I",
    "local_government_id": "645",
    "local_government_name": "IWAJOWA",
    "state_id": "30",
    "state_name": "OYO",
    "location": {
      "latitude": 7.837575200000001,
      "longitude": 3.9402169,
      "viewport": {
        "northeast": {
          "lat": 7.83895222989272,
          "lng": 3.941614379892723
        },
        "southwest": {
          "lat": 7.836252570107276,
          "lng": 3.938914720107279
        }
      },
      "formatted_address": "RWQR+23G, Along Oyo-Ogbomoso Road, Oyo Town, Nigeria",
      "google_map_url": "https://maps.google.com?q=7.837575200000001,3.9402169",
      "google_place_id": "ChIJYf19d3xZNxAROFyZpVAUE84"
    }
  },
  {
    "id": "356350",
    "name": "OBA'S MARKET",
    "registration_area_id": "18223",
    "precise_location": null,
    "abbreviation": "006",
    "units": "006",
    "delimitation": "30/18/07/006",
    "remark": "EXISTING PU",
    "ward_id": "18223",
    "ward_name": "SABI GANA I",
    "local_government_id": "645",
    "local_government_name": "IWAJOWA",
    "state_id": "30",
    "state_name": "OYO",
    "location": {
      "latitude": 7.974256800000001,
      "longitude": 3.2433261,
      "viewport": {
        "northeast": {
          "lat": 7.975607379892723,
          "lng": 3.244736929892722
        },
        "southwest": {
          "lat": 7.972907720107279,
          "lng": 3.242037270107278
        }
      },
      "formatted_address": "X6FV+P84, 202110, Igana, Nigeria",
      "google_map_url": "https://maps.google.com?q=7.974256800000001,3.2433261",
      "google_place_id": "ChIJrQYdAsSPMBARWPwERQpKyds"
    }
  },
  {
    "id": "356351",
    "name": "ABE IPIN COMPOUND I",
    "registration_area_id": "18223",
    "precise_location": null,
    "abbreviation": "007",
    "units": "007",
    "delimitation": "30/18/07/007",
    "remark": "EXISTING PU",
    "ward_id": "18223",
    "ward_name": "SABI GANA I",
    "local_government_id": "645",
    "local_government_name": "IWAJOWA",
    "state_id": "30",
    "state_name": "OYO",
    "location": null
  },
  {
    "id": "356352",
    "name": "ABE IPIN COMPOUND II",
    "registration_area_id": "18223",
    "precise_location": null,
    "abbreviation": "008",
    "units": "008",
    "delimitation": "30/18/07/008",
    "remark": "EXISTING PU",
    "ward_id": "18223",
    "ward_name": "SABI GANA I",
    "local_government_id": "645",
    "local_government_name": "IWAJOWA",
    "state_id": "30",
    "state_name": "OYO",
    "location": null
  },
  {
    "id": "356353",
    "name": "HEALTH OFFICE I",
    "registration_area_id": "18223",
    "precise_location": null,
    "abbreviation": "009",
    "units": "009",
    "delimitation": "30/18/07/009",
    "remark": "EXISTING PU",
    "ward_id": "18223",
    "ward_name": "SABI GANA I",
    "local_government_id": "645",
    "local_government_name": "IWAJOWA",
    "state_id": "30",
    "state_name": "OYO",
    "location": {
      "latitude": 7.979146000000001,
      "longitude": 3.235796,
      "viewport": {
        "northeast": {
          "lat": 7.980552329892722,
          "lng": 3.237181879892722
        },
        "southwest": {
          "lat": 7.977852670107278,
          "lng": 3.234482220107278
        }
      },
      "formatted_address": "X6HP+M83, 202110, Igana, Nigeria",
      "google_map_url": "https://maps.google.com?q=7.979146000000001,3.235796",
      "google_place_id": "ChIJX05HK7iPMBARZGzqbIWTvrs"
    }
  },
  {
    "id": "356354",
    "name": "HEALTH OFFICE II",
    "registration_area_id": "18223",
    "precise_location": null,
    "abbreviation": "010",
    "units": "010",
    "delimitation": "30/18/07/010",
    "remark": "EXISTING PU",
    "ward_id": "18223",
    "ward_name": "SABI GANA I",
    "local_government_id": "645",
    "local_government_name": "IWAJOWA",
    "state_id": "30",
    "state_name": "OYO",
    "location": {
      "latitude": 7.9333,
      "longitude": 2.9667,
      "viewport": {
        "northeast": {
          "lat": 7.934649829892723,
          "lng": 2.968049829892722
        },
        "southwest": {
          "lat": 7.931950170107279,
          "lng": 2.965350170107278
        }
      },
      "formatted_address": "WXM8+8MG, 202112, Oyo, Nigeria",
      "google_map_url": "https://maps.google.com?q=7.9333,2.9667",
      "google_place_id": "ChIJz-Whu8R6MBARFjBKa96osm4"
    }
  }
]