[
  {
    "id": "59390",
    "name": "KUMO S.YAKI, K. S. YAKI",
    "registration_area_id": "3239",
    "precise_location": null,
    "abbreviation": "001",
    "units": "001",
    "delimitation": "15/01/05/001",
    "remark": "EXISTING PU",
    "ward_id": "3239",
    "ward_name": "KUMO CENTRAL",
    "local_government_id": "282",
    "local_government_name": "AKKO",
    "state_id": "15",
    "state_name": "GOMBE",
    "location": {
      "latitude": 10.1061665,
      "longitude": 11.1093705,
      "viewport": {
        "northeast": {
          "lat": 10.1158973,
          "lng": 11.113937
        },
        "southwest": {
          "lat": 10.0982372,
          "lng": 11.1042702
        }
      },
      "formatted_address": "771104, Kumo, Nigeria",
      "google_map_url": "https://maps.google.com?q=10.1061665,11.1093705",
      "google_place_id": "ChIJYe7MxwXH_xARDvKMQ-BAQMM"
    }
  },
  {
    "id": "59391",
    "name": "KUMO GALADIMA, LIB. VIEW CENTRE",
    "registration_area_id": "3239",
    "precise_location": null,
    "abbreviation": "002",
    "units": "002",
    "delimitation": "15/01/05/002",
    "remark": "EXISTING PU",
    "ward_id": "3239",
    "ward_name": "KUMO CENTRAL",
    "local_government_id": "282",
    "local_government_name": "AKKO",
    "state_id": "15",
    "state_name": "GOMBE",
    "location": null
  },
  {
    "id": "59392",
    "name": "KUMO SARDAUNA, DOS OFFICE",
    "registration_area_id": "3239",
    "precise_location": null,
    "abbreviation": "003",
    "units": "003",
    "delimitation": "15/01/05/003",
    "remark": "EXISTING PU",
    "ward_id": "3239",
    "ward_name": "KUMO CENTRAL",
    "local_government_id": "282",
    "local_government_name": "AKKO",
    "state_id": "15",
    "state_name": "GOMBE",
    "location": {
      "latitude": 10.2933506,
      "longitude": 11.1668759,
      "viewport": {
        "northeast": {
          "lat": 10.29477522989272,
          "lng": 11.16823707989272
        },
        "southwest": {
          "lat": 10.29207557010728,
          "lng": 11.16553742010728
        }
      },
      "formatted_address": "75V8+8QR Local Government Secretariat Kumo, 760253, Gombe, Nigeria",
      "google_map_url": "https://maps.google.com?q=10.2933506,11.1668759",
      "google_place_id": "ChIJ38ppMGTR_xARcgsmm1OCeS4"
    }
  },
  {
    "id": "59393",
    "name": "KUMO B-KASUWA, KOFAR S. YAKI",
    "registration_area_id": "3239",
    "precise_location": null,
    "abbreviation": "004",
    "units": "004",
    "delimitation": "15/01/05/004",
    "remark": "EXISTING PU",
    "ward_id": "3239",
    "ward_name": "KUMO CENTRAL",
    "local_government_id": "282",
    "local_government_name": "AKKO",
    "state_id": "15",
    "state_name": "GOMBE",
    "location": {
      "latitude": 10.0634786,
      "longitude": 11.1900528,
      "viewport": {
        "northeast": {
          "lat": 10.1023462,
          "lng": 11.2269567
        },
        "southwest": {
          "lat": 10.0292414,
          "lng": 11.1556551
        }
      },
      "formatted_address": "Kumo Central, Nigeria",
      "google_map_url": "https://maps.google.com?q=10.0634786,11.1900528",
      "google_place_id": "ChIJy08yItm3_xARKwYMalDAyxU"
    }
  },
  {
    "id": "59394",
    "name": "KUMO S/YAKI, KUMO MARTENITY",
    "registration_area_id": "3239",
    "precise_location": null,
    "abbreviation": "005",
    "units": "005",
    "delimitation": "15/01/05/005",
    "remark": "EXISTING PU",
    "ward_id": "3239",
    "ward_name": "KUMO CENTRAL",
    "local_government_id": "282",
    "local_government_name": "AKKO",
    "state_id": "15",
    "state_name": "GOMBE",
    "location": {
      "latitude": 10.0634786,
      "longitude": 11.1900528,
      "viewport": {
        "northeast": {
          "lat": 10.1023462,
          "lng": 11.2269567
        },
        "southwest": {
          "lat": 10.0292414,
          "lng": 11.1556551
        }
      },
      "formatted_address": "Kumo Central, Nigeria",
      "google_map_url": "https://maps.google.com?q=10.0634786,11.1900528",
      "google_place_id": "ChIJy08yItm3_xARKwYMalDAyxU"
    }
  },
  {
    "id": "59395",
    "name": "KUMO SARDAUNA, KUMO SARDAUNA",
    "registration_area_id": "3239",
    "precise_location": null,
    "abbreviation": "006",
    "units": "006",
    "delimitation": "15/01/05/006",
    "remark": "EXISTING PU",
    "ward_id": "3239",
    "ward_name": "KUMO CENTRAL",
    "local_government_id": "282",
    "local_government_name": "AKKO",
    "state_id": "15",
    "state_name": "GOMBE",
    "location": {
      "latitude": 10.0634786,
      "longitude": 11.1900528,
      "viewport": {
        "northeast": {
          "lat": 10.1023462,
          "lng": 11.2269567
        },
        "southwest": {
          "lat": 10.0292414,
          "lng": 11.1556551
        }
      },
      "formatted_address": "Kumo Central, Nigeria",
      "google_map_url": "https://maps.google.com?q=10.0634786,11.1900528",
      "google_place_id": "ChIJy08yItm3_xARKwYMalDAyxU"
    }
  },
  {
    "id": "59396",
    "name": "KUMO FULOTI, KOFAR DANFULANI",
    "registration_area_id": "3239",
    "precise_location": null,
    "abbreviation": "007",
    "units": "007",
    "delimitation": "15/01/05/007",
    "remark": "EXISTING PU",
    "ward_id": "3239",
    "ward_name": "KUMO CENTRAL",
    "local_government_id": "282",
    "local_government_name": "AKKO",
    "state_id": "15",
    "state_name": "GOMBE",
    "location": {
      "latitude": 10.0634786,
      "longitude": 11.1900528,
      "viewport": {
        "northeast": {
          "lat": 10.1023462,
          "lng": 11.2269567
        },
        "southwest": {
          "lat": 10.0292414,
          "lng": 11.1556551
        }
      },
      "formatted_address": "Kumo Central, Nigeria",
      "google_map_url": "https://maps.google.com?q=10.0634786,11.1900528",
      "google_place_id": "ChIJy08yItm3_xARKwYMalDAyxU"
    }
  },
  {
    "id": "59397",
    "name": "KUMO FULOTI, GOFAR DANKOMISHI",
    "registration_area_id": "3239",
    "precise_location": null,
    "abbreviation": "008",
    "units": "008",
    "delimitation": "15/01/05/008",
    "remark": "EXISTING PU",
    "ward_id": "3239",
    "ward_name": "KUMO CENTRAL",
    "local_government_id": "282",
    "local_government_name": "AKKO",
    "state_id": "15",
    "state_name": "GOMBE",
    "location": {
      "latitude": 10.0634786,
      "longitude": 11.1900528,
      "viewport": {
        "northeast": {
          "lat": 10.1023462,
          "lng": 11.2269567
        },
        "southwest": {
          "lat": 10.0292414,
          "lng": 11.1556551
        }
      },
      "formatted_address": "Kumo Central, Nigeria",
      "google_map_url": "https://maps.google.com?q=10.0634786,11.1900528",
      "google_place_id": "ChIJy08yItm3_xARKwYMalDAyxU"
    }
  },
  {
    "id": "59398",
    "name": "KUMO BAKOSHI, CENTRAL PRI. SCH.",
    "registration_area_id": "3239",
    "precise_location": null,
    "abbreviation": "009",
    "units": "009",
    "delimitation": "15/01/05/009",
    "remark": "EXISTING PU",
    "ward_id": "3239",
    "ward_name": "KUMO CENTRAL",
    "local_government_id": "282",
    "local_government_name": "AKKO",
    "state_id": "15",
    "state_name": "GOMBE",
    "location": {
      "latitude": 10.0634786,
      "longitude": 11.1900528,
      "viewport": {
        "northeast": {
          "lat": 10.1023462,
          "lng": 11.2269567
        },
        "southwest": {
          "lat": 10.0292414,
          "lng": 11.1556551
        }
      },
      "formatted_address": "Kumo Central, Nigeria",
      "google_map_url": "https://maps.google.com?q=10.0634786,11.1900528",
      "google_place_id": "ChIJy08yItm3_xARKwYMalDAyxU"
    }
  },
  {
    "id": "59399",
    "name": "KUMO FULOTI, KOFAR ADAMU",
    "registration_area_id": "3239",
    "precise_location": null,
    "abbreviation": "010",
    "units": "010",
    "delimitation": "15/01/05/010",
    "remark": "EXISTING PU",
    "ward_id": "3239",
    "ward_name": "KUMO CENTRAL",
    "local_government_id": "282",
    "local_government_name": "AKKO",
    "state_id": "15",
    "state_name": "GOMBE",
    "location": {
      "latitude": 10.0634786,
      "longitude": 11.1900528,
      "viewport": {
        "northeast": {
          "lat": 10.1023462,
          "lng": 11.2269567
        },
        "southwest": {
          "lat": 10.0292414,
          "lng": 11.1556551
        }
      },
      "formatted_address": "Kumo Central, Nigeria",
      "google_map_url": "https://maps.google.com?q=10.0634786,11.1900528",
      "google_place_id": "ChIJy08yItm3_xARKwYMalDAyxU"
    }
  },
  {
    "id": "59400",
    "name": "KUMO FULOT, KOFAR LIMAN SHUIBU",
    "registration_area_id": "3239",
    "precise_location": null,
    "abbreviation": "011",
    "units": "011",
    "delimitation": "15/01/05/011",
    "remark": "EXISTING PU",
    "ward_id": "3239",
    "ward_name": "KUMO CENTRAL",
    "local_government_id": "282",
    "local_government_name": "AKKO",
    "state_id": "15",
    "state_name": "GOMBE",
    "location": null
  },
  {
    "id": "59401",
    "name": "KUMO BAKOSHI, CENTRAL PRI. SCH.",
    "registration_area_id": "3239",
    "precise_location": null,
    "abbreviation": "012",
    "units": "012",
    "delimitation": "15/01/05/012",
    "remark": "EXISTING PU",
    "ward_id": "3239",
    "ward_name": "KUMO CENTRAL",
    "local_government_id": "282",
    "local_government_name": "AKKO",
    "state_id": "15",
    "state_name": "GOMBE",
    "location": {
      "latitude": 10.0634786,
      "longitude": 11.1900528,
      "viewport": {
        "northeast": {
          "lat": 10.1023462,
          "lng": 11.2269567
        },
        "southwest": {
          "lat": 10.0292414,
          "lng": 11.1556551
        }
      },
      "formatted_address": "Kumo Central, Nigeria",
      "google_map_url": "https://maps.google.com?q=10.0634786,11.1900528",
      "google_place_id": "ChIJy08yItm3_xARKwYMalDAyxU"
    }
  },
  {
    "id": "59402",
    "name": "KUMO FULANI, JAURO TUKUR PRI. SCH.",
    "registration_area_id": "3239",
    "precise_location": null,
    "abbreviation": "013",
    "units": "013",
    "delimitation": "15/01/05/013",
    "remark": "EXISTING PU",
    "ward_id": "3239",
    "ward_name": "KUMO CENTRAL",
    "local_government_id": "282",
    "local_government_name": "AKKO",
    "state_id": "15",
    "state_name": "GOMBE",
    "location": {
      "latitude": 10.0634786,
      "longitude": 11.1900528,
      "viewport": {
        "northeast": {
          "lat": 10.1023462,
          "lng": 11.2269567
        },
        "southwest": {
          "lat": 10.0292414,
          "lng": 11.1556551
        }
      },
      "formatted_address": "Kumo Central, Nigeria",
      "google_map_url": "https://maps.google.com?q=10.0634786,11.1900528",
      "google_place_id": "ChIJy08yItm3_xARKwYMalDAyxU"
    }
  },
  {
    "id": "59403",
    "name": "NAYINAWA, KOFAR J. DAUDA",
    "registration_area_id": "3239",
    "precise_location": null,
    "abbreviation": "014",
    "units": "014",
    "delimitation": "15/01/05/014",
    "remark": "EXISTING PU",
    "ward_id": "3239",
    "ward_name": "KUMO CENTRAL",
    "local_government_id": "282",
    "local_government_name": "AKKO",
    "state_id": "15",
    "state_name": "GOMBE",
    "location": null
  },
  {
    "id": "59404",
    "name": "KUMO FULANI EAST, K. J. MAGAJI",
    "registration_area_id": "3239",
    "precise_location": null,
    "abbreviation": "015",
    "units": "015",
    "delimitation": "15/01/05/015",
    "remark": "EXISTING PU",
    "ward_id": "3239",
    "ward_name": "KUMO CENTRAL",
    "local_government_id": "282",
    "local_government_name": "AKKO",
    "state_id": "15",
    "state_name": "GOMBE",
    "location": {
      "latitude": 10.0393679,
      "longitude": 11.4112049,
      "viewport": {
        "northeast": {
          "lat": 10.0958209,
          "lng": 11.5398291
        },
        "southwest": {
          "lat": 9.9729811,
          "lng": 11.2157023
        }
      },
      "formatted_address": "Kumo East, Nigeria",
      "google_map_url": "https://maps.google.com?q=10.0393679,11.4112049",
      "google_place_id": "ChIJw7nA-vFK_hARGBltX8gzLj4"
    }
  },
  {
    "id": "59405",
    "name": "CHIROMA DAWA, K. CHIROMA DAWA",
    "registration_area_id": "3239",
    "precise_location": null,
    "abbreviation": "016",
    "units": "016",
    "delimitation": "15/01/05/016",
    "remark": "EXISTING PU",
    "ward_id": "3239",
    "ward_name": "KUMO CENTRAL",
    "local_government_id": "282",
    "local_government_name": "AKKO",
    "state_id": "15",
    "state_name": "GOMBE",
    "location": null
  },
  {
    "id": "59406",
    "name": "GAUDARE, SHABBAL PRI. SCH.",
    "registration_area_id": "3239",
    "precise_location": null,
    "abbreviation": "017",
    "units": "017",
    "delimitation": "15/01/05/017",
    "remark": "EXISTING PU",
    "ward_id": "3239",
    "ward_name": "KUMO CENTRAL",
    "local_government_id": "282",
    "local_government_name": "AKKO",
    "state_id": "15",
    "state_name": "GOMBE",
    "location": {
      "latitude": 10.2767773,
      "longitude": 11.2410442,
      "viewport": {
        "northeast": {
          "lat": 10.27766527989272,
          "lng": 11.24235247989272
        },
        "southwest": {
          "lat": 10.27496562010728,
          "lng": 11.23965282010728
        }
      },
      "formatted_address": "76GR+PC7, near 761102, Liji Hill, Nigeria",
      "google_map_url": "https://maps.google.com?q=10.2767773,11.2410442",
      "google_place_id": "ChIJq6qqqprR_xAROWEey8Y0xUI"
    }
  },
  {
    "id": "59407",
    "name": "DAKKITI, KOFAR JAURO",
    "registration_area_id": "3239",
    "precise_location": null,
    "abbreviation": "018",
    "units": "018",
    "delimitation": "15/01/05/018",
    "remark": "EXISTING PU",
    "ward_id": "3239",
    "ward_name": "KUMO CENTRAL",
    "local_government_id": "282",
    "local_government_name": "AKKO",
    "state_id": "15",
    "state_name": "GOMBE",
    "location": null
  },
  {
    "id": "59408",
    "name": "LAMBA J. MUSA, KOFAR JAURO",
    "registration_area_id": "3239",
    "precise_location": null,
    "abbreviation": "019",
    "units": "019",
    "delimitation": "15/01/05/019",
    "remark": "EXISTING PU",
    "ward_id": "3239",
    "ward_name": "KUMO CENTRAL",
    "local_government_id": "282",
    "local_government_name": "AKKO",
    "state_id": "15",
    "state_name": "GOMBE",
    "location": null
  },
  {
    "id": "59409",
    "name": "LERGO, LEGRO PRI. SCH.",
    "registration_area_id": "3239",
    "precise_location": null,
    "abbreviation": "020",
    "units": "020",
    "delimitation": "15/01/05/020",
    "remark": "EXISTING PU",
    "ward_id": "3239",
    "ward_name": "KUMO CENTRAL",
    "local_government_id": "282",
    "local_government_name": "AKKO",
    "state_id": "15",
    "state_name": "GOMBE",
    "location": null
  },
  {
    "id": "59410",
    "name": "LAMBO J. A. BOSE, KOFAR JAURO",
    "registration_area_id": "3239",
    "precise_location": null,
    "abbreviation": "021",
    "units": "021",
    "delimitation": "15/01/05/021",
    "remark": "EXISTING PU",
    "ward_id": "3239",
    "ward_name": "KUMO CENTRAL",
    "local_government_id": "282",
    "local_government_name": "AKKO",
    "state_id": "15",
    "state_name": "GOMBE",
    "location": null
  },
  {
    "id": "59411",
    "name": "KOMBANIYEL, KOFAR JAURO",
    "registration_area_id": "3239",
    "precise_location": null,
    "abbreviation": "022",
    "units": "022",
    "delimitation": "15/01/05/022",
    "remark": "EXISTING PU",
    "ward_id": "3239",
    "ward_name": "KUMO CENTRAL",
    "local_government_id": "282",
    "local_government_name": "AKKO",
    "state_id": "15",
    "state_name": "GOMBE",
    "location": {
      "latitude": 10.0634786,
      "longitude": 11.1900528,
      "viewport": {
        "northeast": {
          "lat": 10.1023462,
          "lng": 11.2269567
        },
        "southwest": {
          "lat": 10.0292414,
          "lng": 11.1556551
        }
      },
      "formatted_address": "Kumo Central, Nigeria",
      "google_map_url": "https://maps.google.com?q=10.0634786,11.1900528",
      "google_place_id": "ChIJy08yItm3_xARKwYMalDAyxU"
    }
  },
  {
    "id": "59412",
    "name": "NGAUDARE, KOFAR JAURO",
    "registration_area_id": "3239",
    "precise_location": null,
    "abbreviation": "023",
    "units": "023",
    "delimitation": "15/01/05/023",
    "remark": "EXISTING PU",
    "ward_id": "3239",
    "ward_name": "KUMO CENTRAL",
    "local_government_id": "282",
    "local_government_name": "AKKO",
    "state_id": "15",
    "state_name": "GOMBE",
    "location": null
  },
  {
    "id": "59413",
    "name": "GARIN M. BA, GARIN M. BA PRI. SCH.",
    "registration_area_id": "3239",
    "precise_location": null,
    "abbreviation": "024",
    "units": "024",
    "delimitation": "15/01/05/024",
    "remark": "EXISTING PU",
    "ward_id": "3239",
    "ward_name": "KUMO CENTRAL",
    "local_government_id": "282",
    "local_government_name": "AKKO",
    "state_id": "15",
    "state_name": "GOMBE",
    "location": {
      "latitude": 10.0421338,
      "longitude": 11.2181377,
      "viewport": {
        "northeast": {
          "lat": 10.04356702989272,
          "lng": 11.21947427989272
        },
        "southwest": {
          "lat": 10.04086737010728,
          "lng": 11.21677462010728
        }
      },
      "formatted_address": "26R9+R7J, 771102, Kumo, Nigeria",
      "google_map_url": "https://maps.google.com?q=10.0421338,11.2181377",
      "google_place_id": "ChIJjyz2Owm3_xARK3jUSiBVbCU"
    }
  },
  {
    "id": "59414",
    "name": "WURO BAPPA, JAURO BAPPA",
    "registration_area_id": "3239",
    "precise_location": null,
    "abbreviation": "025",
    "units": "025",
    "delimitation": "15/01/05/025",
    "remark": "EXISTING PU",
    "ward_id": "3239",
    "ward_name": "KUMO CENTRAL",
    "local_government_id": "282",
    "local_government_name": "AKKO",
    "state_id": "15",
    "state_name": "GOMBE",
    "location": null
  },
  {
    "id": "59415",
    "name": "KUMO GALADIMA II,  LIB. VIEW CENTRE",
    "registration_area_id": "3239",
    "precise_location": null,
    "abbreviation": "026",
    "units": "026",
    "delimitation": "15/01/05/026",
    "remark": "NEW PU",
    "ward_id": "3239",
    "ward_name": "KUMO CENTRAL",
    "local_government_id": "282",
    "local_government_name": "AKKO",
    "state_id": "15",
    "state_name": "GOMBE",
    "location": null
  },
  {
    "id": "59416",
    "name": "KUMO BAKOSHI II, CENTRAL PRI. SCH.",
    "registration_area_id": "3239",
    "precise_location": null,
    "abbreviation": "027",
    "units": "027",
    "delimitation": "15/01/05/027",
    "remark": "NEW PU",
    "ward_id": "3239",
    "ward_name": "KUMO CENTRAL",
    "local_government_id": "282",
    "local_government_name": "AKKO",
    "state_id": "15",
    "state_name": "GOMBE",
    "location": {
      "latitude": 10.0634786,
      "longitude": 11.1900528,
      "viewport": {
        "northeast": {
          "lat": 10.1023462,
          "lng": 11.2269567
        },
        "southwest": {
          "lat": 10.0292414,
          "lng": 11.1556551
        }
      },
      "formatted_address": "Kumo Central, Nigeria",
      "google_map_url": "https://maps.google.com?q=10.0634786,11.1900528",
      "google_place_id": "ChIJy08yItm3_xARKwYMalDAyxU"
    }
  },
  {
    "id": "59417",
    "name": "KUMO BAKOSHI II, CENTRAL PRI. SCH.",
    "registration_area_id": "3239",
    "precise_location": null,
    "abbreviation": "028",
    "units": "028",
    "delimitation": "15/01/05/028",
    "remark": "NEW PU",
    "ward_id": "3239",
    "ward_name": "KUMO CENTRAL",
    "local_government_id": "282",
    "local_government_name": "AKKO",
    "state_id": "15",
    "state_name": "GOMBE",
    "location": {
      "latitude": 10.0634786,
      "longitude": 11.1900528,
      "viewport": {
        "northeast": {
          "lat": 10.1023462,
          "lng": 11.2269567
        },
        "southwest": {
          "lat": 10.0292414,
          "lng": 11.1556551
        }
      },
      "formatted_address": "Kumo Central, Nigeria",
      "google_map_url": "https://maps.google.com?q=10.0634786,11.1900528",
      "google_place_id": "ChIJy08yItm3_xARKwYMalDAyxU"
    }
  },
  {
    "id": "59418",
    "name": "KUMO BAKOSHI III, CENT PRI SCH",
    "registration_area_id": "3239",
    "precise_location": null,
    "abbreviation": "029",
    "units": "029",
    "delimitation": "15/01/05/029",
    "remark": "NEW PU",
    "ward_id": "3239",
    "ward_name": "KUMO CENTRAL",
    "local_government_id": "282",
    "local_government_name": "AKKO",
    "state_id": "15",
    "state_name": "GOMBE",
    "location": {
      "latitude": 10.0634786,
      "longitude": 11.1900528,
      "viewport": {
        "northeast": {
          "lat": 10.1023462,
          "lng": 11.2269567
        },
        "southwest": {
          "lat": 10.0292414,
          "lng": 11.1556551
        }
      },
      "formatted_address": "Kumo Central, Nigeria",
      "google_map_url": "https://maps.google.com?q=10.0634786,11.1900528",
      "google_place_id": "ChIJy08yItm3_xARKwYMalDAyxU"
    }
  },
  {
    "id": "59419",
    "name": "KUMO SARKIN YAKI II, CENTRAL PRI. SCH.",
    "registration_area_id": "3239",
    "precise_location": null,
    "abbreviation": "030",
    "units": "030",
    "delimitation": "15/01/05/030",
    "remark": "NEW PU",
    "ward_id": "3239",
    "ward_name": "KUMO CENTRAL",
    "local_government_id": "282",
    "local_government_name": "AKKO",
    "state_id": "15",
    "state_name": "GOMBE",
    "location": {
      "latitude": 10.0393679,
      "longitude": 11.4112049,
      "viewport": {
        "northeast": {
          "lat": 10.0958209,
          "lng": 11.5398291
        },
        "southwest": {
          "lat": 9.9729811,
          "lng": 11.2157023
        }
      },
      "formatted_address": "Kumo East, Nigeria",
      "google_map_url": "https://maps.google.com?q=10.0393679,11.4112049",
      "google_place_id": "ChIJw7nA-vFK_hARGBltX8gzLj4"
    }
  },
  {
    "id": "59420",
    "name": "KUMO S. YAKI-KUMO MATERNITY II, CANTRAL PRI. SCH.",
    "registration_area_id": "3239",
    "precise_location": null,
    "abbreviation": "031",
    "units": "031",
    "delimitation": "15/01/05/031",
    "remark": "NEW PU",
    "ward_id": "3239",
    "ward_name": "KUMO CENTRAL",
    "local_government_id": "282",
    "local_government_name": "AKKO",
    "state_id": "15",
    "state_name": "GOMBE",
    "location": {
      "latitude": 10.0634786,
      "longitude": 11.1900528,
      "viewport": {
        "northeast": {
          "lat": 10.1023462,
          "lng": 11.2269567
        },
        "southwest": {
          "lat": 10.0292414,
          "lng": 11.1556551
        }
      },
      "formatted_address": "Kumo Central, Nigeria",
      "google_map_url": "https://maps.google.com?q=10.0634786,11.1900528",
      "google_place_id": "ChIJy08yItm3_xARKwYMalDAyxU"
    }
  },
  {
    "id": "59421",
    "name": "KUMO FULOTI, KOFAR LIMAN SHUAIBU II KOFAR LIMAN",
    "registration_area_id": "3239",
    "precise_location": null,
    "abbreviation": "032",
    "units": "032",
    "delimitation": "15/01/05/032",
    "remark": "NEW PU",
    "ward_id": "3239",
    "ward_name": "KUMO CENTRAL",
    "local_government_id": "282",
    "local_government_name": "AKKO",
    "state_id": "15",
    "state_name": "GOMBE",
    "location": null
  },
  {
    "id": "59422",
    "name": "KUMO FULOTI, KOFAR DANFULANI II, KOFAR DANFULANI",
    "registration_area_id": "3239",
    "precise_location": null,
    "abbreviation": "033",
    "units": "033",
    "delimitation": "15/01/05/033",
    "remark": "NEW PU",
    "ward_id": "3239",
    "ward_name": "KUMO CENTRAL",
    "local_government_id": "282",
    "local_government_name": "AKKO",
    "state_id": "15",
    "state_name": "GOMBE",
    "location": null
  },
  {
    "id": "59423",
    "name": "KUMO FULOTI, KOFAR ADAMU II  UNGUWAN TIKE",
    "registration_area_id": "3239",
    "precise_location": null,
    "abbreviation": "034",
    "units": "034",
    "delimitation": "15/01/05/034",
    "remark": "NEW PU",
    "ward_id": "3239",
    "ward_name": "KUMO CENTRAL",
    "local_government_id": "282",
    "local_government_name": "AKKO",
    "state_id": "15",
    "state_name": "GOMBE",
    "location": null
  },
  {
    "id": "59424",
    "name": "KUMO FULANI II , JAURO TUKUR PRI. SCHOOL",
    "registration_area_id": "3239",
    "precise_location": null,
    "abbreviation": "035",
    "units": "035",
    "delimitation": "15/01/05/035",
    "remark": "NEW PU",
    "ward_id": "3239",
    "ward_name": "KUMO CENTRAL",
    "local_government_id": "282",
    "local_government_name": "AKKO",
    "state_id": "15",
    "state_name": "GOMBE",
    "location": {
      "latitude": 10.0634786,
      "longitude": 11.1900528,
      "viewport": {
        "northeast": {
          "lat": 10.1023462,
          "lng": 11.2269567
        },
        "southwest": {
          "lat": 10.0292414,
          "lng": 11.1556551
        }
      },
      "formatted_address": "Kumo Central, Nigeria",
      "google_map_url": "https://maps.google.com?q=10.0634786,11.1900528",
      "google_place_id": "ChIJy08yItm3_xARKwYMalDAyxU"
    }
  },
  {
    "id": "59425",
    "name": "DAKKITI II, BAKIN RIJIYA OPEN SPACE",
    "registration_area_id": "3239",
    "precise_location": null,
    "abbreviation": "036",
    "units": "036",
    "delimitation": "15/01/05/036",
    "remark": "NEW PU",
    "ward_id": "3239",
    "ward_name": "KUMO CENTRAL",
    "local_government_id": "282",
    "local_government_name": "AKKO",
    "state_id": "15",
    "state_name": "GOMBE",
    "location": null
  },
  {
    "id": "59426",
    "name": "GARIN LIMAN I, PRIMARY SCH.",
    "registration_area_id": "3239",
    "precise_location": null,
    "abbreviation": "037",
    "units": "037",
    "delimitation": "15/01/05/037",
    "remark": "NEW PU",
    "ward_id": "3239",
    "ward_name": "KUMO CENTRAL",
    "local_government_id": "282",
    "local_government_name": "AKKO",
    "state_id": "15",
    "state_name": "GOMBE",
    "location": {
      "latitude": 10.0556315,
      "longitude": 11.2012485,
      "viewport": {
        "northeast": {
          "lat": 10.05712252989272,
          "lng": 11.20257117989272
        },
        "southwest": {
          "lat": 10.05442287010728,
          "lng": 11.19987152010728
        }
      },
      "formatted_address": "3642+7F5, 771102, Kumo, Nigeria",
      "google_map_url": "https://maps.google.com?q=10.0556315,11.2012485",
      "google_place_id": "ChIJFVPf3M23_xARD_WycADMMKo"
    }
  },
  {
    "id": "59427",
    "name": "GARIN LIMAN II, PRIMARY SCH.",
    "registration_area_id": "3239",
    "precise_location": null,
    "abbreviation": "038",
    "units": "038",
    "delimitation": "15/01/05/038",
    "remark": "NEW PU",
    "ward_id": "3239",
    "ward_name": "KUMO CENTRAL",
    "local_government_id": "282",
    "local_government_name": "AKKO",
    "state_id": "15",
    "state_name": "GOMBE",
    "location": {
      "latitude": 10.0556315,
      "longitude": 11.2012485,
      "viewport": {
        "northeast": {
          "lat": 10.05712252989272,
          "lng": 11.20257117989272
        },
        "southwest": {
          "lat": 10.05442287010728,
          "lng": 11.19987152010728
        }
      },
      "formatted_address": "3642+7F5, 771102, Kumo, Nigeria",
      "google_map_url": "https://maps.google.com?q=10.0556315,11.2012485",
      "google_place_id": "ChIJFVPf3M23_xARD_WycADMMKo"
    }
  }
]