[
  {
    "id": "4286",
    "name": "CHIKITO PRY. SCH.",
    "registration_area_id": "198",
    "precise_location": null,
    "abbreviation": "001",
    "units": "001",
    "delimitation": "02/02/04/001",
    "remark": "EXISTING PU",
    "ward_id": "198",
    "ward_name": "GURIN",
    "local_government_id": "19",
    "local_government_name": "FUFORE",
    "state_id": "2",
    "state_name": "ADAMAWA",
    "location": {
      "latitude": 9.2278468,
      "longitude": 12.6461597,
      "viewport": {
        "northeast": {
          "lat": 9.22932482989272,
          "lng": 12.64724002989272
        },
        "southwest": {
          "lat": 9.226625170107276,
          "lng": 12.64454037010728
        }
      },
      "formatted_address": "6JHW+5HJ, 640106, Kapo, Nigeria",
      "google_map_url": "https://maps.google.com?q=9.2278468,12.6461597",
      "google_place_id": "ChIJQUaFTN5l_BARVsMLP_bMc-U"
    }
  },
  {
    "id": "4287",
    "name": "FILINGO PRY. SCH.",
    "registration_area_id": "198",
    "precise_location": null,
    "abbreviation": "002",
    "units": "002",
    "delimitation": "02/02/04/002",
    "remark": "EXISTING PU",
    "ward_id": "198",
    "ward_name": "GURIN",
    "local_government_id": "19",
    "local_government_name": "FUFORE",
    "state_id": "2",
    "state_name": "ADAMAWA",
    "location": {
      "latitude": 9.2278468,
      "longitude": 12.6461597,
      "viewport": {
        "northeast": {
          "lat": 9.22932482989272,
          "lng": 12.64724002989272
        },
        "southwest": {
          "lat": 9.226625170107276,
          "lng": 12.64454037010728
        }
      },
      "formatted_address": "6JHW+5HJ, 640106, Kapo, Nigeria",
      "google_map_url": "https://maps.google.com?q=9.2278468,12.6461597",
      "google_place_id": "ChIJQUaFTN5l_BARVsMLP_bMc-U"
    }
  },
  {
    "id": "4288",
    "name": "GURIN DISPENSARY I",
    "registration_area_id": "198",
    "precise_location": null,
    "abbreviation": "003",
    "units": "003",
    "delimitation": "02/02/04/003",
    "remark": "EXISTING PU",
    "ward_id": "198",
    "ward_name": "GURIN",
    "local_government_id": "19",
    "local_government_name": "FUFORE",
    "state_id": "2",
    "state_name": "ADAMAWA",
    "location": {
      "latitude": 9.112033,
      "longitude": 12.884133,
      "viewport": {
        "northeast": {
          "lat": 9.113342879892722,
          "lng": 12.88548627989272
        },
        "southwest": {
          "lat": 9.110643220107278,
          "lng": 12.88278662010728
        }
      },
      "formatted_address": "4V6M+RM6, 640104, Gurin, Nigeria",
      "google_map_url": "https://maps.google.com?q=9.112033,12.884133",
      "google_place_id": "ChIJE_5rEW2G_BAR6qlzMVJD6is"
    }
  },
  {
    "id": "4289",
    "name": "GURIN DISPENSARY II",
    "registration_area_id": "198",
    "precise_location": null,
    "abbreviation": "004",
    "units": "004",
    "delimitation": "02/02/04/004",
    "remark": "EXISTING PU",
    "ward_id": "198",
    "ward_name": "GURIN",
    "local_government_id": "19",
    "local_government_name": "FUFORE",
    "state_id": "2",
    "state_name": "ADAMAWA",
    "location": {
      "latitude": 9.112033,
      "longitude": 12.884133,
      "viewport": {
        "northeast": {
          "lat": 9.113342879892722,
          "lng": 12.88548627989272
        },
        "southwest": {
          "lat": 9.110643220107278,
          "lng": 12.88278662010728
        }
      },
      "formatted_address": "4V6M+RM6, 640104, Gurin, Nigeria",
      "google_map_url": "https://maps.google.com?q=9.112033,12.884133",
      "google_place_id": "ChIJE_5rEW2G_BAR6qlzMVJD6is"
    }
  },
  {
    "id": "4290",
    "name": "GURIN G.S.S. I",
    "registration_area_id": "198",
    "precise_location": null,
    "abbreviation": "005",
    "units": "005",
    "delimitation": "02/02/04/005",
    "remark": "EXISTING PU",
    "ward_id": "198",
    "ward_name": "GURIN",
    "local_government_id": "19",
    "local_government_name": "FUFORE",
    "state_id": "2",
    "state_name": "ADAMAWA",
    "location": {
      "latitude": 9.256057199999999,
      "longitude": 12.4423735,
      "viewport": {
        "northeast": {
          "lat": 9.25740147989272,
          "lng": 12.44372647989272
        },
        "southwest": {
          "lat": 9.254701820107277,
          "lng": 12.44102682010728
        }
      },
      "formatted_address": "7C4R+CWH, Gurin Road, Karewa 640101, Jimeta, Nigeria",
      "google_map_url": "https://maps.google.com?q=9.256057199999999,12.4423735",
      "google_place_id": "ChIJbzVjx0tr_BARbHca-XcNlnk"
    }
  },
  {
    "id": "4291",
    "name": "GURIN G.S.S. II",
    "registration_area_id": "198",
    "precise_location": null,
    "abbreviation": "006",
    "units": "006",
    "delimitation": "02/02/04/006",
    "remark": "EXISTING PU",
    "ward_id": "198",
    "ward_name": "GURIN",
    "local_government_id": "19",
    "local_government_name": "FUFORE",
    "state_id": "2",
    "state_name": "ADAMAWA",
    "location": {
      "latitude": 9.256057199999999,
      "longitude": 12.4423735,
      "viewport": {
        "northeast": {
          "lat": 9.25740147989272,
          "lng": 12.44372647989272
        },
        "southwest": {
          "lat": 9.254701820107277,
          "lng": 12.44102682010728
        }
      },
      "formatted_address": "7C4R+CWH, Gurin Road, Karewa 640101, Jimeta, Nigeria",
      "google_map_url": "https://maps.google.com?q=9.256057199999999,12.4423735",
      "google_place_id": "ChIJbzVjx0tr_BARbHca-XcNlnk"
    }
  },
  {
    "id": "4292",
    "name": "GURIN MATERNITY",
    "registration_area_id": "198",
    "precise_location": null,
    "abbreviation": "007",
    "units": "007",
    "delimitation": "02/02/04/007",
    "remark": "EXISTING PU",
    "ward_id": "198",
    "ward_name": "GURIN",
    "local_government_id": "19",
    "local_government_name": "FUFORE",
    "state_id": "2",
    "state_name": "ADAMAWA",
    "location": null
  },
  {
    "id": "4293",
    "name": "GURIN TAPARE I",
    "registration_area_id": "198",
    "precise_location": null,
    "abbreviation": "008",
    "units": "008",
    "delimitation": "02/02/04/008",
    "remark": "EXISTING PU",
    "ward_id": "198",
    "ward_name": "GURIN",
    "local_government_id": "19",
    "local_government_name": "FUFORE",
    "state_id": "2",
    "state_name": "ADAMAWA",
    "location": {
      "latitude": 9.159162499999999,
      "longitude": 12.8284772,
      "viewport": {
        "northeast": {
          "lat": 9.354676399999999,
          "lng": 12.924551
        },
        "southwest": {
          "lat": 8.9800626,
          "lng": 12.6621958
        }
      },
      "formatted_address": "Gurin, Nigeria",
      "google_map_url": "https://maps.google.com?q=9.159162499999999,12.8284772",
      "google_place_id": "ChIJlW6zmZBi_BAREt3dwR55Bwo"
    }
  },
  {
    "id": "4294",
    "name": "GURIN TAPARE II",
    "registration_area_id": "198",
    "precise_location": null,
    "abbreviation": "009",
    "units": "009",
    "delimitation": "02/02/04/009",
    "remark": "EXISTING PU",
    "ward_id": "198",
    "ward_name": "GURIN",
    "local_government_id": "19",
    "local_government_name": "FUFORE",
    "state_id": "2",
    "state_name": "ADAMAWA",
    "location": {
      "latitude": 9.159162499999999,
      "longitude": 12.8284772,
      "viewport": {
        "northeast": {
          "lat": 9.354676399999999,
          "lng": 12.924551
        },
        "southwest": {
          "lat": 8.9800626,
          "lng": 12.6621958
        }
      },
      "formatted_address": "Gurin, Nigeria",
      "google_map_url": "https://maps.google.com?q=9.159162499999999,12.8284772",
      "google_place_id": "ChIJlW6zmZBi_BAREt3dwR55Bwo"
    }
  },
  {
    "id": "4295",
    "name": "GDSS GURIN",
    "registration_area_id": "198",
    "precise_location": null,
    "abbreviation": "010",
    "units": "010",
    "delimitation": "02/02/04/010",
    "remark": "EXISTING PU",
    "ward_id": "198",
    "ward_name": "GURIN",
    "local_government_id": "19",
    "local_government_name": "FUFORE",
    "state_id": "2",
    "state_name": "ADAMAWA",
    "location": {
      "latitude": 9.2246876,
      "longitude": 12.6485682,
      "viewport": {
        "northeast": {
          "lat": 9.226078329892722,
          "lng": 12.64997582989272
        },
        "southwest": {
          "lat": 9.223378670107278,
          "lng": 12.64727617010728
        }
      },
      "formatted_address": "6JFX+VCG, 640106, Kapo, Nigeria",
      "google_map_url": "https://maps.google.com?q=9.2246876,12.6485682",
      "google_place_id": "ChIJkSp7I9xl_BARGUcl7UvWkcI"
    }
  },
  {
    "id": "4296",
    "name": "LES BETI PRY SCH",
    "registration_area_id": "198",
    "precise_location": null,
    "abbreviation": "011",
    "units": "011",
    "delimitation": "02/02/04/011",
    "remark": "EXISTING PU",
    "ward_id": "198",
    "ward_name": "GURIN",
    "local_government_id": "19",
    "local_government_name": "FUFORE",
    "state_id": "2",
    "state_name": "ADAMAWA",
    "location": {
      "latitude": 9.2278468,
      "longitude": 12.6461597,
      "viewport": {
        "northeast": {
          "lat": 9.22932482989272,
          "lng": 12.64724002989272
        },
        "southwest": {
          "lat": 9.226625170107276,
          "lng": 12.64454037010728
        }
      },
      "formatted_address": "6JHW+5HJ, 640106, Kapo, Nigeria",
      "google_map_url": "https://maps.google.com?q=9.2278468,12.6461597",
      "google_place_id": "ChIJQUaFTN5l_BARVsMLP_bMc-U"
    }
  },
  {
    "id": "4297",
    "name": "JUBAWO PRY SCH",
    "registration_area_id": "198",
    "precise_location": null,
    "abbreviation": "012",
    "units": "012",
    "delimitation": "02/02/04/012",
    "remark": "EXISTING PU",
    "ward_id": "198",
    "ward_name": "GURIN",
    "local_government_id": "19",
    "local_government_name": "FUFORE",
    "state_id": "2",
    "state_name": "ADAMAWA",
    "location": {
      "latitude": 9.2278468,
      "longitude": 12.6461597,
      "viewport": {
        "northeast": {
          "lat": 9.22932482989272,
          "lng": 12.64724002989272
        },
        "southwest": {
          "lat": 9.226625170107276,
          "lng": 12.64454037010728
        }
      },
      "formatted_address": "6JHW+5HJ, 640106, Kapo, Nigeria",
      "google_map_url": "https://maps.google.com?q=9.2278468,12.6461597",
      "google_place_id": "ChIJQUaFTN5l_BARVsMLP_bMc-U"
    }
  },
  {
    "id": "4298",
    "name": "KOFAR JAURO KAREWA",
    "registration_area_id": "198",
    "precise_location": null,
    "abbreviation": "013",
    "units": "013",
    "delimitation": "02/02/04/013",
    "remark": "EXISTING PU",
    "ward_id": "198",
    "ward_name": "GURIN",
    "local_government_id": "19",
    "local_government_name": "FUFORE",
    "state_id": "2",
    "state_name": "ADAMAWA",
    "location": null
  },
  {
    "id": "4299",
    "name": "KOFAR JAURO KARLAHI",
    "registration_area_id": "198",
    "precise_location": null,
    "abbreviation": "014",
    "units": "014",
    "delimitation": "02/02/04/014",
    "remark": "EXISTING PU",
    "ward_id": "198",
    "ward_name": "GURIN",
    "local_government_id": "19",
    "local_government_name": "FUFORE",
    "state_id": "2",
    "state_name": "ADAMAWA",
    "location": null
  },
  {
    "id": "4300",
    "name": "KOFAR JAURO MAITARI",
    "registration_area_id": "198",
    "precise_location": null,
    "abbreviation": "015",
    "units": "015",
    "delimitation": "02/02/04/015",
    "remark": "EXISTING PU",
    "ward_id": "198",
    "ward_name": "GURIN",
    "local_government_id": "19",
    "local_government_name": "FUFORE",
    "state_id": "2",
    "state_name": "ADAMAWA",
    "location": null
  },
  {
    "id": "4301",
    "name": "MUNINGA PRY SCH  I",
    "registration_area_id": "198",
    "precise_location": null,
    "abbreviation": "016",
    "units": "016",
    "delimitation": "02/02/04/016",
    "remark": "EXISTING PU",
    "ward_id": "198",
    "ward_name": "GURIN",
    "local_government_id": "19",
    "local_government_name": "FUFORE",
    "state_id": "2",
    "state_name": "ADAMAWA",
    "location": {
      "latitude": 9.2278468,
      "longitude": 12.6461597,
      "viewport": {
        "northeast": {
          "lat": 9.22932482989272,
          "lng": 12.64724002989272
        },
        "southwest": {
          "lat": 9.226625170107276,
          "lng": 12.64454037010728
        }
      },
      "formatted_address": "6JHW+5HJ, 640106, Kapo, Nigeria",
      "google_map_url": "https://maps.google.com?q=9.2278468,12.6461597",
      "google_place_id": "ChIJQUaFTN5l_BARVsMLP_bMc-U"
    }
  },
  {
    "id": "4302",
    "name": "MUNINGA PRY SCH  II",
    "registration_area_id": "198",
    "precise_location": null,
    "abbreviation": "017",
    "units": "017",
    "delimitation": "02/02/04/017",
    "remark": "EXISTING PU",
    "ward_id": "198",
    "ward_name": "GURIN",
    "local_government_id": "19",
    "local_government_name": "FUFORE",
    "state_id": "2",
    "state_name": "ADAMAWA",
    "location": {
      "latitude": 9.2278468,
      "longitude": 12.6461597,
      "viewport": {
        "northeast": {
          "lat": 9.22932482989272,
          "lng": 12.64724002989272
        },
        "southwest": {
          "lat": 9.226625170107276,
          "lng": 12.64454037010728
        }
      },
      "formatted_address": "6JHW+5HJ, 640106, Kapo, Nigeria",
      "google_map_url": "https://maps.google.com?q=9.2278468,12.6461597",
      "google_place_id": "ChIJQUaFTN5l_BARVsMLP_bMc-U"
    }
  },
  {
    "id": "4303",
    "name": "KOFAR JAURO NASSARAWO",
    "registration_area_id": "198",
    "precise_location": null,
    "abbreviation": "018",
    "units": "018",
    "delimitation": "02/02/04/018",
    "remark": "EXISTING PU",
    "ward_id": "198",
    "ward_name": "GURIN",
    "local_government_id": "19",
    "local_government_name": "FUFORE",
    "state_id": "2",
    "state_name": "ADAMAWA",
    "location": null
  },
  {
    "id": "4304",
    "name": "CENTRAL PRY SCH GURIN   I",
    "registration_area_id": "198",
    "precise_location": null,
    "abbreviation": "019",
    "units": "019",
    "delimitation": "02/02/04/019",
    "remark": "EXISTING PU",
    "ward_id": "198",
    "ward_name": "GURIN",
    "local_government_id": "19",
    "local_government_name": "FUFORE",
    "state_id": "2",
    "state_name": "ADAMAWA",
    "location": {
      "latitude": 9.2278468,
      "longitude": 12.6461597,
      "viewport": {
        "northeast": {
          "lat": 9.22932482989272,
          "lng": 12.64724002989272
        },
        "southwest": {
          "lat": 9.226625170107276,
          "lng": 12.64454037010728
        }
      },
      "formatted_address": "6JHW+5HJ, 640106, Kapo, Nigeria",
      "google_map_url": "https://maps.google.com?q=9.2278468,12.6461597",
      "google_place_id": "ChIJQUaFTN5l_BARVsMLP_bMc-U"
    }
  },
  {
    "id": "4305",
    "name": "CENTRAL PRY SCH GURIN   II",
    "registration_area_id": "198",
    "precise_location": null,
    "abbreviation": "020",
    "units": "020",
    "delimitation": "02/02/04/020",
    "remark": "EXISTING PU",
    "ward_id": "198",
    "ward_name": "GURIN",
    "local_government_id": "19",
    "local_government_name": "FUFORE",
    "state_id": "2",
    "state_name": "ADAMAWA",
    "location": {
      "latitude": 9.2278468,
      "longitude": 12.6461597,
      "viewport": {
        "northeast": {
          "lat": 9.22932482989272,
          "lng": 12.64724002989272
        },
        "southwest": {
          "lat": 9.226625170107276,
          "lng": 12.64454037010728
        }
      },
      "formatted_address": "6JHW+5HJ, 640106, Kapo, Nigeria",
      "google_map_url": "https://maps.google.com?q=9.2278468,12.6461597",
      "google_place_id": "ChIJQUaFTN5l_BARVsMLP_bMc-U"
    }
  },
  {
    "id": "4306",
    "name": "KOFAR JAURO ZUMORE",
    "registration_area_id": "198",
    "precise_location": null,
    "abbreviation": "021",
    "units": "021",
    "delimitation": "02/02/04/021",
    "remark": "EXISTING PU",
    "ward_id": "198",
    "ward_name": "GURIN",
    "local_government_id": "19",
    "local_government_name": "FUFORE",
    "state_id": "2",
    "state_name": "ADAMAWA",
    "location": null
  },
  {
    "id": "4307",
    "name": "PARDA DISPENSARY",
    "registration_area_id": "198",
    "precise_location": null,
    "abbreviation": "022",
    "units": "022",
    "delimitation": "02/02/04/022",
    "remark": "EXISTING PU",
    "ward_id": "198",
    "ward_name": "GURIN",
    "local_government_id": "19",
    "local_government_name": "FUFORE",
    "state_id": "2",
    "state_name": "ADAMAWA",
    "location": {
      "latitude": 9.1805877,
      "longitude": 12.7227151,
      "viewport": {
        "northeast": {
          "lat": 9.181909129892722,
          "lng": 12.72399687989272
        },
        "southwest": {
          "lat": 9.179209470107278,
          "lng": 12.72129722010728
        }
      },
      "formatted_address": "5PJF+63P, 640104, Ribadu, Nigeria",
      "google_map_url": "https://maps.google.com?q=9.1805877,12.7227151",
      "google_place_id": "ChIJl9Waonlj_BARRB_RJiTmkRE"
    }
  },
  {
    "id": "4308",
    "name": "WURO YOLDE PRY. SCH.",
    "registration_area_id": "198",
    "precise_location": null,
    "abbreviation": "023",
    "units": "023",
    "delimitation": "02/02/04/023",
    "remark": "EXISTING PU",
    "ward_id": "198",
    "ward_name": "GURIN",
    "local_government_id": "19",
    "local_government_name": "FUFORE",
    "state_id": "2",
    "state_name": "ADAMAWA",
    "location": {
      "latitude": 9.2278468,
      "longitude": 12.6461597,
      "viewport": {
        "northeast": {
          "lat": 9.22932482989272,
          "lng": 12.64724002989272
        },
        "southwest": {
          "lat": 9.226625170107276,
          "lng": 12.64454037010728
        }
      },
      "formatted_address": "6JHW+5HJ, 640106, Kapo, Nigeria",
      "google_map_url": "https://maps.google.com?q=9.2278468,12.6461597",
      "google_place_id": "ChIJQUaFTN5l_BARVsMLP_bMc-U"
    }
  },
  {
    "id": "4309",
    "name": "CHIKITO DISP.",
    "registration_area_id": "198",
    "precise_location": null,
    "abbreviation": "024",
    "units": "024",
    "delimitation": "02/02/04/024",
    "remark": "NEW PU",
    "ward_id": "198",
    "ward_name": "GURIN",
    "local_government_id": "19",
    "local_government_name": "FUFORE",
    "state_id": "2",
    "state_name": "ADAMAWA",
    "location": null
  },
  {
    "id": "4310",
    "name": "CHIKITO DISP.",
    "registration_area_id": "198",
    "precise_location": null,
    "abbreviation": "025",
    "units": "025",
    "delimitation": "02/02/04/025",
    "remark": "NEW PU",
    "ward_id": "198",
    "ward_name": "GURIN",
    "local_government_id": "19",
    "local_government_name": "FUFORE",
    "state_id": "2",
    "state_name": "ADAMAWA",
    "location": null
  },
  {
    "id": "4311",
    "name": "FILINGO PRI. SCH.",
    "registration_area_id": "198",
    "precise_location": null,
    "abbreviation": "026",
    "units": "026",
    "delimitation": "02/02/04/026",
    "remark": "NEW PU",
    "ward_id": "198",
    "ward_name": "GURIN",
    "local_government_id": "19",
    "local_government_name": "FUFORE",
    "state_id": "2",
    "state_name": "ADAMAWA",
    "location": {
      "latitude": 9.2278468,
      "longitude": 12.6461597,
      "viewport": {
        "northeast": {
          "lat": 9.22932482989272,
          "lng": 12.64724002989272
        },
        "southwest": {
          "lat": 9.226625170107276,
          "lng": 12.64454037010728
        }
      },
      "formatted_address": "6JHW+5HJ, 640106, Kapo, Nigeria",
      "google_map_url": "https://maps.google.com?q=9.2278468,12.6461597",
      "google_place_id": "ChIJQUaFTN5l_BARVsMLP_bMc-U"
    }
  },
  {
    "id": "4312",
    "name": "MUNINGA PRI. SCH.",
    "registration_area_id": "198",
    "precise_location": null,
    "abbreviation": "027",
    "units": "027",
    "delimitation": "02/02/04/027",
    "remark": "NEW PU",
    "ward_id": "198",
    "ward_name": "GURIN",
    "local_government_id": "19",
    "local_government_name": "FUFORE",
    "state_id": "2",
    "state_name": "ADAMAWA",
    "location": {
      "latitude": 9.2278468,
      "longitude": 12.6461597,
      "viewport": {
        "northeast": {
          "lat": 9.22932482989272,
          "lng": 12.64724002989272
        },
        "southwest": {
          "lat": 9.226625170107276,
          "lng": 12.64454037010728
        }
      },
      "formatted_address": "6JHW+5HJ, 640106, Kapo, Nigeria",
      "google_map_url": "https://maps.google.com?q=9.2278468,12.6461597",
      "google_place_id": "ChIJQUaFTN5l_BARVsMLP_bMc-U"
    }
  },
  {
    "id": "4313",
    "name": "GDSS MUNINGA",
    "registration_area_id": "198",
    "precise_location": null,
    "abbreviation": "028",
    "units": "028",
    "delimitation": "02/02/04/028",
    "remark": "NEW PU",
    "ward_id": "198",
    "ward_name": "GURIN",
    "local_government_id": "19",
    "local_government_name": "FUFORE",
    "state_id": "2",
    "state_name": "ADAMAWA",
    "location": {
      "latitude": 9.3097782,
      "longitude": 12.4872756,
      "viewport": {
        "northeast": {
          "lat": 9.311124829892721,
          "lng": 12.48860952989272
        },
        "southwest": {
          "lat": 9.308425170107277,
          "lng": 12.48590987010728
        }
      },
      "formatted_address": "A 13, 652101, Jabura, Nigeria",
      "google_map_url": "https://maps.google.com?q=9.3097782,12.4872756",
      "google_place_id": "ChIJp58pKGNq_BARH7BJEKRaVwc"
    }
  },
  {
    "id": "4314",
    "name": "GURIN DISPENSARY",
    "registration_area_id": "198",
    "precise_location": null,
    "abbreviation": "029",
    "units": "029",
    "delimitation": "02/02/04/029",
    "remark": "NEW PU",
    "ward_id": "198",
    "ward_name": "GURIN",
    "local_government_id": "19",
    "local_government_name": "FUFORE",
    "state_id": "2",
    "state_name": "ADAMAWA",
    "location": {
      "latitude": 9.112033,
      "longitude": 12.884133,
      "viewport": {
        "northeast": {
          "lat": 9.113342879892722,
          "lng": 12.88548627989272
        },
        "southwest": {
          "lat": 9.110643220107278,
          "lng": 12.88278662010728
        }
      },
      "formatted_address": "4V6M+RM6, 640104, Gurin, Nigeria",
      "google_map_url": "https://maps.google.com?q=9.112033,12.884133",
      "google_place_id": "ChIJE_5rEW2G_BAR6qlzMVJD6is"
    }
  },
  {
    "id": "4315",
    "name": "G.S.S I",
    "registration_area_id": "198",
    "precise_location": null,
    "abbreviation": "030",
    "units": "030",
    "delimitation": "02/02/04/030",
    "remark": "NEW PU",
    "ward_id": "198",
    "ward_name": "GURIN",
    "local_government_id": "19",
    "local_government_name": "FUFORE",
    "state_id": "2",
    "state_name": "ADAMAWA",
    "location": {
      "latitude": 9.256057199999999,
      "longitude": 12.4423735,
      "viewport": {
        "northeast": {
          "lat": 9.25740147989272,
          "lng": 12.44372647989272
        },
        "southwest": {
          "lat": 9.254701820107277,
          "lng": 12.44102682010728
        }
      },
      "formatted_address": "7C4R+CWH, Gurin Road, Karewa 640101, Jimeta, Nigeria",
      "google_map_url": "https://maps.google.com?q=9.256057199999999,12.4423735",
      "google_place_id": "ChIJbzVjx0tr_BARbHca-XcNlnk"
    }
  },
  {
    "id": "4316",
    "name": "G.S.S II",
    "registration_area_id": "198",
    "precise_location": null,
    "abbreviation": "031",
    "units": "031",
    "delimitation": "02/02/04/031",
    "remark": "NEW PU",
    "ward_id": "198",
    "ward_name": "GURIN",
    "local_government_id": "19",
    "local_government_name": "FUFORE",
    "state_id": "2",
    "state_name": "ADAMAWA",
    "location": {
      "latitude": 9.256057199999999,
      "longitude": 12.4423735,
      "viewport": {
        "northeast": {
          "lat": 9.25740147989272,
          "lng": 12.44372647989272
        },
        "southwest": {
          "lat": 9.254701820107277,
          "lng": 12.44102682010728
        }
      },
      "formatted_address": "7C4R+CWH, Gurin Road, Karewa 640101, Jimeta, Nigeria",
      "google_map_url": "https://maps.google.com?q=9.256057199999999,12.4423735",
      "google_place_id": "ChIJbzVjx0tr_BARbHca-XcNlnk"
    }
  },
  {
    "id": "4317",
    "name": "AREA COURT",
    "registration_area_id": "198",
    "precise_location": null,
    "abbreviation": "032",
    "units": "032",
    "delimitation": "02/02/04/032",
    "remark": "NEW PU",
    "ward_id": "198",
    "ward_name": "GURIN",
    "local_government_id": "19",
    "local_government_name": "FUFORE",
    "state_id": "2",
    "state_name": "ADAMAWA",
    "location": null
  },
  {
    "id": "4318",
    "name": "NEAR BORE HOLE ZUMORE",
    "registration_area_id": "198",
    "precise_location": null,
    "abbreviation": "033",
    "units": "033",
    "delimitation": "02/02/04/033",
    "remark": "NEW PU",
    "ward_id": "198",
    "ward_name": "GURIN",
    "local_government_id": "19",
    "local_government_name": "FUFORE",
    "state_id": "2",
    "state_name": "ADAMAWA",
    "location": {
      "latitude": 8.9999875,
      "longitude": 7.4732568,
      "viewport": {
        "northeast": {
          "lat": 9.001424829892722,
          "lng": 7.474667829892721
        },
        "southwest": {
          "lat": 8.998725170107278,
          "lng": 7.471968170107277
        }
      },
      "formatted_address": "Hebron Plaza, Suite 202a, District, Abuja, Nigeria",
      "google_map_url": "https://maps.google.com?q=8.9999875,7.4732568",
      "google_place_id": "ChIJAQCwUvIMThARX2iHyYvdO2w"
    }
  },
  {
    "id": "4319",
    "name": "OPEN SPACE",
    "registration_area_id": "198",
    "precise_location": null,
    "abbreviation": "034",
    "units": "034",
    "delimitation": "02/02/04/034",
    "remark": "NEW PU",
    "ward_id": "198",
    "ward_name": "GURIN",
    "local_government_id": "19",
    "local_government_name": "FUFORE",
    "state_id": "2",
    "state_name": "ADAMAWA",
    "location": null
  },
  {
    "id": "4320",
    "name": "PRIMARY SCH.",
    "registration_area_id": "198",
    "precise_location": null,
    "abbreviation": "035",
    "units": "035",
    "delimitation": "02/02/04/035",
    "remark": "NEW PU",
    "ward_id": "198",
    "ward_name": "GURIN",
    "local_government_id": "19",
    "local_government_name": "FUFORE",
    "state_id": "2",
    "state_name": "ADAMAWA",
    "location": null
  },
  {
    "id": "4321",
    "name": "W/ Y. PRI. SCH.",
    "registration_area_id": "198",
    "precise_location": null,
    "abbreviation": "036",
    "units": "036",
    "delimitation": "02/02/04/036",
    "remark": "NEW PU",
    "ward_id": "198",
    "ward_name": "GURIN",
    "local_government_id": "19",
    "local_government_name": "FUFORE",
    "state_id": "2",
    "state_name": "ADAMAWA",
    "location": {
      "latitude": 9.2278468,
      "longitude": 12.6461597,
      "viewport": {
        "northeast": {
          "lat": 9.22932482989272,
          "lng": 12.64724002989272
        },
        "southwest": {
          "lat": 9.226625170107276,
          "lng": 12.64454037010728
        }
      },
      "formatted_address": "6JHW+5HJ, 640106, Kapo, Nigeria",
      "google_map_url": "https://maps.google.com?q=9.2278468,12.6461597",
      "google_place_id": "ChIJQUaFTN5l_BARVsMLP_bMc-U"
    }
  },
  {
    "id": "4322",
    "name": "PARDA PRI. SCH.",
    "registration_area_id": "198",
    "precise_location": null,
    "abbreviation": "037",
    "units": "037",
    "delimitation": "02/02/04/037",
    "remark": "NEW PU",
    "ward_id": "198",
    "ward_name": "GURIN",
    "local_government_id": "19",
    "local_government_name": "FUFORE",
    "state_id": "2",
    "state_name": "ADAMAWA",
    "location": {
      "latitude": 9.2278468,
      "longitude": 12.6461597,
      "viewport": {
        "northeast": {
          "lat": 9.22932482989272,
          "lng": 12.64724002989272
        },
        "southwest": {
          "lat": 9.226625170107276,
          "lng": 12.64454037010728
        }
      },
      "formatted_address": "6JHW+5HJ, 640106, Kapo, Nigeria",
      "google_map_url": "https://maps.google.com?q=9.2278468,12.6461597",
      "google_place_id": "ChIJQUaFTN5l_BARVsMLP_bMc-U"
    }
  },
  {
    "id": "4323",
    "name": "PARDA PRI. SCH.",
    "registration_area_id": "198",
    "precise_location": null,
    "abbreviation": "038",
    "units": "038",
    "delimitation": "02/02/04/038",
    "remark": "NEW PU",
    "ward_id": "198",
    "ward_name": "GURIN",
    "local_government_id": "19",
    "local_government_name": "FUFORE",
    "state_id": "2",
    "state_name": "ADAMAWA",
    "location": {
      "latitude": 9.2278468,
      "longitude": 12.6461597,
      "viewport": {
        "northeast": {
          "lat": 9.22932482989272,
          "lng": 12.64724002989272
        },
        "southwest": {
          "lat": 9.226625170107276,
          "lng": 12.64454037010728
        }
      },
      "formatted_address": "6JHW+5HJ, 640106, Kapo, Nigeria",
      "google_map_url": "https://maps.google.com?q=9.2278468,12.6461597",
      "google_place_id": "ChIJQUaFTN5l_BARVsMLP_bMc-U"
    }
  }
]