[
  {
    "id": "105429",
    "name": "GAMJI PRIMARY SCHOOL 'A'",
    "registration_area_id": "5412",
    "precise_location": null,
    "abbreviation": "001",
    "units": "001",
    "delimitation": "21/21/08/001",
    "remark": "EXISTING PU",
    "ward_id": "5412",
    "ward_name": "SENCHI",
    "local_government_id": "468",
    "local_government_name": "ZURU",
    "state_id": "21",
    "state_name": "KEBBI",
    "location": {
      "latitude": 12.4458568,
      "longitude": 4.2261237,
      "viewport": {
        "northeast": {
          "lat": 12.44716447989272,
          "lng": 4.227326829892722
        },
        "southwest": {
          "lat": 12.44446482010728,
          "lng": 4.224627170107278
        }
      },
      "formatted_address": "C6WG+8CX, Sani Abacha Bye Pass, 860101, Birnin Kebbi, Nigeria",
      "google_map_url": "https://maps.google.com?q=12.4458568,4.2261237",
      "google_place_id": "ChIJBR69IiwTyRERLPf8i4jVLFw"
    }
  },
  {
    "id": "105430",
    "name": "SENCHI PRIMARY SCHOOL",
    "registration_area_id": "5412",
    "precise_location": null,
    "abbreviation": "002",
    "units": "002",
    "delimitation": "21/21/08/002",
    "remark": "EXISTING PU",
    "ward_id": "5412",
    "ward_name": "SENCHI",
    "local_government_id": "468",
    "local_government_name": "ZURU",
    "state_id": "21",
    "state_name": "KEBBI",
    "location": null
  },
  {
    "id": "105431",
    "name": "T/BAHAGO",
    "registration_area_id": "5412",
    "precise_location": null,
    "abbreviation": "003",
    "units": "003",
    "delimitation": "21/21/08/003",
    "remark": "EXISTING PU",
    "ward_id": "5412",
    "ward_name": "SENCHI",
    "local_government_id": "468",
    "local_government_name": "ZURU",
    "state_id": "21",
    "state_name": "KEBBI",
    "location": {
      "latitude": 11.4384457,
      "longitude": 5.231887899999999,
      "viewport": {
        "northeast": {
          "lat": 11.43978487989272,
          "lng": 5.233227229892721
        },
        "southwest": {
          "lat": 11.43708522010728,
          "lng": 5.230527570107277
        }
      },
      "formatted_address": "Near Etisalat Mast, Late Alkali Sa'idu House, 323421, Zuru, Nigeria",
      "google_map_url": "https://maps.google.com?q=11.4384457,5.231887899999999",
      "google_place_id": "ChIJEeqdZ9WbtRER9OBc_2Qm-Zc"
    }
  },
  {
    "id": "105432",
    "name": "T/KIBIYA",
    "registration_area_id": "5412",
    "precise_location": null,
    "abbreviation": "004",
    "units": "004",
    "delimitation": "21/21/08/004",
    "remark": "EXISTING PU",
    "ward_id": "5412",
    "ward_name": "SENCHI",
    "local_government_id": "468",
    "local_government_name": "ZURU",
    "state_id": "21",
    "state_name": "KEBBI",
    "location": null
  },
  {
    "id": "105433",
    "name": "T/RIMI",
    "registration_area_id": "5412",
    "precise_location": null,
    "abbreviation": "005",
    "units": "005",
    "delimitation": "21/21/08/005",
    "remark": "EXISTING PU",
    "ward_id": "5412",
    "ward_name": "SENCHI",
    "local_government_id": "468",
    "local_government_name": "ZURU",
    "state_id": "21",
    "state_name": "KEBBI",
    "location": null
  },
  {
    "id": "105434",
    "name": "UNG. DUDU",
    "registration_area_id": "5412",
    "precise_location": null,
    "abbreviation": "006",
    "units": "006",
    "delimitation": "21/21/08/006",
    "remark": "EXISTING PU",
    "ward_id": "5412",
    "ward_name": "SENCHI",
    "local_government_id": "468",
    "local_government_name": "ZURU",
    "state_id": "21",
    "state_name": "KEBBI",
    "location": null
  },
  {
    "id": "105435",
    "name": "UNG. DUDU RITTI",
    "registration_area_id": "5412",
    "precise_location": null,
    "abbreviation": "007",
    "units": "007",
    "delimitation": "21/21/08/007",
    "remark": "EXISTING PU",
    "ward_id": "5412",
    "ward_name": "SENCHI",
    "local_government_id": "468",
    "local_government_name": "ZURU",
    "state_id": "21",
    "state_name": "KEBBI",
    "location": {
      "latitude": 11.439785,
      "longitude": 5.238293,
      "viewport": {
        "northeast": {
          "lat": 11.44115582989272,
          "lng": 5.239643279892722
        },
        "southwest": {
          "lat": 11.43845617010728,
          "lng": 5.236943620107279
        }
      },
      "formatted_address": "C6QQ+W78, Tudun Wada 872101, Zuru, Nigeria",
      "google_map_url": "https://maps.google.com?q=11.439785,5.238293",
      "google_place_id": "ChIJQ2jRjVibtRERRmA7Mji7HhQ"
    }
  },
  {
    "id": "105436",
    "name": "UNG/KUDUN GALADIMA",
    "registration_area_id": "5412",
    "precise_location": null,
    "abbreviation": "008",
    "units": "008",
    "delimitation": "21/21/08/008",
    "remark": "EXISTING PU",
    "ward_id": "5412",
    "ward_name": "SENCHI",
    "local_government_id": "468",
    "local_government_name": "ZURU",
    "state_id": "21",
    "state_name": "KEBBI",
    "location": {
      "latitude": 11.4371182,
      "longitude": 5.2424235,
      "viewport": {
        "northeast": {
          "lat": 11.43846077989272,
          "lng": 5.243749529892722
        },
        "southwest": {
          "lat": 11.43576112010728,
          "lng": 5.241049870107278
        }
      },
      "formatted_address": "Unnamed Road, 872101, Zuru, Nigeria",
      "google_map_url": "https://maps.google.com?q=11.4371182,5.2424235",
      "google_place_id": "ChIJJfHHmp2btRER15fQiwvDUkQ"
    }
  },
  {
    "id": "105437",
    "name": "UNG. KWALI DANDARESO",
    "registration_area_id": "5412",
    "precise_location": null,
    "abbreviation": "009",
    "units": "009",
    "delimitation": "21/21/08/009",
    "remark": "EXISTING PU",
    "ward_id": "5412",
    "ward_name": "SENCHI",
    "local_government_id": "468",
    "local_government_name": "ZURU",
    "state_id": "21",
    "state_name": "KEBBI",
    "location": {
      "latitude": 11.439785,
      "longitude": 5.238293,
      "viewport": {
        "northeast": {
          "lat": 11.44115582989272,
          "lng": 5.239643279892722
        },
        "southwest": {
          "lat": 11.43845617010728,
          "lng": 5.236943620107279
        }
      },
      "formatted_address": "C6QQ+W78, Tudun Wada 872101, Zuru, Nigeria",
      "google_map_url": "https://maps.google.com?q=11.439785,5.238293",
      "google_place_id": "ChIJQ2jRjVibtRERRmA7Mji7HhQ"
    }
  },
  {
    "id": "105438",
    "name": "SEMKOMOH PRI SCH",
    "registration_area_id": "5412",
    "precise_location": null,
    "abbreviation": "010",
    "units": "010",
    "delimitation": "21/21/08/010",
    "remark": "NEW PU",
    "ward_id": "5412",
    "ward_name": "SENCHI",
    "local_government_id": "468",
    "local_government_name": "ZURU",
    "state_id": "21",
    "state_name": "KEBBI",
    "location": null
  },
  {
    "id": "105439",
    "name": "UROPHO PRI SCH",
    "registration_area_id": "5412",
    "precise_location": null,
    "abbreviation": "011",
    "units": "011",
    "delimitation": "21/21/08/011",
    "remark": "NEW PU",
    "ward_id": "5412",
    "ward_name": "SENCHI",
    "local_government_id": "468",
    "local_government_name": "ZURU",
    "state_id": "21",
    "state_name": "KEBBI",
    "location": null
  },
  {
    "id": "105440",
    "name": "MAMA ARZIKI COMP SEC SCH",
    "registration_area_id": "5412",
    "precise_location": null,
    "abbreviation": "012",
    "units": "012",
    "delimitation": "21/21/08/012",
    "remark": "NEW PU",
    "ward_id": "5412",
    "ward_name": "SENCHI",
    "local_government_id": "468",
    "local_government_name": "ZURU",
    "state_id": "21",
    "state_name": "KEBBI",
    "location": {
      "latitude": 11.4139436,
      "longitude": 5.2358217,
      "viewport": {
        "northeast": {
          "lat": 11.41522852989272,
          "lng": 5.237175429892722
        },
        "southwest": {
          "lat": 11.41252887010728,
          "lng": 5.234475770107278
        }
      },
      "formatted_address": "C67P+H8G, Zango Area, Rijau - Zuru Rd, Zuru, Nigeria",
      "google_map_url": "https://maps.google.com?q=11.4139436,5.2358217",
      "google_place_id": "ChIJOeJm2iCbtRERD59w5WJfKdg"
    }
  },
  {
    "id": "105441",
    "name": "TUNGAR BAHAGO DISPANSORY",
    "registration_area_id": "5412",
    "precise_location": null,
    "abbreviation": "013",
    "units": "013",
    "delimitation": "21/21/08/013",
    "remark": "NEW PU",
    "ward_id": "5412",
    "ward_name": "SENCHI",
    "local_government_id": "468",
    "local_government_name": "ZURU",
    "state_id": "21",
    "state_name": "KEBBI",
    "location": null
  },
  {
    "id": "105442",
    "name": "CHWAMARNA PRIM SCHOOL",
    "registration_area_id": "5412",
    "precise_location": null,
    "abbreviation": "014",
    "units": "014",
    "delimitation": "21/21/08/014",
    "remark": "NEW PU",
    "ward_id": "5412",
    "ward_name": "SENCHI",
    "local_government_id": "468",
    "local_government_name": "ZURU",
    "state_id": "21",
    "state_name": "KEBBI",
    "location": {
      "latitude": 11.449582,
      "longitude": 5.2293923,
      "viewport": {
        "northeast": {
          "lat": 11.45095217989272,
          "lng": 5.230736079892722
        },
        "southwest": {
          "lat": 11.44825252010728,
          "lng": 5.228036420107278
        }
      },
      "formatted_address": "C6XH+RQJ, 872101, Zuru, Nigeria",
      "google_map_url": "https://maps.google.com?q=11.449582,5.2293923",
      "google_place_id": "ChIJeS_GTd-btRERWW9mdzRlCSg"
    }
  }
]