[
  {
    "id": "101776",
    "name": "PRIMARY HEALTH CENTRE FADA (FADA)",
    "registration_area_id": "5194",
    "precise_location": null,
    "abbreviation": "001",
    "units": "001",
    "delimitation": "21/01/05/001",
    "remark": "EXISTING PU",
    "ward_id": "5194",
    "ward_name": "DANWARAI",
    "local_government_id": "448",
    "local_government_name": "ALIERO",
    "state_id": "21",
    "state_name": "KEBBI",
    "location": {
      "latitude": 12.3546227,
      "longitude": 4.1987246,
      "viewport": {
        "northeast": {
          "lat": 12.35612762989272,
          "lng": 4.200067279892722
        },
        "southwest": {
          "lat": 12.35342797010728,
          "lng": 4.197367620107278
        }
      },
      "formatted_address": "953X+RFX, 862104, Kalgo, Nigeria",
      "google_map_url": "https://maps.google.com?q=12.3546227,4.1987246",
      "google_place_id": "ChIJpaI8NtxtyRER4U6Fw29PQ1s"
    }
  },
  {
    "id": "101777",
    "name": "DANWARAI PRIMARY SCHOOL  (GEBE)",
    "registration_area_id": "5194",
    "precise_location": null,
    "abbreviation": "002",
    "units": "002",
    "delimitation": "21/01/05/002",
    "remark": "EXISTING PU",
    "ward_id": "5194",
    "ward_name": "DANWARAI",
    "local_government_id": "448",
    "local_government_name": "ALIERO",
    "state_id": "21",
    "state_name": "KEBBI",
    "location": {
      "latitude": 12.2525115,
      "longitude": 4.4110801,
      "viewport": {
        "northeast": {
          "lat": 12.25394232989272,
          "lng": 4.412401329892723
        },
        "southwest": {
          "lat": 12.25124267010728,
          "lng": 4.409701670107279
        }
      },
      "formatted_address": "7C36+2C4, 863104, Jega, Nigeria",
      "google_map_url": "https://maps.google.com?q=12.2525115,4.4110801",
      "google_place_id": "ChIJw8EZeJadyRERryyGqUXNDiw"
    }
  },
  {
    "id": "101778",
    "name": "OPEN SPACE OPPOSITE PUBLIC WELL HERE (HERE)",
    "registration_area_id": "5194",
    "precise_location": null,
    "abbreviation": "003",
    "units": "003",
    "delimitation": "21/01/05/003",
    "remark": "EXISTING PU",
    "ward_id": "5194",
    "ward_name": "DANWARAI",
    "local_government_id": "448",
    "local_government_name": "ALIERO",
    "state_id": "21",
    "state_name": "KEBBI",
    "location": {
      "latitude": 12.2890821,
      "longitude": 4.4652096,
      "viewport": {
        "northeast": {
          "lat": 12.29038972989272,
          "lng": 4.466523129892722
        },
        "southwest": {
          "lat": 12.28769007010728,
          "lng": 4.463823470107278
        }
      },
      "formatted_address": "Sokoto jega Road, Aliero local government, opposite Aleiru onion market, Aliero, Nigeria",
      "google_map_url": "https://maps.google.com?q=12.2890821,4.4652096",
      "google_place_id": "ChIJ90Dmk8qdyREReC8FfDRH7ig"
    }
  },
  {
    "id": "101779",
    "name": "OPEN SPACE LUNGUN KAURA  (LUNGUN KAURA)",
    "registration_area_id": "5194",
    "precise_location": null,
    "abbreviation": "004",
    "units": "004",
    "delimitation": "21/01/05/004",
    "remark": "EXISTING PU",
    "ward_id": "5194",
    "ward_name": "DANWARAI",
    "local_government_id": "448",
    "local_government_name": "ALIERO",
    "state_id": "21",
    "state_name": "KEBBI",
    "location": {
      "latitude": 12.2890821,
      "longitude": 4.4652096,
      "viewport": {
        "northeast": {
          "lat": 12.29038972989272,
          "lng": 4.466523129892722
        },
        "southwest": {
          "lat": 12.28769007010728,
          "lng": 4.463823470107278
        }
      },
      "formatted_address": "Sokoto jega Road, Aliero local government, opposite Aleiru onion market, Aliero, Nigeria",
      "google_map_url": "https://maps.google.com?q=12.2890821,4.4652096",
      "google_place_id": "ChIJ90Dmk8qdyREReC8FfDRH7ig"
    }
  },
  {
    "id": "101780",
    "name": "OPEN SPACE OPPOSITE BOREHOLE RUGGA (RUGGA)",
    "registration_area_id": "5194",
    "precise_location": null,
    "abbreviation": "005",
    "units": "005",
    "delimitation": "21/01/05/005",
    "remark": "EXISTING PU",
    "ward_id": "5194",
    "ward_name": "DANWARAI",
    "local_government_id": "448",
    "local_government_name": "ALIERO",
    "state_id": "21",
    "state_name": "KEBBI",
    "location": {
      "latitude": 12.2890821,
      "longitude": 4.4652096,
      "viewport": {
        "northeast": {
          "lat": 12.29038972989272,
          "lng": 4.466523129892722
        },
        "southwest": {
          "lat": 12.28769007010728,
          "lng": 4.463823470107278
        }
      },
      "formatted_address": "Sokoto jega Road, Aliero local government, opposite Aleiru onion market, Aliero, Nigeria",
      "google_map_url": "https://maps.google.com?q=12.2890821,4.4652096",
      "google_place_id": "ChIJ90Dmk8qdyREReC8FfDRH7ig"
    }
  },
  {
    "id": "101781",
    "name": "FADA II OPEN SPACE",
    "registration_area_id": "5194",
    "precise_location": null,
    "abbreviation": "006",
    "units": "006",
    "delimitation": "21/01/05/006",
    "remark": "NEW PU",
    "ward_id": "5194",
    "ward_name": "DANWARAI",
    "local_government_id": "448",
    "local_government_name": "ALIERO",
    "state_id": "21",
    "state_name": "KEBBI",
    "location": {
      "latitude": 12.2890821,
      "longitude": 4.4652096,
      "viewport": {
        "northeast": {
          "lat": 12.29038972989272,
          "lng": 4.466523129892722
        },
        "southwest": {
          "lat": 12.28769007010728,
          "lng": 4.463823470107278
        }
      },
      "formatted_address": "Sokoto jega Road, Aliero local government, opposite Aleiru onion market, Aliero, Nigeria",
      "google_map_url": "https://maps.google.com?q=12.2890821,4.4652096",
      "google_place_id": "ChIJ90Dmk8qdyREReC8FfDRH7ig"
    }
  },
  {
    "id": "101782",
    "name": "JUNIOR SECONDARY SCHOOL DANWARAI",
    "registration_area_id": "5194",
    "precise_location": null,
    "abbreviation": "007",
    "units": "007",
    "delimitation": "21/01/05/007",
    "remark": "NEW PU",
    "ward_id": "5194",
    "ward_name": "DANWARAI",
    "local_government_id": "448",
    "local_government_name": "ALIERO",
    "state_id": "21",
    "state_name": "KEBBI",
    "location": {
      "latitude": 12.2525115,
      "longitude": 4.4110801,
      "viewport": {
        "northeast": {
          "lat": 12.25394232989272,
          "lng": 4.412401329892723
        },
        "southwest": {
          "lat": 12.25124267010728,
          "lng": 4.409701670107279
        }
      },
      "formatted_address": "7C36+2C4, 863104, Jega, Nigeria",
      "google_map_url": "https://maps.google.com?q=12.2525115,4.4110801",
      "google_place_id": "ChIJw8EZeJadyRERryyGqUXNDiw"
    }
  },
  {
    "id": "101783",
    "name": "PHC HERE",
    "registration_area_id": "5194",
    "precise_location": null,
    "abbreviation": "008",
    "units": "008",
    "delimitation": "21/01/05/008",
    "remark": "NEW PU",
    "ward_id": "5194",
    "ward_name": "DANWARAI",
    "local_government_id": "448",
    "local_government_name": "ALIERO",
    "state_id": "21",
    "state_name": "KEBBI",
    "location": {
      "latitude": 12.2561618,
      "longitude": 4.4129648,
      "viewport": {
        "northeast": {
          "lat": 12.25755377989272,
          "lng": 4.414296429892722
        },
        "southwest": {
          "lat": 12.25485412010728,
          "lng": 4.411596770107278
        }
      },
      "formatted_address": "Sadam street, Nigeria",
      "google_map_url": "https://maps.google.com?q=12.2561618,4.4129648",
      "google_place_id": "ChIJQUb6X2ydyRERsLkYS0ablik"
    }
  }
]