[
  {
    "id": "108863",
    "name": "OKEDORI ILAFIN I YELGEA SCHOOL ILAFIN",
    "registration_area_id": "5639",
    "precise_location": null,
    "abbreviation": "001",
    "units": "001",
    "delimitation": "22/20/10/001",
    "remark": "EXISTING PU",
    "ward_id": "5639",
    "ward_name": "ILAFIN/IDOFIN/ODO - OGBA",
    "local_government_id": "488",
    "local_government_name": "YAGBA EAST",
    "state_id": "22",
    "state_name": "KOGI",
    "location": {
      "latitude": 8.342549,
      "longitude": 5.794534199999999,
      "viewport": {
        "northeast": {
          "lat": 8.343821779892723,
          "lng": 5.795877729892721
        },
        "southwest": {
          "lat": 8.34112212010728,
          "lng": 5.793178070107277
        }
      },
      "formatted_address": "8QVV+2R7, 262102, Odosin, Nigeria",
      "google_map_url": "https://maps.google.com?q=8.342549,5.794534199999999",
      "google_place_id": "ChIJYwi3wkf5SBARd3M8XKUXTN4"
    }
  },
  {
    "id": "108864",
    "name": "IDDO-OJESHA NEAR MARKET SITE IDDO-OJESHA",
    "registration_area_id": "5639",
    "precise_location": null,
    "abbreviation": "002",
    "units": "002",
    "delimitation": "22/20/10/002",
    "remark": "EXISTING PU",
    "ward_id": "5639",
    "ward_name": "ILAFIN/IDOFIN/ODO - OGBA",
    "local_government_id": "488",
    "local_government_name": "YAGBA EAST",
    "state_id": "22",
    "state_name": "KOGI",
    "location": {
      "latitude": 8.2678972,
      "longitude": 5.707419199999999,
      "viewport": {
        "northeast": {
          "lat": 8.269373029892723,
          "lng": 5.708812129892722
        },
        "southwest": {
          "lat": 8.266673370107279,
          "lng": 5.706112470107279
        }
      },
      "formatted_address": "A123, 262102, Iddo, Nigeria",
      "google_map_url": "https://maps.google.com?q=8.2678972,5.707419199999999",
      "google_place_id": "ChIJWQGNdCBYSBARUN7gQp1XKXs"
    }
  },
  {
    "id": "108865",
    "name": "ODOGBE VILLAGE, PRIMARY SCHOOL",
    "registration_area_id": "5639",
    "precise_location": null,
    "abbreviation": "003",
    "units": "003",
    "delimitation": "22/20/10/003",
    "remark": "EXISTING PU",
    "ward_id": "5639",
    "ward_name": "ILAFIN/IDOFIN/ODO - OGBA",
    "local_government_id": "488",
    "local_government_name": "YAGBA EAST",
    "state_id": "22",
    "state_name": "KOGI",
    "location": {
      "latitude": 8.342549,
      "longitude": 5.794534199999999,
      "viewport": {
        "northeast": {
          "lat": 8.343821779892723,
          "lng": 5.795877729892721
        },
        "southwest": {
          "lat": 8.34112212010728,
          "lng": 5.793178070107277
        }
      },
      "formatted_address": "8QVV+2R7, 262102, Odosin, Nigeria",
      "google_map_url": "https://maps.google.com?q=8.342549,5.794534199999999",
      "google_place_id": "ChIJYwi3wkf5SBARd3M8XKUXTN4"
    }
  },
  {
    "id": "108866",
    "name": "IDOFIN VILLAGE OPEN SPACE",
    "registration_area_id": "5639",
    "precise_location": null,
    "abbreviation": "004",
    "units": "004",
    "delimitation": "22/20/10/004",
    "remark": "EXISTING PU",
    "ward_id": "5639",
    "ward_name": "ILAFIN/IDOFIN/ODO - OGBA",
    "local_government_id": "488",
    "local_government_name": "YAGBA EAST",
    "state_id": "22",
    "state_name": "KOGI",
    "location": {
      "latitude": 8.332402199999999,
      "longitude": 5.7932008,
      "viewport": {
        "northeast": {
          "lat": 8.4528512,
          "lng": 5.9449663
        },
        "southwest": {
          "lat": 8.1893265,
          "lng": 5.675069499999999
        }
      },
      "formatted_address": "Ilafin/Idofin/Odo-Ogba, 262102, Nigeria",
      "google_map_url": "https://maps.google.com?q=8.332402199999999,5.7932008",
      "google_place_id": "ChIJee6AtHz5SBARsG9nv8-Iai4"
    }
  },
  {
    "id": "108867",
    "name": "OYI VILLAGE NEAR OYI LEPROSARIUM CLINIC",
    "registration_area_id": "5639",
    "precise_location": null,
    "abbreviation": "005",
    "units": "005",
    "delimitation": "22/20/10/005",
    "remark": "EXISTING PU",
    "ward_id": "5639",
    "ward_name": "ILAFIN/IDOFIN/ODO - OGBA",
    "local_government_id": "488",
    "local_government_name": "YAGBA EAST",
    "state_id": "22",
    "state_name": "KOGI",
    "location": {
      "latitude": 8.2880209,
      "longitude": 5.813755100000001,
      "viewport": {
        "northeast": {
          "lat": 8.289363279892722,
          "lng": 5.815121129892723
        },
        "southwest": {
          "lat": 8.286663620107278,
          "lng": 5.812421470107278
        }
      },
      "formatted_address": "7RQ7+6G2, A123, 262102, Isanlu Makutu, Nigeria",
      "google_map_url": "https://maps.google.com?q=8.2880209,5.813755100000001",
      "google_place_id": "ChIJUeavUfX5SBARC8ob83_5PJ4"
    }
  },
  {
    "id": "108868",
    "name": "IYE VILLAGE, OPEN SPACE IYE.",
    "registration_area_id": "5639",
    "precise_location": null,
    "abbreviation": "006",
    "units": "006",
    "delimitation": "22/20/10/006",
    "remark": "EXISTING PU",
    "ward_id": "5639",
    "ward_name": "ILAFIN/IDOFIN/ODO - OGBA",
    "local_government_id": "488",
    "local_government_name": "YAGBA EAST",
    "state_id": "22",
    "state_name": "KOGI",
    "location": null
  },
  {
    "id": "108869",
    "name": "IDOFIN II, IGBOE IDOFIN ISANLU OPEN SPACE",
    "registration_area_id": "5639",
    "precise_location": null,
    "abbreviation": "007",
    "units": "007",
    "delimitation": "22/20/10/007",
    "remark": "EXISTING PU",
    "ward_id": "5639",
    "ward_name": "ILAFIN/IDOFIN/ODO - OGBA",
    "local_government_id": "488",
    "local_government_name": "YAGBA EAST",
    "state_id": "22",
    "state_name": "KOGI",
    "location": {
      "latitude": 8.332402199999999,
      "longitude": 5.7932008,
      "viewport": {
        "northeast": {
          "lat": 8.4528512,
          "lng": 5.9449663
        },
        "southwest": {
          "lat": 8.1893265,
          "lng": 5.675069499999999
        }
      },
      "formatted_address": "Ilafin/Idofin/Odo-Ogba, 262102, Nigeria",
      "google_map_url": "https://maps.google.com?q=8.332402199999999,5.7932008",
      "google_place_id": "ChIJee6AtHz5SBARsG9nv8-Iai4"
    }
  },
  {
    "id": "108870",
    "name": "OKEDORI ILAFIN II YELGEA SCHOOL ILAFIN",
    "registration_area_id": "5639",
    "precise_location": null,
    "abbreviation": "008",
    "units": "008",
    "delimitation": "22/20/10/008",
    "remark": "EXISTING PU",
    "ward_id": "5639",
    "ward_name": "ILAFIN/IDOFIN/ODO - OGBA",
    "local_government_id": "488",
    "local_government_name": "YAGBA EAST",
    "state_id": "22",
    "state_name": "KOGI",
    "location": {
      "latitude": 8.342549,
      "longitude": 5.794534199999999,
      "viewport": {
        "northeast": {
          "lat": 8.343821779892723,
          "lng": 5.795877729892721
        },
        "southwest": {
          "lat": 8.34112212010728,
          "lng": 5.793178070107277
        }
      },
      "formatted_address": "8QVV+2R7, 262102, Odosin, Nigeria",
      "google_map_url": "https://maps.google.com?q=8.342549,5.794534199999999",
      "google_place_id": "ChIJYwi3wkf5SBARd3M8XKUXTN4"
    }
  },
  {
    "id": "108871",
    "name": "YELGEA SCHOOL IDOFIN",
    "registration_area_id": "5639",
    "precise_location": null,
    "abbreviation": "009",
    "units": "009",
    "delimitation": "22/20/10/009",
    "remark": "NEW PU",
    "ward_id": "5639",
    "ward_name": "ILAFIN/IDOFIN/ODO - OGBA",
    "local_government_id": "488",
    "local_government_name": "YAGBA EAST",
    "state_id": "22",
    "state_name": "KOGI",
    "location": {
      "latitude": 8.325735,
      "longitude": 5.795573,
      "viewport": {
        "northeast": {
          "lat": 8.327088879892722,
          "lng": 5.796807879892722
        },
        "southwest": {
          "lat": 8.324389220107278,
          "lng": 5.794108220107278
        }
      },
      "formatted_address": "8QGW+76W, 262102, Odosin, Nigeria",
      "google_map_url": "https://maps.google.com?q=8.325735,5.795573",
      "google_place_id": "ChIJVSali2z5SBARsg5BfYCqYQU"
    }
  }
]