[
  {
    "id": "45800",
    "name": "OBEAGU ABOFIA HALL",
    "registration_area_id": "2473",
    "precise_location": null,
    "abbreviation": "001",
    "units": "001",
    "delimitation": "11/04/02/001",
    "remark": "EXISTING PU",
    "ward_id": "2473",
    "ward_name": "ABOFIA",
    "local_government_id": "215",
    "local_government_name": "EBONYI",
    "state_id": "11",
    "state_name": "EBONYI",
    "location": {
      "latitude": 6.3281443,
      "longitude": 8.104180699999999,
      "viewport": {
        "northeast": {
          "lat": 6.329588579892722,
          "lng": 8.105531079892723
        },
        "southwest": {
          "lat": 6.326888920107278,
          "lng": 8.102831420107279
        }
      },
      "formatted_address": "1 Onwe Rd, Ntezi Abba 480108, Abakaliki, Nigeria",
      "google_map_url": "https://maps.google.com?q=6.3281443,8.104180699999999",
      "google_place_id": "ChIJUf_5LWmgXBARKBfJ1BxFVp8"
    }
  },
  {
    "id": "45801",
    "name": "NDIABO ABOFIA VILLAGE SQUARE",
    "registration_area_id": "2473",
    "precise_location": null,
    "abbreviation": "002",
    "units": "002",
    "delimitation": "11/04/02/002",
    "remark": "EXISTING PU",
    "ward_id": "2473",
    "ward_name": "ABOFIA",
    "local_government_id": "215",
    "local_government_name": "EBONYI",
    "state_id": "11",
    "state_name": "EBONYI",
    "location": {
      "latitude": 6.375270599999999,
      "longitude": 8.1447804,
      "viewport": {
        "northeast": {
          "lat": 6.411523,
          "lng": 8.1709738
        },
        "southwest": {
          "lat": 6.333000999999999,
          "lng": 8.0772431
        }
      },
      "formatted_address": "Abofia, Nigeria",
      "google_map_url": "https://maps.google.com?q=6.375270599999999,8.1447804",
      "google_place_id": "ChIJpU_XPNtfWxARzV29TU96WI4"
    }
  },
  {
    "id": "45802",
    "name": "AGHAMEHU VILLAGE SQUARE",
    "registration_area_id": "2473",
    "precise_location": null,
    "abbreviation": "003",
    "units": "003",
    "delimitation": "11/04/02/003",
    "remark": "EXISTING PU",
    "ward_id": "2473",
    "ward_name": "ABOFIA",
    "local_government_id": "215",
    "local_government_name": "EBONYI",
    "state_id": "11",
    "state_name": "EBONYI",
    "location": {
      "latitude": 6.375270599999999,
      "longitude": 8.1447804,
      "viewport": {
        "northeast": {
          "lat": 6.411523,
          "lng": 8.1709738
        },
        "southwest": {
          "lat": 6.333000999999999,
          "lng": 8.0772431
        }
      },
      "formatted_address": "Abofia, Nigeria",
      "google_map_url": "https://maps.google.com?q=6.375270599999999,8.1447804",
      "google_place_id": "ChIJpU_XPNtfWxARzV29TU96WI4"
    }
  },
  {
    "id": "45803",
    "name": "OKWUINYIONU PLAY GROUND",
    "registration_area_id": "2473",
    "precise_location": null,
    "abbreviation": "004",
    "units": "004",
    "delimitation": "11/04/02/004",
    "remark": "EXISTING PU",
    "ward_id": "2473",
    "ward_name": "ABOFIA",
    "local_government_id": "215",
    "local_government_name": "EBONYI",
    "state_id": "11",
    "state_name": "EBONYI",
    "location": {
      "latitude": 5.8312737,
      "longitude": 7.928234700000001,
      "viewport": {
        "northeast": {
          "lat": 5.832623029892722,
          "lng": 7.929589129892722
        },
        "southwest": {
          "lat": 5.829923370107278,
          "lng": 7.926889470107279
        }
      },
      "formatted_address": "RWJH+G75, 490101, Amoncha, Nigeria",
      "google_map_url": "https://maps.google.com?q=5.8312737,7.928234700000001",
      "google_place_id": "ChIJPXNLwTrQXBARpH8qlQsMRRY"
    }
  },
  {
    "id": "45804",
    "name": "OGBOJI ABOFIA AGE GRADE HALL",
    "registration_area_id": "2473",
    "precise_location": null,
    "abbreviation": "005",
    "units": "005",
    "delimitation": "11/04/02/005",
    "remark": "EXISTING PU",
    "ward_id": "2473",
    "ward_name": "ABOFIA",
    "local_government_id": "215",
    "local_government_name": "EBONYI",
    "state_id": "11",
    "state_name": "EBONYI",
    "location": {
      "latitude": 6.3281443,
      "longitude": 8.104180699999999,
      "viewport": {
        "northeast": {
          "lat": 6.329588579892722,
          "lng": 8.105531079892723
        },
        "southwest": {
          "lat": 6.326888920107278,
          "lng": 8.102831420107279
        }
      },
      "formatted_address": "1 Onwe Rd, Ntezi Abba 480108, Abakaliki, Nigeria",
      "google_map_url": "https://maps.google.com?q=6.3281443,8.104180699999999",
      "google_place_id": "ChIJUf_5LWmgXBARKBfJ1BxFVp8"
    }
  },
  {
    "id": "45805",
    "name": "EDUKWU ABOFIA AGE GRADE HALL",
    "registration_area_id": "2473",
    "precise_location": null,
    "abbreviation": "006",
    "units": "006",
    "delimitation": "11/04/02/006",
    "remark": "EXISTING PU",
    "ward_id": "2473",
    "ward_name": "ABOFIA",
    "local_government_id": "215",
    "local_government_name": "EBONYI",
    "state_id": "11",
    "state_name": "EBONYI",
    "location": {
      "latitude": 6.323059199999999,
      "longitude": 8.1120597,
      "viewport": {
        "northeast": {
          "lat": 6.324397629892721,
          "lng": 8.113394329892722
        },
        "southwest": {
          "lat": 6.321697970107278,
          "lng": 8.110694670107279
        }
      },
      "formatted_address": "OPPOSITE STADIUM, Azuiyi Udene 000732, Abakaliki, Nigeria",
      "google_map_url": "https://maps.google.com?q=6.323059199999999,8.1120597",
      "google_place_id": "ChIJXa8kvNChXBARSCdNlL46eeo"
    }
  },
  {
    "id": "45806",
    "name": "OROKE ONUOHA PLAY GROUND",
    "registration_area_id": "2473",
    "precise_location": null,
    "abbreviation": "007",
    "units": "007",
    "delimitation": "11/04/02/007",
    "remark": "EXISTING PU",
    "ward_id": "2473",
    "ward_name": "ABOFIA",
    "local_government_id": "215",
    "local_government_name": "EBONYI",
    "state_id": "11",
    "state_name": "EBONYI",
    "location": {
      "latitude": 6.357295799999999,
      "longitude": 8.090058299999999,
      "viewport": {
        "northeast": {
          "lat": 6.358689329892721,
          "lng": 8.091517479892724
        },
        "southwest": {
          "lat": 6.355989670107277,
          "lng": 8.08881782010728
        }
      },
      "formatted_address": "Oroke Onuoha Primary School, Kpiri Kpiri 482112, Abakaliki, Nigeria",
      "google_map_url": "https://maps.google.com?q=6.357295799999999,8.090058299999999",
      "google_place_id": "ChIJ_fUnuYBfWxAROj6dXCcQ2F0"
    }
  },
  {
    "id": "45807",
    "name": "UNITY PRIM. SCHOOL OGEGU-ABA",
    "registration_area_id": "2473",
    "precise_location": null,
    "abbreviation": "008",
    "units": "008",
    "delimitation": "11/04/02/008",
    "remark": "NEW PU",
    "ward_id": "2473",
    "ward_name": "ABOFIA",
    "local_government_id": "215",
    "local_government_name": "EBONYI",
    "state_id": "11",
    "state_name": "EBONYI",
    "location": {
      "latitude": 6.3498196,
      "longitude": 8.061302,
      "viewport": {
        "northeast": {
          "lat": 6.351156779892722,
          "lng": 8.062664979892721
        },
        "southwest": {
          "lat": 6.348457120107278,
          "lng": 8.059965320107278
        }
      },
      "formatted_address": "83X6+WGF, 482118, Abakaliki, Nigeria",
      "google_map_url": "https://maps.google.com?q=6.3498196,8.061302",
      "google_place_id": "ChIJi23a-ZNfWxARoAaTvolAPN4"
    }
  },
  {
    "id": "45808",
    "name": "EGUAGUBAM NDEBOR",
    "registration_area_id": "2473",
    "precise_location": null,
    "abbreviation": "009",
    "units": "009",
    "delimitation": "11/04/02/009",
    "remark": "NEW PU",
    "ward_id": "2473",
    "ward_name": "ABOFIA",
    "local_government_id": "215",
    "local_government_name": "EBONYI",
    "state_id": "11",
    "state_name": "EBONYI",
    "location": {
      "latitude": 6.3281443,
      "longitude": 8.104180699999999,
      "viewport": {
        "northeast": {
          "lat": 6.329588579892722,
          "lng": 8.105531079892723
        },
        "southwest": {
          "lat": 6.326888920107278,
          "lng": 8.102831420107279
        }
      },
      "formatted_address": "1 Onwe Rd, Ntezi Abba 480108, Abakaliki, Nigeria",
      "google_map_url": "https://maps.google.com?q=6.3281443,8.104180699999999",
      "google_place_id": "ChIJUf_5LWmgXBARKBfJ1BxFVp8"
    }
  },
  {
    "id": "45809",
    "name": "AGHAMELU PRIMARY SCHOOL",
    "registration_area_id": "2473",
    "precise_location": null,
    "abbreviation": "010",
    "units": "010",
    "delimitation": "11/04/02/010",
    "remark": "NEW PU",
    "ward_id": "2473",
    "ward_name": "ABOFIA",
    "local_government_id": "215",
    "local_government_name": "EBONYI",
    "state_id": "11",
    "state_name": "EBONYI",
    "location": {
      "latitude": 6.3309358,
      "longitude": 8.12003,
      "viewport": {
        "northeast": {
          "lat": 6.332280129892722,
          "lng": 8.121369429892722
        },
        "southwest": {
          "lat": 6.329580470107278,
          "lng": 8.118669770107278
        }
      },
      "formatted_address": "84JC+928, Ozugulu Street, Azuiyi Udene 480105, Abakaliki, Nigeria",
      "google_map_url": "https://maps.google.com?q=6.3309358,8.12003",
      "google_place_id": "ChIJFwCyqhGgXBAR9XHYY_2umOY"
    }
  },
  {
    "id": "45810",
    "name": "NWOVUDU VILLAGE SQUARE",
    "registration_area_id": "2473",
    "precise_location": null,
    "abbreviation": "011",
    "units": "011",
    "delimitation": "11/04/02/011",
    "remark": "NEW PU",
    "ward_id": "2473",
    "ward_name": "ABOFIA",
    "local_government_id": "215",
    "local_government_name": "EBONYI",
    "state_id": "11",
    "state_name": "EBONYI",
    "location": {
      "latitude": 6.375270599999999,
      "longitude": 8.1447804,
      "viewport": {
        "northeast": {
          "lat": 6.411523,
          "lng": 8.1709738
        },
        "southwest": {
          "lat": 6.333000999999999,
          "lng": 8.0772431
        }
      },
      "formatted_address": "Abofia, Nigeria",
      "google_map_url": "https://maps.google.com?q=6.375270599999999,8.1447804",
      "google_place_id": "ChIJpU_XPNtfWxARzV29TU96WI4"
    }
  },
  {
    "id": "45811",
    "name": "AKANWU PLAY GROUND",
    "registration_area_id": "2473",
    "precise_location": null,
    "abbreviation": "012",
    "units": "012",
    "delimitation": "11/04/02/012",
    "remark": "NEW PU",
    "ward_id": "2473",
    "ward_name": "ABOFIA",
    "local_government_id": "215",
    "local_government_name": "EBONYI",
    "state_id": "11",
    "state_name": "EBONYI",
    "location": {
      "latitude": 6.1138186,
      "longitude": 8.2287695,
      "viewport": {
        "northeast": {
          "lat": 6.115173629892722,
          "lng": 8.23010497989272
        },
        "southwest": {
          "lat": 6.112473970107278,
          "lng": 8.227405320107277
        }
      },
      "formatted_address": "467H+GGC, 482133, Akahufu, Nigeria",
      "google_map_url": "https://maps.google.com?q=6.1138186,8.2287695",
      "google_place_id": "ChIJGTiw8DaRXBAR_8lRvumbXdI"
    }
  },
  {
    "id": "45812",
    "name": "AFIA UGBA PLAY GROUND",
    "registration_area_id": "2473",
    "precise_location": null,
    "abbreviation": "013",
    "units": "013",
    "delimitation": "11/04/02/013",
    "remark": "NEW PU",
    "ward_id": "2473",
    "ward_name": "ABOFIA",
    "local_government_id": "215",
    "local_government_name": "EBONYI",
    "state_id": "11",
    "state_name": "EBONYI",
    "location": {
      "latitude": 5.8312737,
      "longitude": 7.928234700000001,
      "viewport": {
        "northeast": {
          "lat": 5.832623029892722,
          "lng": 7.929589129892722
        },
        "southwest": {
          "lat": 5.829923370107278,
          "lng": 7.926889470107279
        }
      },
      "formatted_address": "RWJH+G75, 490101, Amoncha, Nigeria",
      "google_map_url": "https://maps.google.com?q=5.8312737,7.928234700000001",
      "google_place_id": "ChIJPXNLwTrQXBARpH8qlQsMRRY"
    }
  },
  {
    "id": "45813",
    "name": "EDUKWU IGWU PLAY GROUND",
    "registration_area_id": "2473",
    "precise_location": null,
    "abbreviation": "014",
    "units": "014",
    "delimitation": "11/04/02/014",
    "remark": "NEW PU",
    "ward_id": "2473",
    "ward_name": "ABOFIA",
    "local_government_id": "215",
    "local_government_name": "EBONYI",
    "state_id": "11",
    "state_name": "EBONYI",
    "location": {
      "latitude": 6.1138186,
      "longitude": 8.2287695,
      "viewport": {
        "northeast": {
          "lat": 6.115173629892722,
          "lng": 8.23010497989272
        },
        "southwest": {
          "lat": 6.112473970107278,
          "lng": 8.227405320107277
        }
      },
      "formatted_address": "467H+GGC, 482133, Akahufu, Nigeria",
      "google_map_url": "https://maps.google.com?q=6.1138186,8.2287695",
      "google_place_id": "ChIJGTiw8DaRXBAR_8lRvumbXdI"
    }
  }
]