[
  {
    "id": "340358",
    "name": "C.M.S  IPATE I",
    "registration_area_id": "17294",
    "precise_location": null,
    "abbreviation": "001",
    "units": "001",
    "delimitation": "27/03/01/001",
    "remark": "EXISTING PU",
    "ward_id": "17294",
    "ward_name": "OTA  I",
    "local_government_id": "564",
    "local_government_name": "ADO ODO-OTA",
    "state_id": "27",
    "state_name": "OGUN",
    "location": {
      "latitude": 6.692744599999999,
      "longitude": 3.2364854,
      "viewport": {
        "northeast": {
          "lat": 6.694048579892721,
          "lng": 3.237817029892722
        },
        "southwest": {
          "lat": 6.691348920107277,
          "lng": 3.235117370107278
        }
      },
      "formatted_address": "M6VP+3HX, 112104, Ota, Nigeria",
      "google_map_url": "https://maps.google.com?q=6.692744599999999,3.2364854",
      "google_place_id": "ChIJv5xbcFGZOxARWuOjXm9A83I"
    }
  },
  {
    "id": "340359",
    "name": "C.M.S  IPATE II",
    "registration_area_id": "17294",
    "precise_location": null,
    "abbreviation": "002",
    "units": "002",
    "delimitation": "27/03/01/002",
    "remark": "EXISTING PU",
    "ward_id": "17294",
    "ward_name": "OTA  I",
    "local_government_id": "564",
    "local_government_name": "ADO ODO-OTA",
    "state_id": "27",
    "state_name": "OGUN",
    "location": {
      "latitude": 6.692744599999999,
      "longitude": 3.2364854,
      "viewport": {
        "northeast": {
          "lat": 6.694048579892721,
          "lng": 3.237817029892722
        },
        "southwest": {
          "lat": 6.691348920107277,
          "lng": 3.235117370107278
        }
      },
      "formatted_address": "M6VP+3HX, 112104, Ota, Nigeria",
      "google_map_url": "https://maps.google.com?q=6.692744599999999,3.2364854",
      "google_place_id": "ChIJv5xbcFGZOxARWuOjXm9A83I"
    }
  },
  {
    "id": "340360",
    "name": "IYEDI - TITUN",
    "registration_area_id": "17294",
    "precise_location": null,
    "abbreviation": "003",
    "units": "003",
    "delimitation": "27/03/01/003",
    "remark": "EXISTING PU",
    "ward_id": "17294",
    "ward_name": "OTA  I",
    "local_government_id": "564",
    "local_government_name": "ADO ODO-OTA",
    "state_id": "27",
    "state_name": "OGUN",
    "location": {
      "latitude": 6.683156599999999,
      "longitude": 3.2355293,
      "viewport": {
        "northeast": {
          "lat": 6.68449852989272,
          "lng": 3.236880829892722
        },
        "southwest": {
          "lat": 6.681798870107277,
          "lng": 3.234181170107278
        }
      },
      "formatted_address": "M6MP+766, Ositelu Street, 112104, Ota, Nigeria",
      "google_map_url": "https://maps.google.com?q=6.683156599999999,3.2355293",
      "google_place_id": "ChIJH6wQioiZOxARqNY002KHlYo"
    }
  },
  {
    "id": "340361",
    "name": "ITA ODO-OSI MOSQUE",
    "registration_area_id": "17294",
    "precise_location": null,
    "abbreviation": "004",
    "units": "004",
    "delimitation": "27/03/01/004",
    "remark": "EXISTING PU",
    "ward_id": "17294",
    "ward_name": "OTA  I",
    "local_government_id": "564",
    "local_government_name": "ADO ODO-OTA",
    "state_id": "27",
    "state_name": "OGUN",
    "location": {
      "latitude": 6.685063599999999,
      "longitude": 3.2297953,
      "viewport": {
        "northeast": {
          "lat": 6.686383179892722,
          "lng": 3.231137529892722
        },
        "southwest": {
          "lat": 6.683683520107278,
          "lng": 3.228437870107277
        }
      },
      "formatted_address": "M6MH+XVQ, 112104, Ota, Nigeria",
      "google_map_url": "https://maps.google.com?q=6.685063599999999,3.2297953",
      "google_place_id": "ChIJsQJRmbqZOxARN2JrI1wbFiA"
    }
  },
  {
    "id": "340362",
    "name": "MABODU SQUARE",
    "registration_area_id": "17294",
    "precise_location": null,
    "abbreviation": "005",
    "units": "005",
    "delimitation": "27/03/01/005",
    "remark": "EXISTING PU",
    "ward_id": "17294",
    "ward_name": "OTA  I",
    "local_government_id": "564",
    "local_government_name": "ADO ODO-OTA",
    "state_id": "27",
    "state_name": "OGUN",
    "location": {
      "latitude": 6.692744599999999,
      "longitude": 3.2364854,
      "viewport": {
        "northeast": {
          "lat": 6.694048579892721,
          "lng": 3.237817029892722
        },
        "southwest": {
          "lat": 6.691348920107277,
          "lng": 3.235117370107278
        }
      },
      "formatted_address": "M6VP+3HX, 112104, Ota, Nigeria",
      "google_map_url": "https://maps.google.com?q=6.692744599999999,3.2364854",
      "google_place_id": "ChIJv5xbcFGZOxARWuOjXm9A83I"
    }
  },
  {
    "id": "340363",
    "name": "FRONT OF OMOAYO",
    "registration_area_id": "17294",
    "precise_location": null,
    "abbreviation": "006",
    "units": "006",
    "delimitation": "27/03/01/006",
    "remark": "EXISTING PU",
    "ward_id": "17294",
    "ward_name": "OTA  I",
    "local_government_id": "564",
    "local_government_name": "ADO ODO-OTA",
    "state_id": "27",
    "state_name": "OGUN",
    "location": {
      "latitude": 6.683156599999999,
      "longitude": 3.2355293,
      "viewport": {
        "northeast": {
          "lat": 6.68449852989272,
          "lng": 3.236880829892722
        },
        "southwest": {
          "lat": 6.681798870107277,
          "lng": 3.234181170107278
        }
      },
      "formatted_address": "M6MP+766, Ositelu Street, 112104, Ota, Nigeria",
      "google_map_url": "https://maps.google.com?q=6.683156599999999,3.2355293",
      "google_place_id": "ChIJH6wQioiZOxARqNY002KHlYo"
    }
  },
  {
    "id": "340364",
    "name": "OLOTA'S PALACE I",
    "registration_area_id": "17294",
    "precise_location": null,
    "abbreviation": "007",
    "units": "007",
    "delimitation": "27/03/01/007",
    "remark": "EXISTING PU",
    "ward_id": "17294",
    "ward_name": "OTA  I",
    "local_government_id": "564",
    "local_government_name": "ADO ODO-OTA",
    "state_id": "27",
    "state_name": "OGUN",
    "location": {
      "latitude": 6.686569800000001,
      "longitude": 3.2337644,
      "viewport": {
        "northeast": {
          "lat": 6.687984579892723,
          "lng": 3.235113379892722
        },
        "southwest": {
          "lat": 6.685284920107279,
          "lng": 3.232413720107278
        }
      },
      "formatted_address": "Iyeti Square, 112101, Ota, Nigeria",
      "google_map_url": "https://maps.google.com?q=6.686569800000001,3.2337644",
      "google_place_id": "ChIJo4g3SLeZOxARY7My9MGdDfk"
    }
  },
  {
    "id": "340365",
    "name": "OLOTA'S PALACE II",
    "registration_area_id": "17294",
    "precise_location": null,
    "abbreviation": "008",
    "units": "008",
    "delimitation": "27/03/01/008",
    "remark": "EXISTING PU",
    "ward_id": "17294",
    "ward_name": "OTA  I",
    "local_government_id": "564",
    "local_government_name": "ADO ODO-OTA",
    "state_id": "27",
    "state_name": "OGUN",
    "location": {
      "latitude": 6.686569800000001,
      "longitude": 3.2337644,
      "viewport": {
        "northeast": {
          "lat": 6.687984579892723,
          "lng": 3.235113379892722
        },
        "southwest": {
          "lat": 6.685284920107279,
          "lng": 3.232413720107278
        }
      },
      "formatted_address": "Iyeti Square, 112101, Ota, Nigeria",
      "google_map_url": "https://maps.google.com?q=6.686569800000001,3.2337644",
      "google_place_id": "ChIJo4g3SLeZOxARY7My9MGdDfk"
    }
  },
  {
    "id": "340366",
    "name": "TIGBO SQUARE",
    "registration_area_id": "17294",
    "precise_location": null,
    "abbreviation": "009",
    "units": "009",
    "delimitation": "27/03/01/009",
    "remark": "EXISTING PU",
    "ward_id": "17294",
    "ward_name": "OTA  I",
    "local_government_id": "564",
    "local_government_name": "ADO ODO-OTA",
    "state_id": "27",
    "state_name": "OGUN",
    "location": {
      "latitude": 6.683156599999999,
      "longitude": 3.2355293,
      "viewport": {
        "northeast": {
          "lat": 6.68449852989272,
          "lng": 3.236880829892722
        },
        "southwest": {
          "lat": 6.681798870107277,
          "lng": 3.234181170107278
        }
      },
      "formatted_address": "M6MP+766, Ositelu Street, 112104, Ota, Nigeria",
      "google_map_url": "https://maps.google.com?q=6.683156599999999,3.2355293",
      "google_place_id": "ChIJH6wQioiZOxARqNY002KHlYo"
    }
  },
  {
    "id": "340367",
    "name": "NEAR AHMADIYA MOSQUE",
    "registration_area_id": "17294",
    "precise_location": null,
    "abbreviation": "010",
    "units": "010",
    "delimitation": "27/03/01/010",
    "remark": "EXISTING PU",
    "ward_id": "17294",
    "ward_name": "OTA  I",
    "local_government_id": "564",
    "local_government_name": "ADO ODO-OTA",
    "state_id": "27",
    "state_name": "OGUN",
    "location": {
      "latitude": 6.685063599999999,
      "longitude": 3.2297953,
      "viewport": {
        "northeast": {
          "lat": 6.686383179892722,
          "lng": 3.231137529892722
        },
        "southwest": {
          "lat": 6.683683520107278,
          "lng": 3.228437870107277
        }
      },
      "formatted_address": "M6MH+XVQ, 112104, Ota, Nigeria",
      "google_map_url": "https://maps.google.com?q=6.685063599999999,3.2297953",
      "google_place_id": "ChIJsQJRmbqZOxARN2JrI1wbFiA"
    }
  },
  {
    "id": "340368",
    "name": "OKEDE SQUARE",
    "registration_area_id": "17294",
    "precise_location": null,
    "abbreviation": "011",
    "units": "011",
    "delimitation": "27/03/01/011",
    "remark": "EXISTING PU",
    "ward_id": "17294",
    "ward_name": "OTA  I",
    "local_government_id": "564",
    "local_government_name": "ADO ODO-OTA",
    "state_id": "27",
    "state_name": "OGUN",
    "location": {
      "latitude": 6.683156599999999,
      "longitude": 3.2355293,
      "viewport": {
        "northeast": {
          "lat": 6.68449852989272,
          "lng": 3.236880829892722
        },
        "southwest": {
          "lat": 6.681798870107277,
          "lng": 3.234181170107278
        }
      },
      "formatted_address": "M6MP+766, Ositelu Street, 112104, Ota, Nigeria",
      "google_map_url": "https://maps.google.com?q=6.683156599999999,3.2355293",
      "google_place_id": "ChIJH6wQioiZOxARqNY002KHlYo"
    }
  },
  {
    "id": "340369",
    "name": "DOSUNMU'S HOUSE",
    "registration_area_id": "17294",
    "precise_location": null,
    "abbreviation": "012",
    "units": "012",
    "delimitation": "27/03/01/012",
    "remark": "EXISTING PU",
    "ward_id": "17294",
    "ward_name": "OTA  I",
    "local_government_id": "564",
    "local_government_name": "ADO ODO-OTA",
    "state_id": "27",
    "state_name": "OGUN",
    "location": {
      "latitude": 6.692744599999999,
      "longitude": 3.2364854,
      "viewport": {
        "northeast": {
          "lat": 6.694048579892721,
          "lng": 3.237817029892722
        },
        "southwest": {
          "lat": 6.691348920107277,
          "lng": 3.235117370107278
        }
      },
      "formatted_address": "M6VP+3HX, 112104, Ota, Nigeria",
      "google_map_url": "https://maps.google.com?q=6.692744599999999,3.2364854",
      "google_place_id": "ChIJv5xbcFGZOxARWuOjXm9A83I"
    }
  },
  {
    "id": "340370",
    "name": "ITA OTUN IJAGBA",
    "registration_area_id": "17294",
    "precise_location": null,
    "abbreviation": "013",
    "units": "013",
    "delimitation": "27/03/01/013",
    "remark": "EXISTING PU",
    "ward_id": "17294",
    "ward_name": "OTA  I",
    "local_government_id": "564",
    "local_government_name": "ADO ODO-OTA",
    "state_id": "27",
    "state_name": "OGUN",
    "location": {
      "latitude": 6.6081167,
      "longitude": 3.1949241,
      "viewport": {
        "northeast": {
          "lat": 6.609460329892721,
          "lng": 3.196295429892722
        },
        "southwest": {
          "lat": 6.606760670107278,
          "lng": 3.193595770107278
        }
      },
      "formatted_address": "Obafemi Awolowo Way, Ogun 112104, Okesuna, Nigeria",
      "google_map_url": "https://maps.google.com?q=6.6081167,3.1949241",
      "google_place_id": "ChIJRWMLnu2ZOxARg7_8YU_HSd4"
    }
  },
  {
    "id": "340371",
    "name": "ABEBI",
    "registration_area_id": "17294",
    "precise_location": null,
    "abbreviation": "014",
    "units": "014",
    "delimitation": "27/03/01/014",
    "remark": "EXISTING PU",
    "ward_id": "17294",
    "ward_name": "OTA  I",
    "local_government_id": "564",
    "local_government_name": "ADO ODO-OTA",
    "state_id": "27",
    "state_name": "OGUN",
    "location": {
      "latitude": 6.6837259,
      "longitude": 3.2335888,
      "viewport": {
        "northeast": {
          "lat": 6.685075729892722,
          "lng": 3.234938629892723
        },
        "southwest": {
          "lat": 6.682376070107278,
          "lng": 3.232238970107278
        }
      },
      "formatted_address": "Abebi Street, 112104, Ota, Nigeria",
      "google_map_url": "https://maps.google.com?q=6.6837259,3.2335888",
      "google_place_id": "ChIJV43giLmZOxARJVIEqCNnYcM"
    }
  },
  {
    "id": "340372",
    "name": "MAPA QUARTERS",
    "registration_area_id": "17294",
    "precise_location": null,
    "abbreviation": "015",
    "units": "015",
    "delimitation": "27/03/01/015",
    "remark": "EXISTING PU",
    "ward_id": "17294",
    "ward_name": "OTA  I",
    "local_government_id": "564",
    "local_government_name": "ADO ODO-OTA",
    "state_id": "27",
    "state_name": "OGUN",
    "location": {
      "latitude": 6.669314,
      "longitude": 3.2332244,
      "viewport": {
        "northeast": {
          "lat": 6.6895983,
          "lng": 3.2547635
        },
        "southwest": {
          "lat": 6.641764299999999,
          "lng": 3.2247278
        }
      },
      "formatted_address": "Ota I, Agege, Nigeria",
      "google_map_url": "https://maps.google.com?q=6.669314,3.2332244",
      "google_place_id": "ChIJl-W_Fu2ZOxARmqjHpillWDU"
    }
  },
  {
    "id": "340373",
    "name": "FRONT OF OJO'S HOUSE",
    "registration_area_id": "17294",
    "precise_location": null,
    "abbreviation": "016",
    "units": "016",
    "delimitation": "27/03/01/016",
    "remark": "EXISTING PU",
    "ward_id": "17294",
    "ward_name": "OTA  I",
    "local_government_id": "564",
    "local_government_name": "ADO ODO-OTA",
    "state_id": "27",
    "state_name": "OGUN",
    "location": {
      "latitude": 6.6081167,
      "longitude": 3.1949241,
      "viewport": {
        "northeast": {
          "lat": 6.609460329892721,
          "lng": 3.196295429892722
        },
        "southwest": {
          "lat": 6.606760670107278,
          "lng": 3.193595770107278
        }
      },
      "formatted_address": "Obafemi Awolowo Way, Ogun 112104, Okesuna, Nigeria",
      "google_map_url": "https://maps.google.com?q=6.6081167,3.1949241",
      "google_place_id": "ChIJRWMLnu2ZOxARg7_8YU_HSd4"
    }
  },
  {
    "id": "340374",
    "name": "FRONT OF LAWAL'S HOUSE",
    "registration_area_id": "17294",
    "precise_location": null,
    "abbreviation": "017",
    "units": "017",
    "delimitation": "27/03/01/017",
    "remark": "EXISTING PU",
    "ward_id": "17294",
    "ward_name": "OTA  I",
    "local_government_id": "564",
    "local_government_name": "ADO ODO-OTA",
    "state_id": "27",
    "state_name": "OGUN",
    "location": {
      "latitude": 6.6081167,
      "longitude": 3.1949241,
      "viewport": {
        "northeast": {
          "lat": 6.609460329892721,
          "lng": 3.196295429892722
        },
        "southwest": {
          "lat": 6.606760670107278,
          "lng": 3.193595770107278
        }
      },
      "formatted_address": "Obafemi Awolowo Way, Ogun 112104, Okesuna, Nigeria",
      "google_map_url": "https://maps.google.com?q=6.6081167,3.1949241",
      "google_place_id": "ChIJRWMLnu2ZOxARg7_8YU_HSd4"
    }
  },
  {
    "id": "340375",
    "name": "FRONT OF LOCAL GOVERNMENT QTRS",
    "registration_area_id": "17294",
    "precise_location": null,
    "abbreviation": "018",
    "units": "018",
    "delimitation": "27/03/01/018",
    "remark": "EXISTING PU",
    "ward_id": "17294",
    "ward_name": "OTA  I",
    "local_government_id": "564",
    "local_government_name": "ADO ODO-OTA",
    "state_id": "27",
    "state_name": "OGUN",
    "location": {
      "latitude": 6.692744599999999,
      "longitude": 3.2364854,
      "viewport": {
        "northeast": {
          "lat": 6.694048579892721,
          "lng": 3.237817029892722
        },
        "southwest": {
          "lat": 6.691348920107277,
          "lng": 3.235117370107278
        }
      },
      "formatted_address": "M6VP+3HX, 112104, Ota, Nigeria",
      "google_map_url": "https://maps.google.com?q=6.692744599999999,3.2364854",
      "google_place_id": "ChIJv5xbcFGZOxARWuOjXm9A83I"
    }
  },
  {
    "id": "340376",
    "name": "OPEN SPACE AT WAO JUNCTION",
    "registration_area_id": "17294",
    "precise_location": null,
    "abbreviation": "019",
    "units": "019",
    "delimitation": "27/03/01/019",
    "remark": "NEW PU",
    "ward_id": "17294",
    "ward_name": "OTA  I",
    "local_government_id": "564",
    "local_government_name": "ADO ODO-OTA",
    "state_id": "27",
    "state_name": "OGUN",
    "location": {
      "latitude": 6.692744599999999,
      "longitude": 3.2364854,
      "viewport": {
        "northeast": {
          "lat": 6.694048579892721,
          "lng": 3.237817029892722
        },
        "southwest": {
          "lat": 6.691348920107277,
          "lng": 3.235117370107278
        }
      },
      "formatted_address": "M6VP+3HX, 112104, Ota, Nigeria",
      "google_map_url": "https://maps.google.com?q=6.692744599999999,3.2364854",
      "google_place_id": "ChIJv5xbcFGZOxARWuOjXm9A83I"
    }
  },
  {
    "id": "340377",
    "name": "OPEN SPACE AT OLORUNSOGO",
    "registration_area_id": "17294",
    "precise_location": null,
    "abbreviation": "020",
    "units": "020",
    "delimitation": "27/03/01/020",
    "remark": "NEW PU",
    "ward_id": "17294",
    "ward_name": "OTA  I",
    "local_government_id": "564",
    "local_government_name": "ADO ODO-OTA",
    "state_id": "27",
    "state_name": "OGUN",
    "location": null
  },
  {
    "id": "340378",
    "name": "ILUPEJU OLOSUN TOWN HALL",
    "registration_area_id": "17294",
    "precise_location": null,
    "abbreviation": "021",
    "units": "021",
    "delimitation": "27/03/01/021",
    "remark": "NEW PU",
    "ward_id": "17294",
    "ward_name": "OTA  I",
    "local_government_id": "564",
    "local_government_name": "ADO ODO-OTA",
    "state_id": "27",
    "state_name": "OGUN",
    "location": {
      "latitude": 6.692744599999999,
      "longitude": 3.2364854,
      "viewport": {
        "northeast": {
          "lat": 6.694048579892721,
          "lng": 3.237817029892722
        },
        "southwest": {
          "lat": 6.691348920107277,
          "lng": 3.235117370107278
        }
      },
      "formatted_address": "M6VP+3HX, 112104, Ota, Nigeria",
      "google_map_url": "https://maps.google.com?q=6.692744599999999,3.2364854",
      "google_place_id": "ChIJv5xbcFGZOxARWuOjXm9A83I"
    }
  },
  {
    "id": "340379",
    "name": "BESIDE TRANSFORMER, AYETUNTUN",
    "registration_area_id": "17294",
    "precise_location": null,
    "abbreviation": "022",
    "units": "022",
    "delimitation": "27/03/01/022",
    "remark": "NEW PU",
    "ward_id": "17294",
    "ward_name": "OTA  I",
    "local_government_id": "564",
    "local_government_name": "ADO ODO-OTA",
    "state_id": "27",
    "state_name": "OGUN",
    "location": {
      "latitude": 6.6753977,
      "longitude": 3.2255895,
      "viewport": {
        "northeast": {
          "lat": 6.676726679892721,
          "lng": 3.226963079892722
        },
        "southwest": {
          "lat": 6.674027020107277,
          "lng": 3.224263420107278
        }
      },
      "formatted_address": "M6GG+564, Aiyetoro-budo, via, Itele Rd, Ota, Nigeria",
      "google_map_url": "https://maps.google.com?q=6.6753977,3.2255895",
      "google_place_id": "ChIJJc-rgr6ZOxARO6J1iZ2JlnU"
    }
  },
  {
    "id": "340380",
    "name": "OPEN SPACE AT IDI AGBALUMO JUNCTION",
    "registration_area_id": "17294",
    "precise_location": null,
    "abbreviation": "023",
    "units": "023",
    "delimitation": "27/03/01/023",
    "remark": "NEW PU",
    "ward_id": "17294",
    "ward_name": "OTA  I",
    "local_government_id": "564",
    "local_government_name": "ADO ODO-OTA",
    "state_id": "27",
    "state_name": "OGUN",
    "location": {
      "latitude": 6.683953499999999,
      "longitude": 3.2145752,
      "viewport": {
        "northeast": {
          "lat": 6.685363329892721,
          "lng": 3.215902529892722
        },
        "southwest": {
          "lat": 6.682663670107277,
          "lng": 3.213202870107278
        }
      },
      "formatted_address": "Fellowship busstop, the ambassadors college junction, Off Idiroko Rd, 112102, Ota, Nigeria",
      "google_map_url": "https://maps.google.com?q=6.683953499999999,3.2145752",
      "google_place_id": "ChIJI_DJsoSZOxARGyyOWhhAZMU"
    }
  },
  {
    "id": "340381",
    "name": "BESIDE TRANSFORMER AKEJA ROAD",
    "registration_area_id": "17294",
    "precise_location": null,
    "abbreviation": "024",
    "units": "024",
    "delimitation": "27/03/01/024",
    "remark": "NEW PU",
    "ward_id": "17294",
    "ward_name": "OTA  I",
    "local_government_id": "564",
    "local_government_name": "ADO ODO-OTA",
    "state_id": "27",
    "state_name": "OGUN",
    "location": {
      "latitude": 6.678488199999999,
      "longitude": 3.2379899,
      "viewport": {
        "northeast": {
          "lat": 6.679837679892722,
          "lng": 3.239338229892722
        },
        "southwest": {
          "lat": 6.677138020107278,
          "lng": 3.236638570107278
        }
      },
      "formatted_address": "M6HQ+95J, Oluwatedo District centre, beside odo-eran ota, Ikola Road, Ota, Nigeria",
      "google_map_url": "https://maps.google.com?q=6.678488199999999,3.2379899",
      "google_place_id": "ChIJZfgoZ7-ZOxARaW-XWsGF3MI"
    }
  },
  {
    "id": "340382",
    "name": "OPEN SPACE AT IBI ORI DANISI JUNCTION",
    "registration_area_id": "17294",
    "precise_location": null,
    "abbreviation": "025",
    "units": "025",
    "delimitation": "27/03/01/025",
    "remark": "NEW PU",
    "ward_id": "17294",
    "ward_name": "OTA  I",
    "local_government_id": "564",
    "local_government_name": "ADO ODO-OTA",
    "state_id": "27",
    "state_name": "OGUN",
    "location": {
      "latitude": 6.692744599999999,
      "longitude": 3.2364854,
      "viewport": {
        "northeast": {
          "lat": 6.694048579892721,
          "lng": 3.237817029892722
        },
        "southwest": {
          "lat": 6.691348920107277,
          "lng": 3.235117370107278
        }
      },
      "formatted_address": "M6VP+3HX, 112104, Ota, Nigeria",
      "google_map_url": "https://maps.google.com?q=6.692744599999999,3.2364854",
      "google_place_id": "ChIJv5xbcFGZOxARWuOjXm9A83I"
    }
  },
  {
    "id": "340383",
    "name": "BESIDE TRANSFORMER AT FADUNSI TINUOLA STREET",
    "registration_area_id": "17294",
    "precise_location": null,
    "abbreviation": "026",
    "units": "026",
    "delimitation": "27/03/01/026",
    "remark": "NEW PU",
    "ward_id": "17294",
    "ward_name": "OTA  I",
    "local_government_id": "564",
    "local_government_name": "ADO ODO-OTA",
    "state_id": "27",
    "state_name": "OGUN",
    "location": {
      "latitude": 6.5958169,
      "longitude": 3.3510396,
      "viewport": {
        "northeast": {
          "lat": 6.597281379892721,
          "lng": 3.352412579892722
        },
        "southwest": {
          "lat": 6.594581720107278,
          "lng": 3.349712920107277
        }
      },
      "formatted_address": "3rd Floor, Stanbic IBTC Building, 36A Toyin St, 100271, Ikeja, Nigeria",
      "google_map_url": "https://maps.google.com?q=6.5958169,3.3510396",
      "google_place_id": "ChIJ7-jCDjuSOxARk_dk9F_15sg"
    }
  },
  {
    "id": "340384",
    "name": "BESIDE TRANSFORMER AT HARMONY ESTATE",
    "registration_area_id": "17294",
    "precise_location": null,
    "abbreviation": "027",
    "units": "027",
    "delimitation": "27/03/01/027",
    "remark": "NEW PU",
    "ward_id": "17294",
    "ward_name": "OTA  I",
    "local_government_id": "564",
    "local_government_name": "ADO ODO-OTA",
    "state_id": "27",
    "state_name": "OGUN",
    "location": {
      "latitude": 6.614126499999999,
      "longitude": 3.198482,
      "viewport": {
        "northeast": {
          "lat": 6.615432029892721,
          "lng": 3.199944079892722
        },
        "southwest": {
          "lat": 6.612732370107278,
          "lng": 3.197244420107277
        }
      },
      "formatted_address": "Imou Ojeikere street, Itele Ota, road, Nigeria",
      "google_map_url": "https://maps.google.com?q=6.614126499999999,3.198482",
      "google_place_id": "ChIJ3f0GHFSbOxARrYvRbj4SixQ"
    }
  },
  {
    "id": "340385",
    "name": "OPEN SPACE OPPOSITE CEMETARY, AKOGUN BUS STOP. ITELE ROAD",
    "registration_area_id": "17294",
    "precise_location": null,
    "abbreviation": "028",
    "units": "028",
    "delimitation": "27/03/01/028",
    "remark": "NEW PU",
    "ward_id": "17294",
    "ward_name": "OTA  I",
    "local_government_id": "564",
    "local_government_name": "ADO ODO-OTA",
    "state_id": "27",
    "state_name": "OGUN",
    "location": {
      "latitude": 6.6888288,
      "longitude": 3.2265151,
      "viewport": {
        "northeast": {
          "lat": 6.690208579892722,
          "lng": 3.227858779892723
        },
        "southwest": {
          "lat": 6.687508920107279,
          "lng": 3.225159120107278
        }
      },
      "formatted_address": "112104, Ota, Nigeria",
      "google_map_url": "https://maps.google.com?q=6.6888288,3.2265151",
      "google_place_id": "ChIJZeC6Ra6ZOxARTfuSs3NoxWY"
    }
  },
  {
    "id": "340386",
    "name": "OPEN SPACE AT GOLDEN ESTATE JUNCTION",
    "registration_area_id": "17294",
    "precise_location": null,
    "abbreviation": "029",
    "units": "029",
    "delimitation": "27/03/01/029",
    "remark": "NEW PU",
    "ward_id": "17294",
    "ward_name": "OTA  I",
    "local_government_id": "564",
    "local_government_name": "ADO ODO-OTA",
    "state_id": "27",
    "state_name": "OGUN",
    "location": {
      "latitude": 6.692744599999999,
      "longitude": 3.2364854,
      "viewport": {
        "northeast": {
          "lat": 6.694048579892721,
          "lng": 3.237817029892722
        },
        "southwest": {
          "lat": 6.691348920107277,
          "lng": 3.235117370107278
        }
      },
      "formatted_address": "M6VP+3HX, 112104, Ota, Nigeria",
      "google_map_url": "https://maps.google.com?q=6.692744599999999,3.2364854",
      "google_place_id": "ChIJv5xbcFGZOxARWuOjXm9A83I"
    }
  },
  {
    "id": "340387",
    "name": "OPEN SPACE AT BAALE BUS-STOP",
    "registration_area_id": "17294",
    "precise_location": null,
    "abbreviation": "030",
    "units": "030",
    "delimitation": "27/03/01/030",
    "remark": "NEW PU",
    "ward_id": "17294",
    "ward_name": "OTA  I",
    "local_government_id": "564",
    "local_government_name": "ADO ODO-OTA",
    "state_id": "27",
    "state_name": "OGUN",
    "location": {
      "latitude": 6.6081167,
      "longitude": 3.1949241,
      "viewport": {
        "northeast": {
          "lat": 6.609460329892721,
          "lng": 3.196295429892722
        },
        "southwest": {
          "lat": 6.606760670107278,
          "lng": 3.193595770107278
        }
      },
      "formatted_address": "Obafemi Awolowo Way, Ogun 112104, Okesuna, Nigeria",
      "google_map_url": "https://maps.google.com?q=6.6081167,3.1949241",
      "google_place_id": "ChIJRWMLnu2ZOxARg7_8YU_HSd4"
    }
  },
  {
    "id": "340388",
    "name": "OPEN SPACE AT OLD AGBADO RD, BY ILERIOLUWA JUNCTION",
    "registration_area_id": "17294",
    "precise_location": null,
    "abbreviation": "031",
    "units": "031",
    "delimitation": "27/03/01/031",
    "remark": "NEW PU",
    "ward_id": "17294",
    "ward_name": "OTA  I",
    "local_government_id": "564",
    "local_government_name": "ADO ODO-OTA",
    "state_id": "27",
    "state_name": "OGUN",
    "location": {
      "latitude": 6.6081167,
      "longitude": 3.1949241,
      "viewport": {
        "northeast": {
          "lat": 6.609460329892721,
          "lng": 3.196295429892722
        },
        "southwest": {
          "lat": 6.606760670107278,
          "lng": 3.193595770107278
        }
      },
      "formatted_address": "Obafemi Awolowo Way, Ogun 112104, Okesuna, Nigeria",
      "google_map_url": "https://maps.google.com?q=6.6081167,3.1949241",
      "google_place_id": "ChIJRWMLnu2ZOxARg7_8YU_HSd4"
    }
  },
  {
    "id": "340389",
    "name": "OPEN SPACE BESIDE TRANSFORMER",
    "registration_area_id": "17294",
    "precise_location": null,
    "abbreviation": "032",
    "units": "032",
    "delimitation": "27/03/01/032",
    "remark": "NEW PU",
    "ward_id": "17294",
    "ward_name": "OTA  I",
    "local_government_id": "564",
    "local_government_name": "ADO ODO-OTA",
    "state_id": "27",
    "state_name": "OGUN",
    "location": {
      "latitude": 6.6081167,
      "longitude": 3.1949241,
      "viewport": {
        "northeast": {
          "lat": 6.609460329892721,
          "lng": 3.196295429892722
        },
        "southwest": {
          "lat": 6.606760670107278,
          "lng": 3.193595770107278
        }
      },
      "formatted_address": "Obafemi Awolowo Way, Ogun 112104, Okesuna, Nigeria",
      "google_map_url": "https://maps.google.com?q=6.6081167,3.1949241",
      "google_place_id": "ChIJRWMLnu2ZOxARg7_8YU_HSd4"
    }
  },
  {
    "id": "340390",
    "name": "OPEN SPACE BESIDE TRANSFORMER, NEAR CCC IREWOLEDE",
    "registration_area_id": "17294",
    "precise_location": null,
    "abbreviation": "033",
    "units": "033",
    "delimitation": "27/03/01/033",
    "remark": "NEW PU",
    "ward_id": "17294",
    "ward_name": "OTA  I",
    "local_government_id": "564",
    "local_government_name": "ADO ODO-OTA",
    "state_id": "27",
    "state_name": "OGUN",
    "location": {
      "latitude": 6.6081167,
      "longitude": 3.1949241,
      "viewport": {
        "northeast": {
          "lat": 6.609460329892721,
          "lng": 3.196295429892722
        },
        "southwest": {
          "lat": 6.606760670107278,
          "lng": 3.193595770107278
        }
      },
      "formatted_address": "Obafemi Awolowo Way, Ogun 112104, Okesuna, Nigeria",
      "google_map_url": "https://maps.google.com?q=6.6081167,3.1949241",
      "google_place_id": "ChIJRWMLnu2ZOxARg7_8YU_HSd4"
    }
  },
  {
    "id": "340391",
    "name": "OPEN SPACE BESIDE TRANSFORMER AT UPRIGHT FOUNDATION STREET",
    "registration_area_id": "17294",
    "precise_location": null,
    "abbreviation": "034",
    "units": "034",
    "delimitation": "27/03/01/034",
    "remark": "NEW PU",
    "ward_id": "17294",
    "ward_name": "OTA  I",
    "local_government_id": "564",
    "local_government_name": "ADO ODO-OTA",
    "state_id": "27",
    "state_name": "OGUN",
    "location": {
      "latitude": 6.6619056,
      "longitude": 3.230782,
      "viewport": {
        "northeast": {
          "lat": 6.663249279892721,
          "lng": 3.232108129892722
        },
        "southwest": {
          "lat": 6.660549620107277,
          "lng": 3.229408470107277
        }
      },
      "formatted_address": "M66J+Q87, 112104, Ota, Nigeria",
      "google_map_url": "https://maps.google.com?q=6.6619056,3.230782",
      "google_place_id": "ChIJgxBSvvaZOxARRT5rWH8Unv8"
    }
  },
  {
    "id": "340392",
    "name": "HARMONY STREET, LOVE ESTATE",
    "registration_area_id": "17294",
    "precise_location": null,
    "abbreviation": "035",
    "units": "035",
    "delimitation": "27/03/01/035",
    "remark": "NEW PU",
    "ward_id": "17294",
    "ward_name": "OTA  I",
    "local_government_id": "564",
    "local_government_name": "ADO ODO-OTA",
    "state_id": "27",
    "state_name": "OGUN",
    "location": {
      "latitude": 6.614126499999999,
      "longitude": 3.198482,
      "viewport": {
        "northeast": {
          "lat": 6.615432029892721,
          "lng": 3.199944079892722
        },
        "southwest": {
          "lat": 6.612732370107278,
          "lng": 3.197244420107277
        }
      },
      "formatted_address": "Imou Ojeikere street, Itele Ota, road, Nigeria",
      "google_map_url": "https://maps.google.com?q=6.614126499999999,3.198482",
      "google_place_id": "ChIJ3f0GHFSbOxARrYvRbj4SixQ"
    }
  },
  {
    "id": "340393",
    "name": "IJAGBA",
    "registration_area_id": "17294",
    "precise_location": null,
    "abbreviation": "036",
    "units": "036",
    "delimitation": "27/03/01/036",
    "remark": "NEW PU",
    "ward_id": "17294",
    "ward_name": "OTA  I",
    "local_government_id": "564",
    "local_government_name": "ADO ODO-OTA",
    "state_id": "27",
    "state_name": "OGUN",
    "location": {
      "latitude": 6.6448405,
      "longitude": 3.2065216,
      "viewport": {
        "northeast": {
          "lat": 6.646190329892722,
          "lng": 3.207871429892723
        },
        "southwest": {
          "lat": 6.643490670107278,
          "lng": 3.205171770107278
        }
      },
      "formatted_address": "Ijagba Rd, 112104, Agege, Nigeria",
      "google_map_url": "https://maps.google.com?q=6.6448405,3.2065216",
      "google_place_id": "ChIJHXeUg8WbOxARKNxklDJ3iCQ"
    }
  },
  {
    "id": "340394",
    "name": "OPEN SPACE BESIDE TRANSFORMER, KAFIDUPE JUNCTION",
    "registration_area_id": "17294",
    "precise_location": null,
    "abbreviation": "037",
    "units": "037",
    "delimitation": "27/03/01/037",
    "remark": "NEW PU",
    "ward_id": "17294",
    "ward_name": "OTA  I",
    "local_government_id": "564",
    "local_government_name": "ADO ODO-OTA",
    "state_id": "27",
    "state_name": "OGUN",
    "location": {
      "latitude": 6.6081167,
      "longitude": 3.1949241,
      "viewport": {
        "northeast": {
          "lat": 6.609460329892721,
          "lng": 3.196295429892722
        },
        "southwest": {
          "lat": 6.606760670107278,
          "lng": 3.193595770107278
        }
      },
      "formatted_address": "Obafemi Awolowo Way, Ogun 112104, Okesuna, Nigeria",
      "google_map_url": "https://maps.google.com?q=6.6081167,3.1949241",
      "google_place_id": "ChIJRWMLnu2ZOxARg7_8YU_HSd4"
    }
  },
  {
    "id": "340395",
    "name": "OPEN SPACE AT ETIKO ASANBE STREET",
    "registration_area_id": "17294",
    "precise_location": null,
    "abbreviation": "038",
    "units": "038",
    "delimitation": "27/03/01/038",
    "remark": "NEW PU",
    "ward_id": "17294",
    "ward_name": "OTA  I",
    "local_government_id": "564",
    "local_government_name": "ADO ODO-OTA",
    "state_id": "27",
    "state_name": "OGUN",
    "location": {
      "latitude": 6.6081167,
      "longitude": 3.1949241,
      "viewport": {
        "northeast": {
          "lat": 6.609460329892721,
          "lng": 3.196295429892722
        },
        "southwest": {
          "lat": 6.606760670107278,
          "lng": 3.193595770107278
        }
      },
      "formatted_address": "Obafemi Awolowo Way, Ogun 112104, Okesuna, Nigeria",
      "google_map_url": "https://maps.google.com?q=6.6081167,3.1949241",
      "google_place_id": "ChIJRWMLnu2ZOxARg7_8YU_HSd4"
    }
  },
  {
    "id": "340396",
    "name": "OPEN SPACE AT AJEGUNLE JUNCTION",
    "registration_area_id": "17294",
    "precise_location": null,
    "abbreviation": "039",
    "units": "039",
    "delimitation": "27/03/01/039",
    "remark": "NEW PU",
    "ward_id": "17294",
    "ward_name": "OTA  I",
    "local_government_id": "564",
    "local_government_name": "ADO ODO-OTA",
    "state_id": "27",
    "state_name": "OGUN",
    "location": {
      "latitude": 6.683953499999999,
      "longitude": 3.2145752,
      "viewport": {
        "northeast": {
          "lat": 6.685363329892721,
          "lng": 3.215902529892722
        },
        "southwest": {
          "lat": 6.682663670107277,
          "lng": 3.213202870107278
        }
      },
      "formatted_address": "Fellowship busstop, the ambassadors college junction, Off Idiroko Rd, 112102, Ota, Nigeria",
      "google_map_url": "https://maps.google.com?q=6.683953499999999,3.2145752",
      "google_place_id": "ChIJI_DJsoSZOxARGyyOWhhAZMU"
    }
  },
  {
    "id": "340397",
    "name": "IN FRONT OF TRANSFORMER AT COLLEGE ROAD",
    "registration_area_id": "17294",
    "precise_location": null,
    "abbreviation": "040",
    "units": "040",
    "delimitation": "27/03/01/040",
    "remark": "NEW PU",
    "ward_id": "17294",
    "ward_name": "OTA  I",
    "local_government_id": "564",
    "local_government_name": "ADO ODO-OTA",
    "state_id": "27",
    "state_name": "OGUN",
    "location": null
  },
  {
    "id": "340398",
    "name": "OPEN SPACE AT OLD OSUKE ROAD JUNCTION",
    "registration_area_id": "17294",
    "precise_location": null,
    "abbreviation": "041",
    "units": "041",
    "delimitation": "27/03/01/041",
    "remark": "NEW PU",
    "ward_id": "17294",
    "ward_name": "OTA  I",
    "local_government_id": "564",
    "local_government_name": "ADO ODO-OTA",
    "state_id": "27",
    "state_name": "OGUN",
    "location": {
      "latitude": 6.6081167,
      "longitude": 3.1949241,
      "viewport": {
        "northeast": {
          "lat": 6.609460329892721,
          "lng": 3.196295429892722
        },
        "southwest": {
          "lat": 6.606760670107278,
          "lng": 3.193595770107278
        }
      },
      "formatted_address": "Obafemi Awolowo Way, Ogun 112104, Okesuna, Nigeria",
      "google_map_url": "https://maps.google.com?q=6.6081167,3.1949241",
      "google_place_id": "ChIJRWMLnu2ZOxARg7_8YU_HSd4"
    }
  },
  {
    "id": "340399",
    "name": "OPEN SPACE AT MAYOWA STREET, SECOND AVENUE JUNCTION",
    "registration_area_id": "17294",
    "precise_location": null,
    "abbreviation": "042",
    "units": "042",
    "delimitation": "27/03/01/042",
    "remark": "NEW PU",
    "ward_id": "17294",
    "ward_name": "OTA  I",
    "local_government_id": "564",
    "local_government_name": "ADO ODO-OTA",
    "state_id": "27",
    "state_name": "OGUN",
    "location": {
      "latitude": 6.692744599999999,
      "longitude": 3.2364854,
      "viewport": {
        "northeast": {
          "lat": 6.694048579892721,
          "lng": 3.237817029892722
        },
        "southwest": {
          "lat": 6.691348920107277,
          "lng": 3.235117370107278
        }
      },
      "formatted_address": "M6VP+3HX, 112104, Ota, Nigeria",
      "google_map_url": "https://maps.google.com?q=6.692744599999999,3.2364854",
      "google_place_id": "ChIJv5xbcFGZOxARWuOjXm9A83I"
    }
  },
  {
    "id": "340400",
    "name": "COMMUNITY HALL, IFELODUN ONIGBODO",
    "registration_area_id": "17294",
    "precise_location": null,
    "abbreviation": "043",
    "units": "043",
    "delimitation": "27/03/01/043",
    "remark": "NEW PU",
    "ward_id": "17294",
    "ward_name": "OTA  I",
    "local_government_id": "564",
    "local_government_name": "ADO ODO-OTA",
    "state_id": "27",
    "state_name": "OGUN",
    "location": {
      "latitude": 6.692744599999999,
      "longitude": 3.2364854,
      "viewport": {
        "northeast": {
          "lat": 6.694048579892721,
          "lng": 3.237817029892722
        },
        "southwest": {
          "lat": 6.691348920107277,
          "lng": 3.235117370107278
        }
      },
      "formatted_address": "M6VP+3HX, 112104, Ota, Nigeria",
      "google_map_url": "https://maps.google.com?q=6.692744599999999,3.2364854",
      "google_place_id": "ChIJv5xbcFGZOxARWuOjXm9A83I"
    }
  },
  {
    "id": "340401",
    "name": "OPEN SPACE BESIDE TRANSFORMER, ANOINTED JUNCTION",
    "registration_area_id": "17294",
    "precise_location": null,
    "abbreviation": "044",
    "units": "044",
    "delimitation": "27/03/01/044",
    "remark": "NEW PU",
    "ward_id": "17294",
    "ward_name": "OTA  I",
    "local_government_id": "564",
    "local_government_name": "ADO ODO-OTA",
    "state_id": "27",
    "state_name": "OGUN",
    "location": {
      "latitude": 6.6081167,
      "longitude": 3.1949241,
      "viewport": {
        "northeast": {
          "lat": 6.609460329892721,
          "lng": 3.196295429892722
        },
        "southwest": {
          "lat": 6.606760670107278,
          "lng": 3.193595770107278
        }
      },
      "formatted_address": "Obafemi Awolowo Way, Ogun 112104, Okesuna, Nigeria",
      "google_map_url": "https://maps.google.com?q=6.6081167,3.1949241",
      "google_place_id": "ChIJRWMLnu2ZOxARg7_8YU_HSd4"
    }
  },
  {
    "id": "340402",
    "name": "OPEN SPACE AT ONIGBIN BUS-STOP",
    "registration_area_id": "17294",
    "precise_location": null,
    "abbreviation": "045",
    "units": "045",
    "delimitation": "27/03/01/045",
    "remark": "NEW PU",
    "ward_id": "17294",
    "ward_name": "OTA  I",
    "local_government_id": "564",
    "local_government_name": "ADO ODO-OTA",
    "state_id": "27",
    "state_name": "OGUN",
    "location": {
      "latitude": 6.6888288,
      "longitude": 3.2265151,
      "viewport": {
        "northeast": {
          "lat": 6.690208579892722,
          "lng": 3.227858779892723
        },
        "southwest": {
          "lat": 6.687508920107279,
          "lng": 3.225159120107278
        }
      },
      "formatted_address": "112104, Ota, Nigeria",
      "google_map_url": "https://maps.google.com?q=6.6888288,3.2265151",
      "google_place_id": "ChIJZeC6Ra6ZOxARTfuSs3NoxWY"
    }
  },
  {
    "id": "340403",
    "name": "OPEN SPACE BESIDE SECOND TRANSFORMER",
    "registration_area_id": "17294",
    "precise_location": null,
    "abbreviation": "046",
    "units": "046",
    "delimitation": "27/03/01/046",
    "remark": "NEW PU",
    "ward_id": "17294",
    "ward_name": "OTA  I",
    "local_government_id": "564",
    "local_government_name": "ADO ODO-OTA",
    "state_id": "27",
    "state_name": "OGUN",
    "location": {
      "latitude": 6.6081167,
      "longitude": 3.1949241,
      "viewport": {
        "northeast": {
          "lat": 6.609460329892721,
          "lng": 3.196295429892722
        },
        "southwest": {
          "lat": 6.606760670107278,
          "lng": 3.193595770107278
        }
      },
      "formatted_address": "Obafemi Awolowo Way, Ogun 112104, Okesuna, Nigeria",
      "google_map_url": "https://maps.google.com?q=6.6081167,3.1949241",
      "google_place_id": "ChIJRWMLnu2ZOxARg7_8YU_HSd4"
    }
  },
  {
    "id": "340404",
    "name": "OPEN SPACE BESIDE TRANSFORMER AT GOD'S TOWN AVENUE, ALUBARIKA JUNCTION",
    "registration_area_id": "17294",
    "precise_location": null,
    "abbreviation": "047",
    "units": "047",
    "delimitation": "27/03/01/047",
    "remark": "NEW PU",
    "ward_id": "17294",
    "ward_name": "OTA  I",
    "local_government_id": "564",
    "local_government_name": "ADO ODO-OTA",
    "state_id": "27",
    "state_name": "OGUN",
    "location": {
      "latitude": 6.6081167,
      "longitude": 3.1949241,
      "viewport": {
        "northeast": {
          "lat": 6.609460329892721,
          "lng": 3.196295429892722
        },
        "southwest": {
          "lat": 6.606760670107278,
          "lng": 3.193595770107278
        }
      },
      "formatted_address": "Obafemi Awolowo Way, Ogun 112104, Okesuna, Nigeria",
      "google_map_url": "https://maps.google.com?q=6.6081167,3.1949241",
      "google_place_id": "ChIJRWMLnu2ZOxARg7_8YU_HSd4"
    }
  },
  {
    "id": "340405",
    "name": "OPEN SPACE BESIDE MARIA SUBULADE JUNCTION, SESAN DOSUNMU",
    "registration_area_id": "17294",
    "precise_location": null,
    "abbreviation": "048",
    "units": "048",
    "delimitation": "27/03/01/048",
    "remark": "NEW PU",
    "ward_id": "17294",
    "ward_name": "OTA  I",
    "local_government_id": "564",
    "local_government_name": "ADO ODO-OTA",
    "state_id": "27",
    "state_name": "OGUN",
    "location": null
  },
  {
    "id": "340406",
    "name": "OPEN SPACE AT ALAFIA STREET, NEAR MORIKAZ SEBIL NAJAT , IDOTA",
    "registration_area_id": "17294",
    "precise_location": null,
    "abbreviation": "049",
    "units": "049",
    "delimitation": "27/03/01/049",
    "remark": "NEW PU",
    "ward_id": "17294",
    "ward_name": "OTA  I",
    "local_government_id": "564",
    "local_government_name": "ADO ODO-OTA",
    "state_id": "27",
    "state_name": "OGUN",
    "location": {
      "latitude": 6.6081167,
      "longitude": 3.1949241,
      "viewport": {
        "northeast": {
          "lat": 6.609460329892721,
          "lng": 3.196295429892722
        },
        "southwest": {
          "lat": 6.606760670107278,
          "lng": 3.193595770107278
        }
      },
      "formatted_address": "Obafemi Awolowo Way, Ogun 112104, Okesuna, Nigeria",
      "google_map_url": "https://maps.google.com?q=6.6081167,3.1949241",
      "google_place_id": "ChIJRWMLnu2ZOxARg7_8YU_HSd4"
    }
  },
  {
    "id": "340407",
    "name": "OPEN SPACE AT THREE CROWN BUSSTOP, ITELE ROAD.",
    "registration_area_id": "17294",
    "precise_location": null,
    "abbreviation": "050",
    "units": "050",
    "delimitation": "27/03/01/050",
    "remark": "NEW PU",
    "ward_id": "17294",
    "ward_name": "OTA  I",
    "local_government_id": "564",
    "local_government_name": "ADO ODO-OTA",
    "state_id": "27",
    "state_name": "OGUN",
    "location": {
      "latitude": 6.6888288,
      "longitude": 3.2265151,
      "viewport": {
        "northeast": {
          "lat": 6.690208579892722,
          "lng": 3.227858779892723
        },
        "southwest": {
          "lat": 6.687508920107279,
          "lng": 3.225159120107278
        }
      },
      "formatted_address": "112104, Ota, Nigeria",
      "google_map_url": "https://maps.google.com?q=6.6888288,3.2265151",
      "google_place_id": "ChIJZeC6Ra6ZOxARTfuSs3NoxWY"
    }
  },
  {
    "id": "340408",
    "name": "OPENSPACE AT NEW IFESOWAPO STREET/ OWOLABI STREET JUNCTION, IDOTA TITUN",
    "registration_area_id": "17294",
    "precise_location": null,
    "abbreviation": "051",
    "units": "051",
    "delimitation": "27/03/01/051",
    "remark": "NEW PU",
    "ward_id": "17294",
    "ward_name": "OTA  I",
    "local_government_id": "564",
    "local_government_name": "ADO ODO-OTA",
    "state_id": "27",
    "state_name": "OGUN",
    "location": {
      "latitude": 6.6081167,
      "longitude": 3.1949241,
      "viewport": {
        "northeast": {
          "lat": 6.609460329892721,
          "lng": 3.196295429892722
        },
        "southwest": {
          "lat": 6.606760670107278,
          "lng": 3.193595770107278
        }
      },
      "formatted_address": "Obafemi Awolowo Way, Ogun 112104, Okesuna, Nigeria",
      "google_map_url": "https://maps.google.com?q=6.6081167,3.1949241",
      "google_place_id": "ChIJRWMLnu2ZOxARg7_8YU_HSd4"
    }
  },
  {
    "id": "340409",
    "name": "OPEN SPACE AT ADUN AYE/KAYODE BABATUNDE STREET, IDOTA",
    "registration_area_id": "17294",
    "precise_location": null,
    "abbreviation": "052",
    "units": "052",
    "delimitation": "27/03/01/052",
    "remark": "NEW PU",
    "ward_id": "17294",
    "ward_name": "OTA  I",
    "local_government_id": "564",
    "local_government_name": "ADO ODO-OTA",
    "state_id": "27",
    "state_name": "OGUN",
    "location": {
      "latitude": 6.6081167,
      "longitude": 3.1949241,
      "viewport": {
        "northeast": {
          "lat": 6.609460329892721,
          "lng": 3.196295429892722
        },
        "southwest": {
          "lat": 6.606760670107278,
          "lng": 3.193595770107278
        }
      },
      "formatted_address": "Obafemi Awolowo Way, Ogun 112104, Okesuna, Nigeria",
      "google_map_url": "https://maps.google.com?q=6.6081167,3.1949241",
      "google_place_id": "ChIJRWMLnu2ZOxARg7_8YU_HSd4"
    }
  }
]