[
  {
    "id": "20747",
    "name": "UNGUWAR FAWARI I,   KOFAR SARKIN FAWA",
    "registration_area_id": "1162",
    "precise_location": null,
    "abbreviation": "001",
    "units": "001",
    "delimitation": "05/10/01/001",
    "remark": "EXISTING PU",
    "ward_id": "1162",
    "ward_name": "ITAS",
    "local_government_id": "100",
    "local_government_name": "ITAS/GADAU",
    "state_id": "5",
    "state_name": "BAUCHI",
    "location": null
  },
  {
    "id": "20748",
    "name": "UNGUWAR FAWARI   II,  FAWARI  PRIMARY SCHOOL",
    "registration_area_id": "1162",
    "precise_location": null,
    "abbreviation": "002",
    "units": "002",
    "delimitation": "05/10/01/002",
    "remark": "EXISTING PU",
    "ward_id": "1162",
    "ward_name": "ITAS",
    "local_government_id": "100",
    "local_government_name": "ITAS/GADAU",
    "state_id": "5",
    "state_name": "BAUCHI",
    "location": {
      "latitude": 11.8557083,
      "longitude": 9.967253,
      "viewport": {
        "northeast": {
          "lat": 11.85704682989272,
          "lng": 9.96852127989272
        },
        "southwest": {
          "lat": 11.85434717010728,
          "lng": 9.965821620107276
        }
      },
      "formatted_address": "VX48+7WJ, Itas-Dumumu Rd, 751105, Itas, Nigeria",
      "google_map_url": "https://maps.google.com?q=11.8557083,9.967253",
      "google_place_id": "ChIJvZB3w0MrqhER0lu5ByE0jWY"
    }
  },
  {
    "id": "20749",
    "name": "UNGUWAR  MATI,  MAGAMA ITAS",
    "registration_area_id": "1162",
    "precise_location": null,
    "abbreviation": "003",
    "units": "003",
    "delimitation": "05/10/01/003",
    "remark": "EXISTING PU",
    "ward_id": "1162",
    "ward_name": "ITAS",
    "local_government_id": "100",
    "local_government_name": "ITAS/GADAU",
    "state_id": "5",
    "state_name": "BAUCHI",
    "location": null
  },
  {
    "id": "20750",
    "name": "UNGUWAR  KAURA,  BSADP",
    "registration_area_id": "1162",
    "precise_location": null,
    "abbreviation": "004",
    "units": "004",
    "delimitation": "05/10/01/004",
    "remark": "EXISTING PU",
    "ward_id": "1162",
    "ward_name": "ITAS",
    "local_government_id": "100",
    "local_government_name": "ITAS/GADAU",
    "state_id": "5",
    "state_name": "BAUCHI",
    "location": {
      "latitude": 11.8277948,
      "longitude": 10.1637877,
      "viewport": {
        "northeast": {
          "lat": 11.82904532989272,
          "lng": 10.16509072989272
        },
        "southwest": {
          "lat": 11.82634567010728,
          "lng": 10.16239107010728
        }
      },
      "formatted_address": "751105, Gadau, Nigeria",
      "google_map_url": "https://maps.google.com?q=11.8277948,10.1637877",
      "google_place_id": "ChIJE2_39c4mqhERIz-Dmwhwoco"
    }
  },
  {
    "id": "20751",
    "name": "UNGUWAR  GAMBO,   CENTRAL PRIMARY SCHOOL",
    "registration_area_id": "1162",
    "precise_location": null,
    "abbreviation": "005",
    "units": "005",
    "delimitation": "05/10/01/005",
    "remark": "EXISTING PU",
    "ward_id": "1162",
    "ward_name": "ITAS",
    "local_government_id": "100",
    "local_government_name": "ITAS/GADAU",
    "state_id": "5",
    "state_name": "BAUCHI",
    "location": {
      "latitude": 11.8557083,
      "longitude": 9.967253,
      "viewport": {
        "northeast": {
          "lat": 11.85704682989272,
          "lng": 9.96852127989272
        },
        "southwest": {
          "lat": 11.85434717010728,
          "lng": 9.965821620107276
        }
      },
      "formatted_address": "VX48+7WJ, Itas-Dumumu Rd, 751105, Itas, Nigeria",
      "google_map_url": "https://maps.google.com?q=11.8557083,9.967253",
      "google_place_id": "ChIJvZB3w0MrqhER0lu5ByE0jWY"
    }
  },
  {
    "id": "20752",
    "name": "ITAS YAMMA LOWCOST,  TAFIDA  PRIMARY SCHOOL",
    "registration_area_id": "1162",
    "precise_location": null,
    "abbreviation": "006",
    "units": "006",
    "delimitation": "05/10/01/006",
    "remark": "EXISTING PU",
    "ward_id": "1162",
    "ward_name": "ITAS",
    "local_government_id": "100",
    "local_government_name": "ITAS/GADAU",
    "state_id": "5",
    "state_name": "BAUCHI",
    "location": {
      "latitude": 11.858325,
      "longitude": 9.962154,
      "viewport": {
        "northeast": {
          "lat": 11.85967797989272,
          "lng": 9.963482529892723
        },
        "southwest": {
          "lat": 11.85697832010728,
          "lng": 9.960782870107279
        }
      },
      "formatted_address": "751105, Itas, Nigeria",
      "google_map_url": "https://maps.google.com?q=11.858325,9.962154",
      "google_place_id": "ChIJ4VJA304qqhERLj37xsLjMmQ"
    }
  },
  {
    "id": "20753",
    "name": "ALAGARNO,  KOFAR FADA",
    "registration_area_id": "1162",
    "precise_location": null,
    "abbreviation": "007",
    "units": "007",
    "delimitation": "05/10/01/007",
    "remark": "EXISTING PU",
    "ward_id": "1162",
    "ward_name": "ITAS",
    "local_government_id": "100",
    "local_government_name": "ITAS/GADAU",
    "state_id": "5",
    "state_name": "BAUCHI",
    "location": {
      "latitude": 11.8277948,
      "longitude": 10.1637877,
      "viewport": {
        "northeast": {
          "lat": 11.82904532989272,
          "lng": 10.16509072989272
        },
        "southwest": {
          "lat": 11.82634567010728,
          "lng": 10.16239107010728
        }
      },
      "formatted_address": "751105, Gadau, Nigeria",
      "google_map_url": "https://maps.google.com?q=11.8277948,10.1637877",
      "google_place_id": "ChIJE2_39c4mqhERIz-Dmwhwoco"
    }
  },
  {
    "id": "20754",
    "name": "GIDAN BADUKU,  KOFAR FADA",
    "registration_area_id": "1162",
    "precise_location": null,
    "abbreviation": "008",
    "units": "008",
    "delimitation": "05/10/01/008",
    "remark": "EXISTING PU",
    "ward_id": "1162",
    "ward_name": "ITAS",
    "local_government_id": "100",
    "local_government_name": "ITAS/GADAU",
    "state_id": "5",
    "state_name": "BAUCHI",
    "location": {
      "latitude": 11.8277948,
      "longitude": 10.1637877,
      "viewport": {
        "northeast": {
          "lat": 11.82904532989272,
          "lng": 10.16509072989272
        },
        "southwest": {
          "lat": 11.82634567010728,
          "lng": 10.16239107010728
        }
      },
      "formatted_address": "751105, Gadau, Nigeria",
      "google_map_url": "https://maps.google.com?q=11.8277948,10.1637877",
      "google_place_id": "ChIJE2_39c4mqhERIz-Dmwhwoco"
    }
  },
  {
    "id": "20755",
    "name": "FAFFANGA/JAMA'ARE,  KOFAR FADA",
    "registration_area_id": "1162",
    "precise_location": null,
    "abbreviation": "009",
    "units": "009",
    "delimitation": "05/10/01/009",
    "remark": "EXISTING PU",
    "ward_id": "1162",
    "ward_name": "ITAS",
    "local_government_id": "100",
    "local_government_name": "ITAS/GADAU",
    "state_id": "5",
    "state_name": "BAUCHI",
    "location": {
      "latitude": 11.8277948,
      "longitude": 10.1637877,
      "viewport": {
        "northeast": {
          "lat": 11.82904532989272,
          "lng": 10.16509072989272
        },
        "southwest": {
          "lat": 11.82634567010728,
          "lng": 10.16239107010728
        }
      },
      "formatted_address": "751105, Gadau, Nigeria",
      "google_map_url": "https://maps.google.com?q=11.8277948,10.1637877",
      "google_place_id": "ChIJE2_39c4mqhERIz-Dmwhwoco"
    }
  },
  {
    "id": "20756",
    "name": "GARIN BAUSHE,  BAUSHE PRIMARY SCHOOL",
    "registration_area_id": "1162",
    "precise_location": null,
    "abbreviation": "010",
    "units": "010",
    "delimitation": "05/10/01/010",
    "remark": "EXISTING PU",
    "ward_id": "1162",
    "ward_name": "ITAS",
    "local_government_id": "100",
    "local_government_name": "ITAS/GADAU",
    "state_id": "5",
    "state_name": "BAUCHI",
    "location": {
      "latitude": 11.851873,
      "longitude": 9.9837209,
      "viewport": {
        "northeast": {
          "lat": 11.85342567989272,
          "lng": 9.98517262989272
        },
        "southwest": {
          "lat": 11.85072602010728,
          "lng": 9.982472970107276
        }
      },
      "formatted_address": "VX2M+PFX, 751105, Itas, Nigeria",
      "google_map_url": "https://maps.google.com?q=11.851873,9.9837209",
      "google_place_id": "ChIJ3TdS9iwqqhERuV4lGvvh5wU"
    }
  },
  {
    "id": "20757",
    "name": "ITAS GANA,  PRIMARY SCHOOL ITAS GANA",
    "registration_area_id": "1162",
    "precise_location": null,
    "abbreviation": "011",
    "units": "011",
    "delimitation": "05/10/01/011",
    "remark": "EXISTING PU",
    "ward_id": "1162",
    "ward_name": "ITAS",
    "local_government_id": "100",
    "local_government_name": "ITAS/GADAU",
    "state_id": "5",
    "state_name": "BAUCHI",
    "location": {
      "latitude": 11.8557083,
      "longitude": 9.967253,
      "viewport": {
        "northeast": {
          "lat": 11.85704682989272,
          "lng": 9.96852127989272
        },
        "southwest": {
          "lat": 11.85434717010728,
          "lng": 9.965821620107276
        }
      },
      "formatted_address": "VX48+7WJ, Itas-Dumumu Rd, 751105, Itas, Nigeria",
      "google_map_url": "https://maps.google.com?q=11.8557083,9.967253",
      "google_place_id": "ChIJvZB3w0MrqhER0lu5ByE0jWY"
    }
  },
  {
    "id": "20758",
    "name": "BAUSHEDAJI,   KOFAR FADA",
    "registration_area_id": "1162",
    "precise_location": null,
    "abbreviation": "012",
    "units": "012",
    "delimitation": "05/10/01/012",
    "remark": "EXISTING PU",
    "ward_id": "1162",
    "ward_name": "ITAS",
    "local_government_id": "100",
    "local_government_name": "ITAS/GADAU",
    "state_id": "5",
    "state_name": "BAUCHI",
    "location": {
      "latitude": 11.8277948,
      "longitude": 10.1637877,
      "viewport": {
        "northeast": {
          "lat": 11.82904532989272,
          "lng": 10.16509072989272
        },
        "southwest": {
          "lat": 11.82634567010728,
          "lng": 10.16239107010728
        }
      },
      "formatted_address": "751105, Gadau, Nigeria",
      "google_map_url": "https://maps.google.com?q=11.8277948,10.1637877",
      "google_place_id": "ChIJE2_39c4mqhERIz-Dmwhwoco"
    }
  },
  {
    "id": "20759",
    "name": "KAFATA  GABAS,   KOFAR FADA",
    "registration_area_id": "1162",
    "precise_location": null,
    "abbreviation": "013",
    "units": "013",
    "delimitation": "05/10/01/013",
    "remark": "EXISTING PU",
    "ward_id": "1162",
    "ward_name": "ITAS",
    "local_government_id": "100",
    "local_government_name": "ITAS/GADAU",
    "state_id": "5",
    "state_name": "BAUCHI",
    "location": {
      "latitude": 11.8277948,
      "longitude": 10.1637877,
      "viewport": {
        "northeast": {
          "lat": 11.82904532989272,
          "lng": 10.16509072989272
        },
        "southwest": {
          "lat": 11.82634567010728,
          "lng": 10.16239107010728
        }
      },
      "formatted_address": "751105, Gadau, Nigeria",
      "google_map_url": "https://maps.google.com?q=11.8277948,10.1637877",
      "google_place_id": "ChIJE2_39c4mqhERIz-Dmwhwoco"
    }
  },
  {
    "id": "20760",
    "name": "KAFATA  YAMMA,   PRIMARY SCHOOL",
    "registration_area_id": "1162",
    "precise_location": null,
    "abbreviation": "014",
    "units": "014",
    "delimitation": "05/10/01/014",
    "remark": "EXISTING PU",
    "ward_id": "1162",
    "ward_name": "ITAS",
    "local_government_id": "100",
    "local_government_name": "ITAS/GADAU",
    "state_id": "5",
    "state_name": "BAUCHI",
    "location": {
      "latitude": 11.8557083,
      "longitude": 9.967253,
      "viewport": {
        "northeast": {
          "lat": 11.85704682989272,
          "lng": 9.96852127989272
        },
        "southwest": {
          "lat": 11.85434717010728,
          "lng": 9.965821620107276
        }
      },
      "formatted_address": "VX48+7WJ, Itas-Dumumu Rd, 751105, Itas, Nigeria",
      "google_map_url": "https://maps.google.com?q=11.8557083,9.967253",
      "google_place_id": "ChIJvZB3w0MrqhER0lu5ByE0jWY"
    }
  },
  {
    "id": "20761",
    "name": "JANKUDE,  BAKIN RIJIYA",
    "registration_area_id": "1162",
    "precise_location": null,
    "abbreviation": "015",
    "units": "015",
    "delimitation": "05/10/01/015",
    "remark": "EXISTING PU",
    "ward_id": "1162",
    "ward_name": "ITAS",
    "local_government_id": "100",
    "local_government_name": "ITAS/GADAU",
    "state_id": "5",
    "state_name": "BAUCHI",
    "location": {
      "latitude": 11.8277948,
      "longitude": 10.1637877,
      "viewport": {
        "northeast": {
          "lat": 11.82904532989272,
          "lng": 10.16509072989272
        },
        "southwest": {
          "lat": 11.82634567010728,
          "lng": 10.16239107010728
        }
      },
      "formatted_address": "751105, Gadau, Nigeria",
      "google_map_url": "https://maps.google.com?q=11.8277948,10.1637877",
      "google_place_id": "ChIJE2_39c4mqhERIz-Dmwhwoco"
    }
  },
  {
    "id": "20762",
    "name": "LAUWO,  BAKIN MAKARANTA",
    "registration_area_id": "1162",
    "precise_location": null,
    "abbreviation": "016",
    "units": "016",
    "delimitation": "05/10/01/016",
    "remark": "EXISTING PU",
    "ward_id": "1162",
    "ward_name": "ITAS",
    "local_government_id": "100",
    "local_government_name": "ITAS/GADAU",
    "state_id": "5",
    "state_name": "BAUCHI",
    "location": {
      "latitude": 11.8277948,
      "longitude": 10.1637877,
      "viewport": {
        "northeast": {
          "lat": 11.82904532989272,
          "lng": 10.16509072989272
        },
        "southwest": {
          "lat": 11.82634567010728,
          "lng": 10.16239107010728
        }
      },
      "formatted_address": "751105, Gadau, Nigeria",
      "google_map_url": "https://maps.google.com?q=11.8277948,10.1637877",
      "google_place_id": "ChIJE2_39c4mqhERIz-Dmwhwoco"
    }
  },
  {
    "id": "20763",
    "name": "GIJINA,  PRIMARY SCHOOL",
    "registration_area_id": "1162",
    "precise_location": null,
    "abbreviation": "017",
    "units": "017",
    "delimitation": "05/10/01/017",
    "remark": "EXISTING PU",
    "ward_id": "1162",
    "ward_name": "ITAS",
    "local_government_id": "100",
    "local_government_name": "ITAS/GADAU",
    "state_id": "5",
    "state_name": "BAUCHI",
    "location": {
      "latitude": 11.8557083,
      "longitude": 9.967253,
      "viewport": {
        "northeast": {
          "lat": 11.85704682989272,
          "lng": 9.96852127989272
        },
        "southwest": {
          "lat": 11.85434717010728,
          "lng": 9.965821620107276
        }
      },
      "formatted_address": "VX48+7WJ, Itas-Dumumu Rd, 751105, Itas, Nigeria",
      "google_map_url": "https://maps.google.com?q=11.8557083,9.967253",
      "google_place_id": "ChIJvZB3w0MrqhER0lu5ByE0jWY"
    }
  },
  {
    "id": "20764",
    "name": "MANAWASHI,  KOFAR FADA",
    "registration_area_id": "1162",
    "precise_location": null,
    "abbreviation": "018",
    "units": "018",
    "delimitation": "05/10/01/018",
    "remark": "EXISTING PU",
    "ward_id": "1162",
    "ward_name": "ITAS",
    "local_government_id": "100",
    "local_government_name": "ITAS/GADAU",
    "state_id": "5",
    "state_name": "BAUCHI",
    "location": {
      "latitude": 11.8277948,
      "longitude": 10.1637877,
      "viewport": {
        "northeast": {
          "lat": 11.82904532989272,
          "lng": 10.16509072989272
        },
        "southwest": {
          "lat": 11.82634567010728,
          "lng": 10.16239107010728
        }
      },
      "formatted_address": "751105, Gadau, Nigeria",
      "google_map_url": "https://maps.google.com?q=11.8277948,10.1637877",
      "google_place_id": "ChIJE2_39c4mqhERIz-Dmwhwoco"
    }
  },
  {
    "id": "20765",
    "name": "GANDIYEL,  KOFAR FADA",
    "registration_area_id": "1162",
    "precise_location": null,
    "abbreviation": "019",
    "units": "019",
    "delimitation": "05/10/01/019",
    "remark": "EXISTING PU",
    "ward_id": "1162",
    "ward_name": "ITAS",
    "local_government_id": "100",
    "local_government_name": "ITAS/GADAU",
    "state_id": "5",
    "state_name": "BAUCHI",
    "location": {
      "latitude": 11.8277948,
      "longitude": 10.1637877,
      "viewport": {
        "northeast": {
          "lat": 11.82904532989272,
          "lng": 10.16509072989272
        },
        "southwest": {
          "lat": 11.82634567010728,
          "lng": 10.16239107010728
        }
      },
      "formatted_address": "751105, Gadau, Nigeria",
      "google_map_url": "https://maps.google.com?q=11.8277948,10.1637877",
      "google_place_id": "ChIJE2_39c4mqhERIz-Dmwhwoco"
    }
  },
  {
    "id": "20766",
    "name": "KAJWAI,  PRIMARY SCHOOL",
    "registration_area_id": "1162",
    "precise_location": null,
    "abbreviation": "020",
    "units": "020",
    "delimitation": "05/10/01/020",
    "remark": "EXISTING PU",
    "ward_id": "1162",
    "ward_name": "ITAS",
    "local_government_id": "100",
    "local_government_name": "ITAS/GADAU",
    "state_id": "5",
    "state_name": "BAUCHI",
    "location": {
      "latitude": 11.8557083,
      "longitude": 9.967253,
      "viewport": {
        "northeast": {
          "lat": 11.85704682989272,
          "lng": 9.96852127989272
        },
        "southwest": {
          "lat": 11.85434717010728,
          "lng": 9.965821620107276
        }
      },
      "formatted_address": "VX48+7WJ, Itas-Dumumu Rd, 751105, Itas, Nigeria",
      "google_map_url": "https://maps.google.com?q=11.8557083,9.967253",
      "google_place_id": "ChIJvZB3w0MrqhER0lu5ByE0jWY"
    }
  },
  {
    "id": "20767",
    "name": "ASARARA,  KOFAR FADA",
    "registration_area_id": "1162",
    "precise_location": null,
    "abbreviation": "021",
    "units": "021",
    "delimitation": "05/10/01/021",
    "remark": "EXISTING PU",
    "ward_id": "1162",
    "ward_name": "ITAS",
    "local_government_id": "100",
    "local_government_name": "ITAS/GADAU",
    "state_id": "5",
    "state_name": "BAUCHI",
    "location": {
      "latitude": 11.8277948,
      "longitude": 10.1637877,
      "viewport": {
        "northeast": {
          "lat": 11.82904532989272,
          "lng": 10.16509072989272
        },
        "southwest": {
          "lat": 11.82634567010728,
          "lng": 10.16239107010728
        }
      },
      "formatted_address": "751105, Gadau, Nigeria",
      "google_map_url": "https://maps.google.com?q=11.8277948,10.1637877",
      "google_place_id": "ChIJE2_39c4mqhERIz-Dmwhwoco"
    }
  },
  {
    "id": "20768",
    "name": "GADUWAWA,  KOFAR FADA",
    "registration_area_id": "1162",
    "precise_location": null,
    "abbreviation": "022",
    "units": "022",
    "delimitation": "05/10/01/022",
    "remark": "EXISTING PU",
    "ward_id": "1162",
    "ward_name": "ITAS",
    "local_government_id": "100",
    "local_government_name": "ITAS/GADAU",
    "state_id": "5",
    "state_name": "BAUCHI",
    "location": {
      "latitude": 11.8277948,
      "longitude": 10.1637877,
      "viewport": {
        "northeast": {
          "lat": 11.82904532989272,
          "lng": 10.16509072989272
        },
        "southwest": {
          "lat": 11.82634567010728,
          "lng": 10.16239107010728
        }
      },
      "formatted_address": "751105, Gadau, Nigeria",
      "google_map_url": "https://maps.google.com?q=11.8277948,10.1637877",
      "google_place_id": "ChIJE2_39c4mqhERIz-Dmwhwoco"
    }
  },
  {
    "id": "20769",
    "name": "ITAS  KOFAR  FADA,   DISTRICT HEAD OFFICE",
    "registration_area_id": "1162",
    "precise_location": null,
    "abbreviation": "023",
    "units": "023",
    "delimitation": "05/10/01/023",
    "remark": "EXISTING PU",
    "ward_id": "1162",
    "ward_name": "ITAS",
    "local_government_id": "100",
    "local_government_name": "ITAS/GADAU",
    "state_id": "5",
    "state_name": "BAUCHI",
    "location": {
      "latitude": 11.934262,
      "longitude": 10.1255164,
      "viewport": {
        "northeast": {
          "lat": 12.0625825,
          "lng": 10.4701152
        },
        "southwest": {
          "lat": 11.7284031,
          "lng": 9.6259506
        }
      },
      "formatted_address": "Itas/Gadau, Nigeria",
      "google_map_url": "https://maps.google.com?q=11.934262,10.1255164",
      "google_place_id": "ChIJEcQqjoiHqRERucqSdBHmBuw"
    }
  },
  {
    "id": "20770",
    "name": "UNGUWAR FAWARI 1B",
    "registration_area_id": "1162",
    "precise_location": null,
    "abbreviation": "024",
    "units": "024",
    "delimitation": "05/10/01/024",
    "remark": "NEW PU",
    "ward_id": "1162",
    "ward_name": "ITAS",
    "local_government_id": "100",
    "local_government_name": "ITAS/GADAU",
    "state_id": "5",
    "state_name": "BAUCHI",
    "location": null
  },
  {
    "id": "20771",
    "name": "UNGUWAR MATI B",
    "registration_area_id": "1162",
    "precise_location": null,
    "abbreviation": "025",
    "units": "025",
    "delimitation": "05/10/01/025",
    "remark": "NEW PU",
    "ward_id": "1162",
    "ward_name": "ITAS",
    "local_government_id": "100",
    "local_government_name": "ITAS/GADAU",
    "state_id": "5",
    "state_name": "BAUCHI",
    "location": {
      "latitude": -6.145273899999999,
      "longitude": 106.8939631,
      "viewport": {
        "northeast": {
          "lat": -6.143893870107278,
          "lng": 106.8953291298927
        },
        "southwest": {
          "lat": -6.146593529892722,
          "lng": 106.8926294701073
        }
      },
      "formatted_address": "Jl. Boulevard Artha Gading No.80, RT.18/RW.8, West Kelapa Gading, Kelapa Gading, North Jakarta City, Jakarta 14240, Indonesia",
      "google_map_url": "https://maps.google.com?q=-6.145273899999999,106.8939631",
      "google_place_id": "ChIJJ60-Mkf1aS4RKvKMuwrIjpY"
    }
  },
  {
    "id": "20772",
    "name": "UNGUWAR KAURA B",
    "registration_area_id": "1162",
    "precise_location": null,
    "abbreviation": "026",
    "units": "026",
    "delimitation": "05/10/01/026",
    "remark": "NEW PU",
    "ward_id": "1162",
    "ward_name": "ITAS",
    "local_government_id": "100",
    "local_government_name": "ITAS/GADAU",
    "state_id": "5",
    "state_name": "BAUCHI",
    "location": {
      "latitude": 11.934262,
      "longitude": 10.1255164,
      "viewport": {
        "northeast": {
          "lat": 12.0625825,
          "lng": 10.4701152
        },
        "southwest": {
          "lat": 11.7284031,
          "lng": 9.6259506
        }
      },
      "formatted_address": "Itas/Gadau, Nigeria",
      "google_map_url": "https://maps.google.com?q=11.934262,10.1255164",
      "google_place_id": "ChIJEcQqjoiHqRERucqSdBHmBuw"
    }
  },
  {
    "id": "20773",
    "name": "UNGUWAR KAURA C",
    "registration_area_id": "1162",
    "precise_location": null,
    "abbreviation": "027",
    "units": "027",
    "delimitation": "05/10/01/027",
    "remark": "NEW PU",
    "ward_id": "1162",
    "ward_name": "ITAS",
    "local_government_id": "100",
    "local_government_name": "ITAS/GADAU",
    "state_id": "5",
    "state_name": "BAUCHI",
    "location": {
      "latitude": 11.934262,
      "longitude": 10.1255164,
      "viewport": {
        "northeast": {
          "lat": 12.0625825,
          "lng": 10.4701152
        },
        "southwest": {
          "lat": 11.7284031,
          "lng": 9.6259506
        }
      },
      "formatted_address": "Itas/Gadau, Nigeria",
      "google_map_url": "https://maps.google.com?q=11.934262,10.1255164",
      "google_place_id": "ChIJEcQqjoiHqRERucqSdBHmBuw"
    }
  },
  {
    "id": "20774",
    "name": "UNGUWAR GAMBO B",
    "registration_area_id": "1162",
    "precise_location": null,
    "abbreviation": "028",
    "units": "028",
    "delimitation": "05/10/01/028",
    "remark": "NEW PU",
    "ward_id": "1162",
    "ward_name": "ITAS",
    "local_government_id": "100",
    "local_government_name": "ITAS/GADAU",
    "state_id": "5",
    "state_name": "BAUCHI",
    "location": null
  },
  {
    "id": "20775",
    "name": "UNGUWAR GAMBO C",
    "registration_area_id": "1162",
    "precise_location": null,
    "abbreviation": "029",
    "units": "029",
    "delimitation": "05/10/01/029",
    "remark": "NEW PU",
    "ward_id": "1162",
    "ward_name": "ITAS",
    "local_government_id": "100",
    "local_government_name": "ITAS/GADAU",
    "state_id": "5",
    "state_name": "BAUCHI",
    "location": {
      "latitude": 11.8277948,
      "longitude": 10.1637877,
      "viewport": {
        "northeast": {
          "lat": 11.82904532989272,
          "lng": 10.16509072989272
        },
        "southwest": {
          "lat": 11.82634567010728,
          "lng": 10.16239107010728
        }
      },
      "formatted_address": "751105, Gadau, Nigeria",
      "google_map_url": "https://maps.google.com?q=11.8277948,10.1637877",
      "google_place_id": "ChIJE2_39c4mqhERIz-Dmwhwoco"
    }
  },
  {
    "id": "20776",
    "name": "UNGUWAR GAMBO D",
    "registration_area_id": "1162",
    "precise_location": null,
    "abbreviation": "030",
    "units": "030",
    "delimitation": "05/10/01/030",
    "remark": "NEW PU",
    "ward_id": "1162",
    "ward_name": "ITAS",
    "local_government_id": "100",
    "local_government_name": "ITAS/GADAU",
    "state_id": "5",
    "state_name": "BAUCHI",
    "location": {
      "latitude": 11.8277948,
      "longitude": 10.1637877,
      "viewport": {
        "northeast": {
          "lat": 11.82904532989272,
          "lng": 10.16509072989272
        },
        "southwest": {
          "lat": 11.82634567010728,
          "lng": 10.16239107010728
        }
      },
      "formatted_address": "751105, Gadau, Nigeria",
      "google_map_url": "https://maps.google.com?q=11.8277948,10.1637877",
      "google_place_id": "ChIJE2_39c4mqhERIz-Dmwhwoco"
    }
  },
  {
    "id": "20777",
    "name": "ITAS YAMMA B",
    "registration_area_id": "1162",
    "precise_location": null,
    "abbreviation": "031",
    "units": "031",
    "delimitation": "05/10/01/031",
    "remark": "NEW PU",
    "ward_id": "1162",
    "ward_name": "ITAS",
    "local_government_id": "100",
    "local_government_name": "ITAS/GADAU",
    "state_id": "5",
    "state_name": "BAUCHI",
    "location": {
      "latitude": 11.8579665,
      "longitude": 9.964020099999999,
      "viewport": {
        "northeast": {
          "lat": 11.864369,
          "lng": 9.9713239
        },
        "southwest": {
          "lat": 11.846035,
          "lng": 9.9563239
        }
      },
      "formatted_address": "751105, Itas, Nigeria",
      "google_map_url": "https://maps.google.com?q=11.8579665,9.964020099999999",
      "google_place_id": "ChIJXbq6ujUqqhER51i7LYmNapg"
    }
  },
  {
    "id": "20778",
    "name": "ITAS YAMMA C",
    "registration_area_id": "1162",
    "precise_location": null,
    "abbreviation": "032",
    "units": "032",
    "delimitation": "05/10/01/032",
    "remark": "NEW PU",
    "ward_id": "1162",
    "ward_name": "ITAS",
    "local_government_id": "100",
    "local_government_name": "ITAS/GADAU",
    "state_id": "5",
    "state_name": "BAUCHI",
    "location": {
      "latitude": 11.8579665,
      "longitude": 9.964020099999999,
      "viewport": {
        "northeast": {
          "lat": 11.864369,
          "lng": 9.9713239
        },
        "southwest": {
          "lat": 11.846035,
          "lng": 9.9563239
        }
      },
      "formatted_address": "751105, Itas, Nigeria",
      "google_map_url": "https://maps.google.com?q=11.8579665,9.964020099999999",
      "google_place_id": "ChIJXbq6ujUqqhER51i7LYmNapg"
    }
  },
  {
    "id": "20779",
    "name": "ITAS YAMMA D",
    "registration_area_id": "1162",
    "precise_location": null,
    "abbreviation": "033",
    "units": "033",
    "delimitation": "05/10/01/033",
    "remark": "NEW PU",
    "ward_id": "1162",
    "ward_name": "ITAS",
    "local_government_id": "100",
    "local_government_name": "ITAS/GADAU",
    "state_id": "5",
    "state_name": "BAUCHI",
    "location": {
      "latitude": 11.8579665,
      "longitude": 9.964020099999999,
      "viewport": {
        "northeast": {
          "lat": 11.864369,
          "lng": 9.9713239
        },
        "southwest": {
          "lat": 11.846035,
          "lng": 9.9563239
        }
      },
      "formatted_address": "751105, Itas, Nigeria",
      "google_map_url": "https://maps.google.com?q=11.8579665,9.964020099999999",
      "google_place_id": "ChIJXbq6ujUqqhER51i7LYmNapg"
    }
  },
  {
    "id": "20780",
    "name": "GARIN BAUSHE B",
    "registration_area_id": "1162",
    "precise_location": null,
    "abbreviation": "034",
    "units": "034",
    "delimitation": "05/10/01/034",
    "remark": "NEW PU",
    "ward_id": "1162",
    "ward_name": "ITAS",
    "local_government_id": "100",
    "local_government_name": "ITAS/GADAU",
    "state_id": "5",
    "state_name": "BAUCHI",
    "location": {
      "latitude": 11.833586,
      "longitude": 10.1684022,
      "viewport": {
        "northeast": {
          "lat": 11.83493337989272,
          "lng": 10.16974502989272
        },
        "southwest": {
          "lat": 11.83223372010728,
          "lng": 10.16704537010728
        }
      },
      "formatted_address": "R5M9+C9J, 751105, Gadau, Nigeria",
      "google_map_url": "https://maps.google.com?q=11.833586,10.1684022",
      "google_place_id": "ChIJE6P5gL4nqhERpCraF7TO1Dw"
    }
  },
  {
    "id": "20781",
    "name": "ITAS GANA B",
    "registration_area_id": "1162",
    "precise_location": null,
    "abbreviation": "035",
    "units": "035",
    "delimitation": "05/10/01/035",
    "remark": "NEW PU",
    "ward_id": "1162",
    "ward_name": "ITAS",
    "local_government_id": "100",
    "local_government_name": "ITAS/GADAU",
    "state_id": "5",
    "state_name": "BAUCHI",
    "location": {
      "latitude": 11.8557083,
      "longitude": 9.967253,
      "viewport": {
        "northeast": {
          "lat": 11.85704682989272,
          "lng": 9.96852127989272
        },
        "southwest": {
          "lat": 11.85434717010728,
          "lng": 9.965821620107276
        }
      },
      "formatted_address": "VX48+7WJ, Itas-Dumumu Rd, 751105, Itas, Nigeria",
      "google_map_url": "https://maps.google.com?q=11.8557083,9.967253",
      "google_place_id": "ChIJvZB3w0MrqhER0lu5ByE0jWY"
    }
  },
  {
    "id": "20782",
    "name": "KAFATA YAMMA B",
    "registration_area_id": "1162",
    "precise_location": null,
    "abbreviation": "036",
    "units": "036",
    "delimitation": "05/10/01/036",
    "remark": "NEW PU",
    "ward_id": "1162",
    "ward_name": "ITAS",
    "local_government_id": "100",
    "local_government_name": "ITAS/GADAU",
    "state_id": "5",
    "state_name": "BAUCHI",
    "location": {
      "latitude": 11.8277948,
      "longitude": 10.1637877,
      "viewport": {
        "northeast": {
          "lat": 11.82904532989272,
          "lng": 10.16509072989272
        },
        "southwest": {
          "lat": 11.82634567010728,
          "lng": 10.16239107010728
        }
      },
      "formatted_address": "751105, Gadau, Nigeria",
      "google_map_url": "https://maps.google.com?q=11.8277948,10.1637877",
      "google_place_id": "ChIJE2_39c4mqhERIz-Dmwhwoco"
    }
  },
  {
    "id": "20783",
    "name": "GIJINA B",
    "registration_area_id": "1162",
    "precise_location": null,
    "abbreviation": "037",
    "units": "037",
    "delimitation": "05/10/01/037",
    "remark": "NEW PU",
    "ward_id": "1162",
    "ward_name": "ITAS",
    "local_government_id": "100",
    "local_government_name": "ITAS/GADAU",
    "state_id": "5",
    "state_name": "BAUCHI",
    "location": {
      "latitude": 11.934262,
      "longitude": 10.1255164,
      "viewport": {
        "northeast": {
          "lat": 12.0625825,
          "lng": 10.4701152
        },
        "southwest": {
          "lat": 11.7284031,
          "lng": 9.6259506
        }
      },
      "formatted_address": "Itas/Gadau, Nigeria",
      "google_map_url": "https://maps.google.com?q=11.934262,10.1255164",
      "google_place_id": "ChIJEcQqjoiHqRERucqSdBHmBuw"
    }
  },
  {
    "id": "20784",
    "name": "ITAS KOFAR FADA B",
    "registration_area_id": "1162",
    "precise_location": null,
    "abbreviation": "038",
    "units": "038",
    "delimitation": "05/10/01/038",
    "remark": "NEW PU",
    "ward_id": "1162",
    "ward_name": "ITAS",
    "local_government_id": "100",
    "local_government_name": "ITAS/GADAU",
    "state_id": "5",
    "state_name": "BAUCHI",
    "location": {
      "latitude": 11.934262,
      "longitude": 10.1255164,
      "viewport": {
        "northeast": {
          "lat": 12.0625825,
          "lng": 10.4701152
        },
        "southwest": {
          "lat": 11.7284031,
          "lng": 9.6259506
        }
      },
      "formatted_address": "Itas/Gadau, Nigeria",
      "google_map_url": "https://maps.google.com?q=11.934262,10.1255164",
      "google_place_id": "ChIJEcQqjoiHqRERucqSdBHmBuw"
    }
  }
]