[
  {
    "id": "95988",
    "name": "FARU GARI - PRI.SCHOOL",
    "registration_area_id": "4876",
    "precise_location": null,
    "abbreviation": "001",
    "units": "001",
    "delimitation": "20/05/04/001",
    "remark": "EXISTING PU",
    "ward_id": "4876",
    "ward_name": "FARU/DALLAJI",
    "local_government_id": "418",
    "local_government_name": "BINDAWA",
    "state_id": "20",
    "state_name": "KATSINA",
    "location": {
      "latitude": 12.6672062,
      "longitude": 7.8075531,
      "viewport": {
        "northeast": {
          "lat": 12.66855097989272,
          "lng": 7.808922429892723
        },
        "southwest": {
          "lat": 12.66585132010728,
          "lng": 7.806222770107279
        }
      },
      "formatted_address": "MR84+VXH, 822105, Bindawa, Nigeria",
      "google_map_url": "https://maps.google.com?q=12.6672062,7.8075531",
      "google_place_id": "ChIJLTTXr-oqrhER_H8TKESO7NU"
    }
  },
  {
    "id": "95989",
    "name": "UNGUWAR TARI -K/G ALH. A/AZIZ",
    "registration_area_id": "4876",
    "precise_location": null,
    "abbreviation": "002",
    "units": "002",
    "delimitation": "20/05/04/002",
    "remark": "EXISTING PU",
    "ward_id": "4876",
    "ward_name": "FARU/DALLAJI",
    "local_government_id": "418",
    "local_government_name": "BINDAWA",
    "state_id": "20",
    "state_name": "KATSINA",
    "location": null
  },
  {
    "id": "95990",
    "name": "NASARAWA/ZABERAWA/NASARAWA I",
    "registration_area_id": "4876",
    "precise_location": null,
    "abbreviation": "003",
    "units": "003",
    "delimitation": "20/05/04/003",
    "remark": "EXISTING PU",
    "ward_id": "4876",
    "ward_name": "FARU/DALLAJI",
    "local_government_id": "418",
    "local_government_name": "BINDAWA",
    "state_id": "20",
    "state_name": "KATSINA",
    "location": {
      "latitude": 12.4966358,
      "longitude": 7.817760099999999,
      "viewport": {
        "northeast": {
          "lat": 12.5381002,
          "lng": 7.873153599999999
        },
        "southwest": {
          "lat": 12.4480989,
          "lng": 7.752308299999999
        }
      },
      "formatted_address": "Tafashiya Nasarawa, 822101, Nigeria",
      "google_map_url": "https://maps.google.com?q=12.4966358,7.817760099999999",
      "google_place_id": "ChIJ63LDcMQnrhER5A-mNt7DgBk"
    }
  },
  {
    "id": "95991",
    "name": "NASARAWA/ZABERAWA/NASARAWA II",
    "registration_area_id": "4876",
    "precise_location": null,
    "abbreviation": "004",
    "units": "004",
    "delimitation": "20/05/04/004",
    "remark": "EXISTING PU",
    "ward_id": "4876",
    "ward_name": "FARU/DALLAJI",
    "local_government_id": "418",
    "local_government_name": "BINDAWA",
    "state_id": "20",
    "state_name": "KATSINA",
    "location": {
      "latitude": 12.4966358,
      "longitude": 7.817760099999999,
      "viewport": {
        "northeast": {
          "lat": 12.5381002,
          "lng": 7.873153599999999
        },
        "southwest": {
          "lat": 12.4480989,
          "lng": 7.752308299999999
        }
      },
      "formatted_address": "Tafashiya Nasarawa, 822101, Nigeria",
      "google_map_url": "https://maps.google.com?q=12.4966358,7.817760099999999",
      "google_place_id": "ChIJ63LDcMQnrhER5A-mNt7DgBk"
    }
  },
  {
    "id": "95992",
    "name": "TOKARU/TAGWAI-KOFAR GIDAN M.MATI",
    "registration_area_id": "4876",
    "precise_location": null,
    "abbreviation": "005",
    "units": "005",
    "delimitation": "20/05/04/005",
    "remark": "EXISTING PU",
    "ward_id": "4876",
    "ward_name": "FARU/DALLAJI",
    "local_government_id": "418",
    "local_government_name": "BINDAWA",
    "state_id": "20",
    "state_name": "KATSINA",
    "location": {
      "latitude": 12.6694491,
      "longitude": 7.8036068,
      "viewport": {
        "northeast": {
          "lat": 12.67080322989272,
          "lng": 7.805000679892721
        },
        "southwest": {
          "lat": 12.66810357010728,
          "lng": 7.802301020107278
        }
      },
      "formatted_address": "MR93+QCH, 822105, Bindawa, Nigeria",
      "google_map_url": "https://maps.google.com?q=12.6694491,7.8036068",
      "google_place_id": "ChIJ-zw2SL4qrhERkurl83bqhqk"
    }
  },
  {
    "id": "95993",
    "name": "TOFA-KASUWA",
    "registration_area_id": "4876",
    "precise_location": null,
    "abbreviation": "006",
    "units": "006",
    "delimitation": "20/05/04/006",
    "remark": "EXISTING PU",
    "ward_id": "4876",
    "ward_name": "FARU/DALLAJI",
    "local_government_id": "418",
    "local_government_name": "BINDAWA",
    "state_id": "20",
    "state_name": "KATSINA",
    "location": {
      "latitude": 12.6691495,
      "longitude": 7.810963,
      "viewport": {
        "northeast": {
          "lat": 12.6794258,
          "lng": 7.8172016
        },
        "southwest": {
          "lat": 12.662887,
          "lng": 7.8021598
        }
      },
      "formatted_address": "822105, Bindawa, Nigeria",
      "google_map_url": "https://maps.google.com?q=12.6691495,7.810963",
      "google_place_id": "ChIJk6OSP5YqrhERFkI9SBouMgY"
    }
  },
  {
    "id": "95994",
    "name": "RUGAR IDI - PRI.SCHOOL",
    "registration_area_id": "4876",
    "precise_location": null,
    "abbreviation": "007",
    "units": "007",
    "delimitation": "20/05/04/007",
    "remark": "EXISTING PU",
    "ward_id": "4876",
    "ward_name": "FARU/DALLAJI",
    "local_government_id": "418",
    "local_government_name": "BINDAWA",
    "state_id": "20",
    "state_name": "KATSINA",
    "location": {
      "latitude": 13.0732032,
      "longitude": 8.3916713,
      "viewport": {
        "northeast": {
          "lat": 13.07454757989272,
          "lng": 8.39295857989272
        },
        "southwest": {
          "lat": 13.07184792010728,
          "lng": 8.390258920107277
        }
      },
      "formatted_address": "39FR+7MM, 824102, Katsina, Nigeria",
      "google_map_url": "https://maps.google.com?q=13.0732032,8.3916713",
      "google_place_id": "ChIJGbj0GdKYrxERXl6T7S1OY3U"
    }
  },
  {
    "id": "95995",
    "name": "GAMDA - PRI. SCHOOL",
    "registration_area_id": "4876",
    "precise_location": null,
    "abbreviation": "008",
    "units": "008",
    "delimitation": "20/05/04/008",
    "remark": "EXISTING PU",
    "ward_id": "4876",
    "ward_name": "FARU/DALLAJI",
    "local_government_id": "418",
    "local_government_name": "BINDAWA",
    "state_id": "20",
    "state_name": "KATSINA",
    "location": {
      "latitude": 12.6694491,
      "longitude": 7.8036068,
      "viewport": {
        "northeast": {
          "lat": 12.67080322989272,
          "lng": 7.805000679892721
        },
        "southwest": {
          "lat": 12.66810357010728,
          "lng": 7.802301020107278
        }
      },
      "formatted_address": "MR93+QCH, 822105, Bindawa, Nigeria",
      "google_map_url": "https://maps.google.com?q=12.6694491,7.8036068",
      "google_place_id": "ChIJ-zw2SL4qrhERkurl83bqhqk"
    }
  },
  {
    "id": "95996",
    "name": "KYARMANYA - PRI. SCHOOL",
    "registration_area_id": "4876",
    "precise_location": null,
    "abbreviation": "009",
    "units": "009",
    "delimitation": "20/05/04/009",
    "remark": "EXISTING PU",
    "ward_id": "4876",
    "ward_name": "FARU/DALLAJI",
    "local_government_id": "418",
    "local_government_name": "BINDAWA",
    "state_id": "20",
    "state_name": "KATSINA",
    "location": {
      "latitude": 12.6711284,
      "longitude": 7.8087246,
      "viewport": {
        "northeast": {
          "lat": 12.67247167989272,
          "lng": 7.810097629892723
        },
        "southwest": {
          "lat": 12.66977202010728,
          "lng": 7.807397970107279
        }
      },
      "formatted_address": "MRC5+FG3, Rijiyar Liman Rd, 822105, Bindawa, Nigeria",
      "google_map_url": "https://maps.google.com?q=12.6711284,7.8087246",
      "google_place_id": "ChIJFyTqDcAqrhEREbKmX2JKi2Q"
    }
  },
  {
    "id": "95997",
    "name": "DALLAJI GARI PRI.SCHOOL",
    "registration_area_id": "4876",
    "precise_location": null,
    "abbreviation": "010",
    "units": "010",
    "delimitation": "20/05/04/010",
    "remark": "EXISTING PU",
    "ward_id": "4876",
    "ward_name": "FARU/DALLAJI",
    "local_government_id": "418",
    "local_government_name": "BINDAWA",
    "state_id": "20",
    "state_name": "KATSINA",
    "location": {
      "latitude": 12.635735,
      "longitude": 7.7861095,
      "viewport": {
        "northeast": {
          "lat": 12.63710317989272,
          "lng": 7.787456629892722
        },
        "southwest": {
          "lat": 12.63440352010728,
          "lng": 7.784756970107278
        }
      },
      "formatted_address": "JQPP+7CX, 822104, Bindawa, Nigeria",
      "google_map_url": "https://maps.google.com?q=12.635735,7.7861095",
      "google_place_id": "ChIJ97KXbHgqrhERy64KkHdVNkQ"
    }
  },
  {
    "id": "95998",
    "name": "DALLAJI ZANGUNA PRI.SCHOOL",
    "registration_area_id": "4876",
    "precise_location": null,
    "abbreviation": "011",
    "units": "011",
    "delimitation": "20/05/04/011",
    "remark": "EXISTING PU",
    "ward_id": "4876",
    "ward_name": "FARU/DALLAJI",
    "local_government_id": "418",
    "local_government_name": "BINDAWA",
    "state_id": "20",
    "state_name": "KATSINA",
    "location": {
      "latitude": 12.635735,
      "longitude": 7.7861095,
      "viewport": {
        "northeast": {
          "lat": 12.63710317989272,
          "lng": 7.787456629892722
        },
        "southwest": {
          "lat": 12.63440352010728,
          "lng": 7.784756970107278
        }
      },
      "formatted_address": "JQPP+7CX, 822104, Bindawa, Nigeria",
      "google_map_url": "https://maps.google.com?q=12.635735,7.7861095",
      "google_place_id": "ChIJ97KXbHgqrhERy64KkHdVNkQ"
    }
  },
  {
    "id": "95999",
    "name": "RUGAR JOBE-PRI.SCHOOL",
    "registration_area_id": "4876",
    "precise_location": null,
    "abbreviation": "012",
    "units": "012",
    "delimitation": "20/05/04/012",
    "remark": "EXISTING PU",
    "ward_id": "4876",
    "ward_name": "FARU/DALLAJI",
    "local_government_id": "418",
    "local_government_name": "BINDAWA",
    "state_id": "20",
    "state_name": "KATSINA",
    "location": {
      "latitude": 13.0732032,
      "longitude": 8.3916713,
      "viewport": {
        "northeast": {
          "lat": 13.07454757989272,
          "lng": 8.39295857989272
        },
        "southwest": {
          "lat": 13.07184792010728,
          "lng": 8.390258920107277
        }
      },
      "formatted_address": "39FR+7MM, 824102, Katsina, Nigeria",
      "google_map_url": "https://maps.google.com?q=13.0732032,8.3916713",
      "google_place_id": "ChIJGbj0GdKYrxERXl6T7S1OY3U"
    }
  },
  {
    "id": "96000",
    "name": "MAKAURATA - MAKAURATA",
    "registration_area_id": "4876",
    "precise_location": null,
    "abbreviation": "013",
    "units": "013",
    "delimitation": "20/05/04/013",
    "remark": "EXISTING PU",
    "ward_id": "4876",
    "ward_name": "FARU/DALLAJI",
    "local_government_id": "418",
    "local_government_name": "BINDAWA",
    "state_id": "20",
    "state_name": "KATSINA",
    "location": null
  },
  {
    "id": "96001",
    "name": "KUMA - KUMA PRI.SCHOOL",
    "registration_area_id": "4876",
    "precise_location": null,
    "abbreviation": "014",
    "units": "014",
    "delimitation": "20/05/04/014",
    "remark": "EXISTING PU",
    "ward_id": "4876",
    "ward_name": "FARU/DALLAJI",
    "local_government_id": "418",
    "local_government_name": "BINDAWA",
    "state_id": "20",
    "state_name": "KATSINA",
    "location": {
      "latitude": 12.6694491,
      "longitude": 7.8036068,
      "viewport": {
        "northeast": {
          "lat": 12.67080322989272,
          "lng": 7.805000679892721
        },
        "southwest": {
          "lat": 12.66810357010728,
          "lng": 7.802301020107278
        }
      },
      "formatted_address": "MR93+QCH, 822105, Bindawa, Nigeria",
      "google_map_url": "https://maps.google.com?q=12.6694491,7.8036068",
      "google_place_id": "ChIJ-zw2SL4qrhERkurl83bqhqk"
    }
  },
  {
    "id": "96002",
    "name": "WALI - K/G MAINA",
    "registration_area_id": "4876",
    "precise_location": null,
    "abbreviation": "015",
    "units": "015",
    "delimitation": "20/05/04/015",
    "remark": "EXISTING PU",
    "ward_id": "4876",
    "ward_name": "FARU/DALLAJI",
    "local_government_id": "418",
    "local_government_name": "BINDAWA",
    "state_id": "20",
    "state_name": "KATSINA",
    "location": null
  },
  {
    "id": "96003",
    "name": "GANGARE KOFAR GIDAN MAI UNGUWA",
    "registration_area_id": "4876",
    "precise_location": null,
    "abbreviation": "016",
    "units": "016",
    "delimitation": "20/05/04/016",
    "remark": "EXISTING PU",
    "ward_id": "4876",
    "ward_name": "FARU/DALLAJI",
    "local_government_id": "418",
    "local_government_name": "BINDAWA",
    "state_id": "20",
    "state_name": "KATSINA",
    "location": {
      "latitude": 12.9954091,
      "longitude": 7.6123113,
      "viewport": {
        "northeast": {
          "lat": 12.99664367989272,
          "lng": 7.613657479892723
        },
        "southwest": {
          "lat": 12.99394402010728,
          "lng": 7.610957820107279
        }
      },
      "formatted_address": "Kofar Durbi, Katsina, Nigeria",
      "google_map_url": "https://maps.google.com?q=12.9954091,7.6123113",
      "google_place_id": "ChIJo8ii65AjsBERCT9dg2p4Mag"
    }
  },
  {
    "id": "96004",
    "name": "BUJAWA/KAJI DADI-GIDIN ADUWA",
    "registration_area_id": "4876",
    "precise_location": null,
    "abbreviation": "017",
    "units": "017",
    "delimitation": "20/05/04/017",
    "remark": "EXISTING PU",
    "ward_id": "4876",
    "ward_name": "FARU/DALLAJI",
    "local_government_id": "418",
    "local_government_name": "BINDAWA",
    "state_id": "20",
    "state_name": "KATSINA",
    "location": {
      "latitude": 12.9831074,
      "longitude": 7.595384699999999,
      "viewport": {
        "northeast": {
          "lat": 12.98450867989272,
          "lng": 7.596681879892723
        },
        "southwest": {
          "lat": 12.98180902010728,
          "lng": 7.59398222010728
        }
      },
      "formatted_address": "XHMW+65J, Waziri Zayyana Road, 820101, Katsina, Nigeria",
      "google_map_url": "https://maps.google.com?q=12.9831074,7.595384699999999",
      "google_place_id": "ChIJLRsqWLs8sBER38F4OdsscvY"
    }
  },
  {
    "id": "96005",
    "name": "SAMAMA ISLAMIYYA SCHOOL",
    "registration_area_id": "4876",
    "precise_location": null,
    "abbreviation": "018",
    "units": "018",
    "delimitation": "20/05/04/018",
    "remark": "NEW PU",
    "ward_id": "4876",
    "ward_name": "FARU/DALLAJI",
    "local_government_id": "418",
    "local_government_name": "BINDAWA",
    "state_id": "20",
    "state_name": "KATSINA",
    "location": {
      "latitude": 12.6729542,
      "longitude": 7.8106513,
      "viewport": {
        "northeast": {
          "lat": 12.67428947989272,
          "lng": 7.811995329892722
        },
        "southwest": {
          "lat": 12.67158982010728,
          "lng": 7.809295670107279
        }
      },
      "formatted_address": "MRF6+56W, 822105, Bindawa, Nigeria",
      "google_map_url": "https://maps.google.com?q=12.6729542,7.8106513",
      "google_place_id": "ChIJsdUjMcEqrhERTffkx_uphmA"
    }
  },
  {
    "id": "96006",
    "name": "DALLAJI GINDIN GAWO B/KASUWA OPEN SPACE",
    "registration_area_id": "4876",
    "precise_location": null,
    "abbreviation": "019",
    "units": "019",
    "delimitation": "20/05/04/019",
    "remark": "NEW PU",
    "ward_id": "4876",
    "ward_name": "FARU/DALLAJI",
    "local_government_id": "418",
    "local_government_name": "BINDAWA",
    "state_id": "20",
    "state_name": "KATSINA",
    "location": null
  }
]