[
  {
    "id": "8128",
    "name": "VILLAGE SQUARE, IKOT AKWA EBOM",
    "registration_area_id": "411",
    "precise_location": null,
    "abbreviation": "001",
    "units": "001",
    "delimitation": "03/01/01/001",
    "remark": "EXISTING PU",
    "ward_id": "411",
    "ward_name": "ABAK URBAN 1",
    "local_government_id": "39",
    "local_government_name": "ABAK",
    "state_id": "3",
    "state_name": "AKWA IBOM",
    "location": null
  },
  {
    "id": "8129",
    "name": "PRY SCH, IKOT OBONG EDIENE",
    "registration_area_id": "411",
    "precise_location": null,
    "abbreviation": "002",
    "units": "002",
    "delimitation": "03/01/01/002",
    "remark": "EXISTING PU",
    "ward_id": "411",
    "ward_name": "ABAK URBAN 1",
    "local_government_id": "39",
    "local_government_name": "ABAK",
    "state_id": "3",
    "state_name": "AKWA IBOM",
    "location": {
      "latitude": 5.0032857,
      "longitude": 7.774270199999998,
      "viewport": {
        "northeast": {
          "lat": 5.004665979892722,
          "lng": 7.775688729892722
        },
        "southwest": {
          "lat": 5.001966320107278,
          "lng": 7.772989070107277
        }
      },
      "formatted_address": "Ediene Abak, Abak Lga, Nigeria",
      "google_map_url": "https://maps.google.com?q=5.0032857,7.774270199999998",
      "google_place_id": "ChIJZ6ryQcj_ZxARCMf0KSuBiek"
    }
  },
  {
    "id": "8130",
    "name": "PRY SCH, IKOT OKU UBARA",
    "registration_area_id": "411",
    "precise_location": null,
    "abbreviation": "003",
    "units": "003",
    "delimitation": "03/01/01/003",
    "remark": "EXISTING PU",
    "ward_id": "411",
    "ward_name": "ABAK URBAN 1",
    "local_government_id": "39",
    "local_government_name": "ABAK",
    "state_id": "3",
    "state_name": "AKWA IBOM",
    "location": {
      "latitude": 4.9665797,
      "longitude": 7.8639277,
      "viewport": {
        "northeast": {
          "lat": 4.967451679892721,
          "lng": 7.865157779892723
        },
        "southwest": {
          "lat": 4.964752020107277,
          "lng": 7.862458120107279
        }
      },
      "formatted_address": "XV87+JHM, Oku Nsit, Ikot, Nigeria",
      "google_map_url": "https://maps.google.com?q=4.9665797,7.8639277",
      "google_place_id": "ChIJNSLGKdf-ZxAR4JCn4wvRfBk"
    }
  },
  {
    "id": "8131",
    "name": "VILLAGE SQUARE, IKOT INYANG EDIENE",
    "registration_area_id": "411",
    "precise_location": null,
    "abbreviation": "004",
    "units": "004",
    "delimitation": "03/01/01/004",
    "remark": "EXISTING PU",
    "ward_id": "411",
    "ward_name": "ABAK URBAN 1",
    "local_government_id": "39",
    "local_government_name": "ABAK",
    "state_id": "3",
    "state_name": "AKWA IBOM",
    "location": null
  },
  {
    "id": "8132",
    "name": "VILLAGE SQUARE, ATAI EDIENE",
    "registration_area_id": "411",
    "precise_location": null,
    "abbreviation": "005",
    "units": "005",
    "delimitation": "03/01/01/005",
    "remark": "EXISTING PU",
    "ward_id": "411",
    "ward_name": "ABAK URBAN 1",
    "local_government_id": "39",
    "local_government_name": "ABAK",
    "state_id": "3",
    "state_name": "AKWA IBOM",
    "location": null
  },
  {
    "id": "8133",
    "name": "PRY SCH IBANANG EDIENE",
    "registration_area_id": "411",
    "precise_location": null,
    "abbreviation": "006",
    "units": "006",
    "delimitation": "03/01/01/006",
    "remark": "EXISTING PU",
    "ward_id": "411",
    "ward_name": "ABAK URBAN 1",
    "local_government_id": "39",
    "local_government_name": "ABAK",
    "state_id": "3",
    "state_name": "AKWA IBOM",
    "location": {
      "latitude": 4.976958499999999,
      "longitude": 7.801978200000001,
      "viewport": {
        "northeast": {
          "lat": 4.978516829892722,
          "lng": 7.803161779892721
        },
        "southwest": {
          "lat": 4.975817170107278,
          "lng": 7.800462120107277
        }
      },
      "formatted_address": "XRG2+QQQ, 532101, Ukwa, Nigeria",
      "google_map_url": "https://maps.google.com?q=4.976958499999999,7.801978200000001",
      "google_place_id": "ChIJa1CqN4r_ZxARSz6YmgS75Jw"
    }
  },
  {
    "id": "8134",
    "name": "VILLAGE HALL, IKOT UDOUSUNG",
    "registration_area_id": "411",
    "precise_location": null,
    "abbreviation": "007",
    "units": "007",
    "delimitation": "03/01/01/007",
    "remark": "EXISTING PU",
    "ward_id": "411",
    "ward_name": "ABAK URBAN 1",
    "local_government_id": "39",
    "local_government_name": "ABAK",
    "state_id": "3",
    "state_name": "AKWA IBOM",
    "location": {
      "latitude": 5.1744471,
      "longitude": 7.7145151,
      "viewport": {
        "northeast": {
          "lat": 5.175751129892721,
          "lng": 7.715841379892721
        },
        "southwest": {
          "lat": 5.173051470107278,
          "lng": 7.713141720107277
        }
      },
      "formatted_address": "29 Ikot Ekpene - Calabar Rd, 530101, Ikot Ekpene, Nigeria",
      "google_map_url": "https://maps.google.com?q=5.1744471,7.7145151",
      "google_place_id": "ChIJmy3zyfa6QhARee4WefQxiDk"
    }
  },
  {
    "id": "8135",
    "name": "VILLAGE SQUARE, IKOT UDOUSUNG",
    "registration_area_id": "411",
    "precise_location": null,
    "abbreviation": "008",
    "units": "008",
    "delimitation": "03/01/01/008",
    "remark": "EXISTING PU",
    "ward_id": "411",
    "ward_name": "ABAK URBAN 1",
    "local_government_id": "39",
    "local_government_name": "ABAK",
    "state_id": "3",
    "state_name": "AKWA IBOM",
    "location": null
  },
  {
    "id": "8136",
    "name": "VILLAGE HALL, NTO UTOM UKPOM",
    "registration_area_id": "411",
    "precise_location": null,
    "abbreviation": "009",
    "units": "009",
    "delimitation": "03/01/01/009",
    "remark": "EXISTING PU",
    "ward_id": "411",
    "ward_name": "ABAK URBAN 1",
    "local_government_id": "39",
    "local_government_name": "ABAK",
    "state_id": "3",
    "state_name": "AKWA IBOM",
    "location": {
      "latitude": 5.180619099999999,
      "longitude": 7.591209399999999,
      "viewport": {
        "northeast": {
          "lat": 5.182008429892722,
          "lng": 7.592542079892721
        },
        "southwest": {
          "lat": 5.179308770107278,
          "lng": 7.589842420107277
        }
      },
      "formatted_address": "5HJR+6FW, 530104, Ibiakpan, Nigeria",
      "google_map_url": "https://maps.google.com?q=5.180619099999999,7.591209399999999",
      "google_place_id": "ChIJfR5NyEqlQhARdaFCQ2QZI80"
    }
  },
  {
    "id": "8137",
    "name": "NCSS, IKOT IYIRE",
    "registration_area_id": "411",
    "precise_location": null,
    "abbreviation": "010",
    "units": "010",
    "delimitation": "03/01/01/010",
    "remark": "EXISTING PU",
    "ward_id": "411",
    "ward_name": "ABAK URBAN 1",
    "local_government_id": "39",
    "local_government_name": "ABAK",
    "state_id": "3",
    "state_name": "AKWA IBOM",
    "location": null
  },
  {
    "id": "8138",
    "name": "VILLAGE SQUARE, IKOT AKAN ADIA",
    "registration_area_id": "411",
    "precise_location": null,
    "abbreviation": "011",
    "units": "011",
    "delimitation": "03/01/01/011",
    "remark": "EXISTING PU",
    "ward_id": "411",
    "ward_name": "ABAK URBAN 1",
    "local_government_id": "39",
    "local_government_name": "ABAK",
    "state_id": "3",
    "state_name": "AKWA IBOM",
    "location": null
  },
  {
    "id": "8139",
    "name": "VILLAGE  HALL, IKOT AKPAN ADIA",
    "registration_area_id": "411",
    "precise_location": null,
    "abbreviation": "012",
    "units": "012",
    "delimitation": "03/01/01/012",
    "remark": "EXISTING PU",
    "ward_id": "411",
    "ward_name": "ABAK URBAN 1",
    "local_government_id": "39",
    "local_government_name": "ABAK",
    "state_id": "3",
    "state_name": "AKWA IBOM",
    "location": {
      "latitude": 4.9809864,
      "longitude": 7.794274,
      "viewport": {
        "northeast": {
          "lat": 4.982580329892722,
          "lng": 7.795468379892721
        },
        "southwest": {
          "lat": 4.979880670107279,
          "lng": 7.792768720107278
        }
      },
      "formatted_address": "37, Abak Rd, Uyo, Nigeria",
      "google_map_url": "https://maps.google.com?q=4.9809864,7.794274",
      "google_place_id": "ChIJq1dYRND_ZxAR-h9Aj7hN0Vk"
    }
  },
  {
    "id": "8140",
    "name": "VILLAGE  HALL, IKOT ONUK UKPOM",
    "registration_area_id": "411",
    "precise_location": null,
    "abbreviation": "013",
    "units": "013",
    "delimitation": "03/01/01/013",
    "remark": "EXISTING PU",
    "ward_id": "411",
    "ward_name": "ABAK URBAN 1",
    "local_government_id": "39",
    "local_government_name": "ABAK",
    "state_id": "3",
    "state_name": "AKWA IBOM",
    "location": {
      "latitude": 5.0617282,
      "longitude": 7.8852831,
      "viewport": {
        "northeast": {
          "lat": 5.063034529892723,
          "lng": 7.886562079892722
        },
        "southwest": {
          "lat": 5.060334870107278,
          "lng": 7.883862420107278
        }
      },
      "formatted_address": "78 Monsignor Akpan Avenue, 531116, Uyo, Nigeria",
      "google_map_url": "https://maps.google.com?q=5.0617282,7.8852831",
      "google_place_id": "ChIJPRP7ro9WXRAR77fbTnksavE"
    }
  },
  {
    "id": "8141",
    "name": "PRY SCH, MANTA",
    "registration_area_id": "411",
    "precise_location": null,
    "abbreviation": "014",
    "units": "014",
    "delimitation": "03/01/01/014",
    "remark": "EXISTING PU",
    "ward_id": "411",
    "ward_name": "ABAK URBAN 1",
    "local_government_id": "39",
    "local_government_name": "ABAK",
    "state_id": "3",
    "state_name": "AKWA IBOM",
    "location": {
      "latitude": 5.0168088,
      "longitude": 7.8095929,
      "viewport": {
        "northeast": {
          "lat": 5.018146579892721,
          "lng": 7.810949679892722
        },
        "southwest": {
          "lat": 5.015446920107277,
          "lng": 7.808250020107278
        }
      },
      "formatted_address": "2R85+PRG, Ukpom, Abak, Nigeria",
      "google_map_url": "https://maps.google.com?q=5.0168088,7.8095929",
      "google_place_id": "ChIJyXILzzFVXRAReYoon4_mflE"
    }
  },
  {
    "id": "8142",
    "name": "VILLAGE SQUARE, MANTA EDEM IDEM",
    "registration_area_id": "411",
    "precise_location": null,
    "abbreviation": "015",
    "units": "015",
    "delimitation": "03/01/01/015",
    "remark": "EXISTING PU",
    "ward_id": "411",
    "ward_name": "ABAK URBAN 1",
    "local_government_id": "39",
    "local_government_name": "ABAK",
    "state_id": "3",
    "state_name": "AKWA IBOM",
    "location": null
  },
  {
    "id": "8143",
    "name": "MARKET SQUARE IKOT AKWA EBOM",
    "registration_area_id": "411",
    "precise_location": null,
    "abbreviation": "016",
    "units": "016",
    "delimitation": "03/01/01/016",
    "remark": "NEW PU",
    "ward_id": "411",
    "ward_name": "ABAK URBAN 1",
    "local_government_id": "39",
    "local_government_name": "ABAK",
    "state_id": "3",
    "state_name": "AKWA IBOM",
    "location": null
  },
  {
    "id": "8144",
    "name": "OPEN SPACE UNIUYO(IME SAMPSON UMANA CAMPUS) EDIENE ABAK",
    "registration_area_id": "411",
    "precise_location": null,
    "abbreviation": "017",
    "units": "017",
    "delimitation": "03/01/01/017",
    "remark": "NEW PU",
    "ward_id": "411",
    "ward_name": "ABAK URBAN 1",
    "local_government_id": "39",
    "local_government_name": "ABAK",
    "state_id": "3",
    "state_name": "AKWA IBOM",
    "location": null
  },
  {
    "id": "8145",
    "name": "VILLAGE HALL ATAI ESSIEN, IKOT OBONG EDIENE",
    "registration_area_id": "411",
    "precise_location": null,
    "abbreviation": "018",
    "units": "018",
    "delimitation": "03/01/01/018",
    "remark": "NEW PU",
    "ward_id": "411",
    "ward_name": "ABAK URBAN 1",
    "local_government_id": "39",
    "local_government_name": "ABAK",
    "state_id": "3",
    "state_name": "AKWA IBOM",
    "location": {
      "latitude": 4.8601245,
      "longitude": 8.057663999999999,
      "viewport": {
        "northeast": {
          "lat": 4.861492629892721,
          "lng": 8.058903129892721
        },
        "southwest": {
          "lat": 4.858792970107277,
          "lng": 8.056203470107278
        }
      },
      "formatted_address": "V365+23V, 521108, Ikot Asua, Nigeria",
      "google_map_url": "https://maps.google.com?q=4.8601245,8.057663999999999",
      "google_place_id": "ChIJW7ssmkLzZxAR3-ZFbdVR_bA"
    }
  },
  {
    "id": "8146",
    "name": "VILLAGE HALL IKOT OKU UBARA",
    "registration_area_id": "411",
    "precise_location": null,
    "abbreviation": "019",
    "units": "019",
    "delimitation": "03/01/01/019",
    "remark": "NEW PU",
    "ward_id": "411",
    "ward_name": "ABAK URBAN 1",
    "local_government_id": "39",
    "local_government_name": "ABAK",
    "state_id": "3",
    "state_name": "AKWA IBOM",
    "location": {
      "latitude": 5.0617282,
      "longitude": 7.8852831,
      "viewport": {
        "northeast": {
          "lat": 5.063034529892723,
          "lng": 7.886562079892722
        },
        "southwest": {
          "lat": 5.060334870107278,
          "lng": 7.883862420107278
        }
      },
      "formatted_address": "78 Monsignor Akpan Avenue, 531116, Uyo, Nigeria",
      "google_map_url": "https://maps.google.com?q=5.0617282,7.8852831",
      "google_place_id": "ChIJPRP7ro9WXRAR77fbTnksavE"
    }
  },
  {
    "id": "8147",
    "name": "COMPREHENSIVE SECONDARY SCHOOL IKOT OKU UBARA",
    "registration_area_id": "411",
    "precise_location": null,
    "abbreviation": "020",
    "units": "020",
    "delimitation": "03/01/01/020",
    "remark": "NEW PU",
    "ward_id": "411",
    "ward_name": "ABAK URBAN 1",
    "local_government_id": "39",
    "local_government_name": "ABAK",
    "state_id": "3",
    "state_name": "AKWA IBOM",
    "location": {
      "latitude": 5.0067584,
      "longitude": 7.7718445,
      "viewport": {
        "northeast": {
          "lat": 5.007920029892722,
          "lng": 7.773336829892721
        },
        "southwest": {
          "lat": 5.005220370107279,
          "lng": 7.770637170107277
        }
      },
      "formatted_address": "2Q4C+PP5, 532104, Abak, Nigeria",
      "google_map_url": "https://maps.google.com?q=5.0067584,7.7718445",
      "google_place_id": "ChIJtyE6CRsAaBARXO4tb40UNbE"
    }
  },
  {
    "id": "8148",
    "name": "OPEN SPACE, IKOT INYANG JUNCTION, EDIENE",
    "registration_area_id": "411",
    "precise_location": null,
    "abbreviation": "021",
    "units": "021",
    "delimitation": "03/01/01/021",
    "remark": "NEW PU",
    "ward_id": "411",
    "ward_name": "ABAK URBAN 1",
    "local_government_id": "39",
    "local_government_name": "ABAK",
    "state_id": "3",
    "state_name": "AKWA IBOM",
    "location": null
  },
  {
    "id": "8149",
    "name": "VILLAGE HALL, ATAI EDIENE",
    "registration_area_id": "411",
    "precise_location": null,
    "abbreviation": "022",
    "units": "022",
    "delimitation": "03/01/01/022",
    "remark": "NEW PU",
    "ward_id": "411",
    "ward_name": "ABAK URBAN 1",
    "local_government_id": "39",
    "local_government_name": "ABAK",
    "state_id": "3",
    "state_name": "AKWA IBOM",
    "location": {
      "latitude": 5.180619099999999,
      "longitude": 7.591209399999999,
      "viewport": {
        "northeast": {
          "lat": 5.182008429892722,
          "lng": 7.592542079892721
        },
        "southwest": {
          "lat": 5.179308770107278,
          "lng": 7.589842420107277
        }
      },
      "formatted_address": "5HJR+6FW, 530104, Ibiakpan, Nigeria",
      "google_map_url": "https://maps.google.com?q=5.180619099999999,7.591209399999999",
      "google_place_id": "ChIJfR5NyEqlQhARdaFCQ2QZI80"
    }
  },
  {
    "id": "8150",
    "name": "OPEN SPACE, OPPOSITE APOSTOLIC CHURCH, ATA EDIENE",
    "registration_area_id": "411",
    "precise_location": null,
    "abbreviation": "023",
    "units": "023",
    "delimitation": "03/01/01/023",
    "remark": "NEW PU",
    "ward_id": "411",
    "ward_name": "ABAK URBAN 1",
    "local_government_id": "39",
    "local_government_name": "ABAK",
    "state_id": "3",
    "state_name": "AKWA IBOM",
    "location": {
      "latitude": 4.9980334,
      "longitude": 7.7735048,
      "viewport": {
        "northeast": {
          "lat": 4.999314279892721,
          "lng": 7.774804179892723
        },
        "southwest": {
          "lat": 4.996614620107278,
          "lng": 7.772104520107279
        }
      },
      "formatted_address": "XQXF+6CM, 532104, Abak, Nigeria",
      "google_map_url": "https://maps.google.com?q=4.9980334,7.7735048",
      "google_place_id": "ChIJH_pmml0BaBARvzU9rR44Ink"
    }
  },
  {
    "id": "8151",
    "name": "VILLAGE HALL IBANANG",
    "registration_area_id": "411",
    "precise_location": null,
    "abbreviation": "024",
    "units": "024",
    "delimitation": "03/01/01/024",
    "remark": "NEW PU",
    "ward_id": "411",
    "ward_name": "ABAK URBAN 1",
    "local_government_id": "39",
    "local_government_name": "ABAK",
    "state_id": "3",
    "state_name": "AKWA IBOM",
    "location": {
      "latitude": 4.9809864,
      "longitude": 7.794274,
      "viewport": {
        "northeast": {
          "lat": 4.982580329892722,
          "lng": 7.795468379892721
        },
        "southwest": {
          "lat": 4.979880670107279,
          "lng": 7.792768720107278
        }
      },
      "formatted_address": "37, Abak Rd, Uyo, Nigeria",
      "google_map_url": "https://maps.google.com?q=4.9809864,7.794274",
      "google_place_id": "ChIJq1dYRND_ZxAR-h9Aj7hN0Vk"
    }
  },
  {
    "id": "8152",
    "name": "VILLAGE HALL IYIRE",
    "registration_area_id": "411",
    "precise_location": null,
    "abbreviation": "025",
    "units": "025",
    "delimitation": "03/01/01/025",
    "remark": "NEW PU",
    "ward_id": "411",
    "ward_name": "ABAK URBAN 1",
    "local_government_id": "39",
    "local_government_name": "ABAK",
    "state_id": "3",
    "state_name": "AKWA IBOM",
    "location": {
      "latitude": 4.9809864,
      "longitude": 7.794274,
      "viewport": {
        "northeast": {
          "lat": 4.982580329892722,
          "lng": 7.795468379892721
        },
        "southwest": {
          "lat": 4.979880670107279,
          "lng": 7.792768720107278
        }
      },
      "formatted_address": "37, Abak Rd, Uyo, Nigeria",
      "google_map_url": "https://maps.google.com?q=4.9809864,7.794274",
      "google_place_id": "ChIJq1dYRND_ZxAR-h9Aj7hN0Vk"
    }
  },
  {
    "id": "8153",
    "name": "PRY SCH, IKOT ONUK UKPOM",
    "registration_area_id": "411",
    "precise_location": null,
    "abbreviation": "026",
    "units": "026",
    "delimitation": "03/01/01/026",
    "remark": "NEW PU",
    "ward_id": "411",
    "ward_name": "ABAK URBAN 1",
    "local_government_id": "39",
    "local_government_name": "ABAK",
    "state_id": "3",
    "state_name": "AKWA IBOM",
    "location": {
      "latitude": 5.0012527,
      "longitude": 7.7984657,
      "viewport": {
        "northeast": {
          "lat": 5.002602929892721,
          "lng": 7.799817129892722
        },
        "southwest": {
          "lat": 4.999903270107278,
          "lng": 7.797117470107279
        }
      },
      "formatted_address": "2Q2X+G94, Hospital Road, 532104, Abak, Nigeria",
      "google_map_url": "https://maps.google.com?q=5.0012527,7.7984657",
      "google_place_id": "ChIJm6bJs-__ZxARSj7pQ3l34S8"
    }
  },
  {
    "id": "8154",
    "name": "VILLAGE HALL MANTA",
    "registration_area_id": "411",
    "precise_location": null,
    "abbreviation": "027",
    "units": "027",
    "delimitation": "03/01/01/027",
    "remark": "NEW PU",
    "ward_id": "411",
    "ward_name": "ABAK URBAN 1",
    "local_government_id": "39",
    "local_government_name": "ABAK",
    "state_id": "3",
    "state_name": "AKWA IBOM",
    "location": {
      "latitude": 4.9809864,
      "longitude": 7.794274,
      "viewport": {
        "northeast": {
          "lat": 4.982580329892722,
          "lng": 7.795468379892721
        },
        "southwest": {
          "lat": 4.979880670107279,
          "lng": 7.792768720107278
        }
      },
      "formatted_address": "37, Abak Rd, Uyo, Nigeria",
      "google_map_url": "https://maps.google.com?q=4.9809864,7.794274",
      "google_place_id": "ChIJq1dYRND_ZxAR-h9Aj7hN0Vk"
    }
  }
]