[
  {
    "id": "54526",
    "name": "EDEMO COMPOUND - EDEMO COMPOUND",
    "registration_area_id": "2938",
    "precise_location": null,
    "abbreviation": "001",
    "units": "001",
    "delimitation": "13/13/08/001",
    "remark": "EXISTING PU",
    "ward_id": "2938",
    "ward_name": "IROPORA / ESURE / EYIO",
    "local_government_id": "255",
    "local_government_name": "IREPODUN / IFELODUN",
    "state_id": "13",
    "state_name": "EKITI",
    "location": {
      "latitude": 8.1888047,
      "longitude": 4.832864499999999,
      "viewport": {
        "northeast": {
          "lat": 8.190196129892723,
          "lng": 4.834305629892722
        },
        "southwest": {
          "lat": 8.187496470107279,
          "lng": 4.831605970107278
        }
      },
      "formatted_address": "Edemo Compound 251102, Igbonla, Nigeria",
      "google_map_url": "https://maps.google.com?q=8.1888047,4.832864499999999",
      "google_place_id": "ChIJBYAtEYvDNxARM_58JdGeQJ4"
    }
  },
  {
    "id": "54527",
    "name": "OSOTUN COMPOUND - EDEMO COMPOUND",
    "registration_area_id": "2938",
    "precise_location": null,
    "abbreviation": "002",
    "units": "002",
    "delimitation": "13/13/08/002",
    "remark": "EXISTING PU",
    "ward_id": "2938",
    "ward_name": "IROPORA / ESURE / EYIO",
    "local_government_id": "255",
    "local_government_name": "IREPODUN / IFELODUN",
    "state_id": "13",
    "state_name": "EKITI",
    "location": {
      "latitude": 7.6384876,
      "longitude": 5.2024186,
      "viewport": {
        "northeast": {
          "lat": 7.639868129892722,
          "lng": 5.203739429892722
        },
        "southwest": {
          "lat": 7.637168470107278,
          "lng": 5.201039770107278
        }
      },
      "formatted_address": "J6Q2+9XV, 360102, Ado Ekiti, Nigeria",
      "google_map_url": "https://maps.google.com?q=7.6384876,5.2024186",
      "google_place_id": "ChIJq2TYcsP7RxARC8anNZbmNU4"
    }
  },
  {
    "id": "54528",
    "name": "TOWN HALL - TOWN HALL AREA",
    "registration_area_id": "2938",
    "precise_location": null,
    "abbreviation": "003",
    "units": "003",
    "delimitation": "13/13/08/003",
    "remark": "EXISTING PU",
    "ward_id": "2938",
    "ward_name": "IROPORA / ESURE / EYIO",
    "local_government_id": "255",
    "local_government_name": "IREPODUN / IFELODUN",
    "state_id": "13",
    "state_name": "EKITI",
    "location": {
      "latitude": 7.7904444,
      "longitude": 5.245096999999999,
      "viewport": {
        "northeast": {
          "lat": 7.791769829892723,
          "lng": 5.246472879892722
        },
        "southwest": {
          "lat": 7.789070170107279,
          "lng": 5.243773220107278
        }
      },
      "formatted_address": "Q6RW+52H, Iwore Street, 371103, Ifaki, Nigeria",
      "google_map_url": "https://maps.google.com?q=7.7904444,5.245096999999999",
      "google_place_id": "ChIJgV2EKWcISBAREaC1lmKuPAU"
    }
  },
  {
    "id": "54529",
    "name": "OOYE COMPOUND - TOWN HALL AREA",
    "registration_area_id": "2938",
    "precise_location": null,
    "abbreviation": "004",
    "units": "004",
    "delimitation": "13/13/08/004",
    "remark": "EXISTING PU",
    "ward_id": "2938",
    "ward_name": "IROPORA / ESURE / EYIO",
    "local_government_id": "255",
    "local_government_name": "IREPODUN / IFELODUN",
    "state_id": "13",
    "state_name": "EKITI",
    "location": {
      "latitude": 7.682168499999999,
      "longitude": 5.1245766,
      "viewport": {
        "northeast": {
          "lat": 7.683467229892723,
          "lng": 5.126022379892722
        },
        "southwest": {
          "lat": 7.680767570107279,
          "lng": 5.123322720107279
        }
      },
      "formatted_address": "M4JF+VR8, igedora, Igede, Nigeria",
      "google_map_url": "https://maps.google.com?q=7.682168499999999,5.1245766",
      "google_place_id": "ChIJdfeL5Lj-RxARAnDE2TWNKQU"
    }
  },
  {
    "id": "54530",
    "name": "AAFIN COMPOUND - AAFIN COMPOUND",
    "registration_area_id": "2938",
    "precise_location": null,
    "abbreviation": "005",
    "units": "005",
    "delimitation": "13/13/08/005",
    "remark": "EXISTING PU",
    "ward_id": "2938",
    "ward_name": "IROPORA / ESURE / EYIO",
    "local_government_id": "255",
    "local_government_name": "IREPODUN / IFELODUN",
    "state_id": "13",
    "state_name": "EKITI",
    "location": {
      "latitude": 7.8842092,
      "longitude": 5.0670394,
      "viewport": {
        "northeast": {
          "lat": 7.88553182989272,
          "lng": 5.068333229892722
        },
        "southwest": {
          "lat": 7.882832170107276,
          "lng": 5.065633570107278
        }
      },
      "formatted_address": "6FQ93V8M+QMMH 3, MR ADEBISI JAMES HSE, ALEJA STR. AAFIN COMPOUND MR ADEBISI JAMES HSE, ALEJA STR AAFIN, Ijero, Nigeria",
      "google_map_url": "https://maps.google.com?q=7.8842092,5.0670394",
      "google_place_id": "ChIJY68LeMoDSBARhHXge7PxSVw"
    }
  },
  {
    "id": "54531",
    "name": "AROWA COMPOUND - AAFIN COMPOUND",
    "registration_area_id": "2938",
    "precise_location": null,
    "abbreviation": "006",
    "units": "006",
    "delimitation": "13/13/08/006",
    "remark": "EXISTING PU",
    "ward_id": "2938",
    "ward_name": "IROPORA / ESURE / EYIO",
    "local_government_id": "255",
    "local_government_name": "IREPODUN / IFELODUN",
    "state_id": "13",
    "state_name": "EKITI",
    "location": {
      "latitude": 7.682168499999999,
      "longitude": 5.1245766,
      "viewport": {
        "northeast": {
          "lat": 7.683467229892723,
          "lng": 5.126022379892722
        },
        "southwest": {
          "lat": 7.680767570107279,
          "lng": 5.123322720107279
        }
      },
      "formatted_address": "M4JF+VR8, igedora, Igede, Nigeria",
      "google_map_url": "https://maps.google.com?q=7.682168499999999,5.1245766",
      "google_place_id": "ChIJdfeL5Lj-RxARAnDE2TWNKQU"
    }
  },
  {
    "id": "54532",
    "name": "POST OFFICE - POST OFFICE",
    "registration_area_id": "2938",
    "precise_location": null,
    "abbreviation": "007",
    "units": "007",
    "delimitation": "13/13/08/007",
    "remark": "EXISTING PU",
    "ward_id": "2938",
    "ward_name": "IROPORA / ESURE / EYIO",
    "local_government_id": "255",
    "local_government_name": "IREPODUN / IFELODUN",
    "state_id": "13",
    "state_name": "EKITI",
    "location": {
      "latitude": 7.666495199999999,
      "longitude": 5.1283068,
      "viewport": {
        "northeast": {
          "lat": 7.667930879892721,
          "lng": 5.129695429892721
        },
        "southwest": {
          "lat": 7.665231220107277,
          "lng": 5.126995770107277
        }
      },
      "formatted_address": "M48H+H7Q, Ado Ekiti-Igede-Aramoko Rd, 362103, Igede, Nigeria",
      "google_map_url": "https://maps.google.com?q=7.666495199999999,5.1283068",
      "google_place_id": "ChIJ5Z1TvUz5RxARFtjbGB9wEMc"
    }
  },
  {
    "id": "54533",
    "name": "SULE OLA COMPOUND - SULE OLA AREA",
    "registration_area_id": "2938",
    "precise_location": null,
    "abbreviation": "008",
    "units": "008",
    "delimitation": "13/13/08/008",
    "remark": "EXISTING PU",
    "ward_id": "2938",
    "ward_name": "IROPORA / ESURE / EYIO",
    "local_government_id": "255",
    "local_government_name": "IREPODUN / IFELODUN",
    "state_id": "13",
    "state_name": "EKITI",
    "location": {
      "latitude": 7.682168499999999,
      "longitude": 5.1245766,
      "viewport": {
        "northeast": {
          "lat": 7.683467229892723,
          "lng": 5.126022379892722
        },
        "southwest": {
          "lat": 7.680767570107279,
          "lng": 5.123322720107279
        }
      },
      "formatted_address": "M4JF+VR8, igedora, Igede, Nigeria",
      "google_map_url": "https://maps.google.com?q=7.682168499999999,5.1245766",
      "google_place_id": "ChIJdfeL5Lj-RxARAnDE2TWNKQU"
    }
  },
  {
    "id": "54534",
    "name": "ESURE BAPTIST PRIMARY SCHOOL - ESURE  I",
    "registration_area_id": "2938",
    "precise_location": null,
    "abbreviation": "009",
    "units": "009",
    "delimitation": "13/13/08/009",
    "remark": "EXISTING PU",
    "ward_id": "2938",
    "ward_name": "IROPORA / ESURE / EYIO",
    "local_government_id": "255",
    "local_government_name": "IREPODUN / IFELODUN",
    "state_id": "13",
    "state_name": "EKITI",
    "location": null
  },
  {
    "id": "54535",
    "name": "POSTAL AGENCY - ESURE  II",
    "registration_area_id": "2938",
    "precise_location": null,
    "abbreviation": "010",
    "units": "010",
    "delimitation": "13/13/08/010",
    "remark": "EXISTING PU",
    "ward_id": "2938",
    "ward_name": "IROPORA / ESURE / EYIO",
    "local_government_id": "255",
    "local_government_name": "IREPODUN / IFELODUN",
    "state_id": "13",
    "state_name": "EKITI",
    "location": {
      "latitude": 7.682168499999999,
      "longitude": 5.1245766,
      "viewport": {
        "northeast": {
          "lat": 7.683467229892723,
          "lng": 5.126022379892722
        },
        "southwest": {
          "lat": 7.680767570107279,
          "lng": 5.123322720107279
        }
      },
      "formatted_address": "M4JF+VR8, igedora, Igede, Nigeria",
      "google_map_url": "https://maps.google.com?q=7.682168499999999,5.1245766",
      "google_place_id": "ChIJdfeL5Lj-RxARAnDE2TWNKQU"
    }
  },
  {
    "id": "54536",
    "name": "ARAROMI FARM SETTLEMENT - ARAROMI FARM  I",
    "registration_area_id": "2938",
    "precise_location": null,
    "abbreviation": "011",
    "units": "011",
    "delimitation": "13/13/08/011",
    "remark": "EXISTING PU",
    "ward_id": "2938",
    "ward_name": "IROPORA / ESURE / EYIO",
    "local_government_id": "255",
    "local_government_name": "IREPODUN / IFELODUN",
    "state_id": "13",
    "state_name": "EKITI",
    "location": {
      "latitude": 7.6737528,
      "longitude": 5.1940511,
      "viewport": {
        "northeast": {
          "lat": 7.683184000000001,
          "lng": 5.204855999999999
        },
        "southwest": {
          "lat": 7.663322999999999,
          "lng": 5.186275999999999
        }
      },
      "formatted_address": "362103, Araromi-Iyin, Nigeria",
      "google_map_url": "https://maps.google.com?q=7.6737528,5.1940511",
      "google_place_id": "ChIJpWlOTJv8RxARqrdcjV7hG9w"
    }
  },
  {
    "id": "54537",
    "name": "ARAROMI FARM SETTLEMENT - ARAROMI FARM  II",
    "registration_area_id": "2938",
    "precise_location": null,
    "abbreviation": "012",
    "units": "012",
    "delimitation": "13/13/08/012",
    "remark": "EXISTING PU",
    "ward_id": "2938",
    "ward_name": "IROPORA / ESURE / EYIO",
    "local_government_id": "255",
    "local_government_name": "IREPODUN / IFELODUN",
    "state_id": "13",
    "state_name": "EKITI",
    "location": null
  },
  {
    "id": "54538",
    "name": "ST PAUL'S PRIMARY SCHOOL - EYIO  I",
    "registration_area_id": "2938",
    "precise_location": null,
    "abbreviation": "013",
    "units": "013",
    "delimitation": "13/13/08/013",
    "remark": "EXISTING PU",
    "ward_id": "2938",
    "ward_name": "IROPORA / ESURE / EYIO",
    "local_government_id": "255",
    "local_government_name": "IREPODUN / IFELODUN",
    "state_id": "13",
    "state_name": "EKITI",
    "location": {
      "latitude": 7.727659500000001,
      "longitude": 5.2561824,
      "viewport": {
        "northeast": {
          "lat": 7.729030179892721,
          "lng": 5.25750442989272
        },
        "southwest": {
          "lat": 7.726330520107277,
          "lng": 5.254804770107277
        }
      },
      "formatted_address": "P7H4+4CG Unity - Satalite Phase Two, Road, 362103, Iworoko, Nigeria",
      "google_map_url": "https://maps.google.com?q=7.727659500000001,5.2561824",
      "google_place_id": "ChIJN6hPpe3iRxAREpEjQfuYEgs"
    }
  },
  {
    "id": "54539",
    "name": "MATERNITY - EYIO  II",
    "registration_area_id": "2938",
    "precise_location": null,
    "abbreviation": "014",
    "units": "014",
    "delimitation": "13/13/08/014",
    "remark": "EXISTING PU",
    "ward_id": "2938",
    "ward_name": "IROPORA / ESURE / EYIO",
    "local_government_id": "255",
    "local_government_name": "IREPODUN / IFELODUN",
    "state_id": "13",
    "state_name": "EKITI",
    "location": null
  },
  {
    "id": "54540",
    "name": "NEAR MATERNITY - EYIO III",
    "registration_area_id": "2938",
    "precise_location": null,
    "abbreviation": "015",
    "units": "015",
    "delimitation": "13/13/08/015",
    "remark": "EXISTING PU",
    "ward_id": "2938",
    "ward_name": "IROPORA / ESURE / EYIO",
    "local_government_id": "255",
    "local_government_name": "IREPODUN / IFELODUN",
    "state_id": "13",
    "state_name": "EKITI",
    "location": null
  },
  {
    "id": "54541",
    "name": "AAFIN COMPOUND  - EYIO IV",
    "registration_area_id": "2938",
    "precise_location": null,
    "abbreviation": "016",
    "units": "016",
    "delimitation": "13/13/08/016",
    "remark": "EXISTING PU",
    "ward_id": "2938",
    "ward_name": "IROPORA / ESURE / EYIO",
    "local_government_id": "255",
    "local_government_name": "IREPODUN / IFELODUN",
    "state_id": "13",
    "state_name": "EKITI",
    "location": null
  }
]