[
  {
    "id": "4845",
    "name": "DAHRA/ KOFAR JAURO",
    "registration_area_id": "227",
    "precise_location": null,
    "abbreviation": "001",
    "units": "001",
    "delimitation": "02/05/02/001",
    "remark": "EXISTING PU",
    "ward_id": "227",
    "ward_name": "DUWA",
    "local_government_id": "22",
    "local_government_name": "GOMBI",
    "state_id": "2",
    "state_name": "ADAMAWA",
    "location": {
      "latitude": 10.1609151,
      "longitude": 12.7394573,
      "viewport": {
        "northeast": {
          "lat": 10.16225397989272,
          "lng": 12.74080597989272
        },
        "southwest": {
          "lat": 10.15955432010728,
          "lng": 12.73810632010728
        }
      },
      "formatted_address": "5P6Q+9QP, 642116, Balda, Nigeria",
      "google_map_url": "https://maps.google.com?q=10.1609151,12.7394573",
      "google_place_id": "ChIJDb7Dg_id_RARIV8fA9ANdqA"
    }
  },
  {
    "id": "4846",
    "name": "DUWAGARI/ PRY. SCH.",
    "registration_area_id": "227",
    "precise_location": null,
    "abbreviation": "002",
    "units": "002",
    "delimitation": "02/05/02/002",
    "remark": "EXISTING PU",
    "ward_id": "227",
    "ward_name": "DUWA",
    "local_government_id": "22",
    "local_government_name": "GOMBI",
    "state_id": "2",
    "state_name": "ADAMAWA",
    "location": {
      "latitude": 10.1558887,
      "longitude": 12.7368452,
      "viewport": {
        "northeast": {
          "lat": 10.15723462989272,
          "lng": 12.73812042989272
        },
        "southwest": {
          "lat": 10.15453497010728,
          "lng": 12.73542077010728
        }
      },
      "formatted_address": "5P3M+CC, Biu Rd, Gombi 642116, Balda, Nigeria",
      "google_map_url": "https://maps.google.com?q=10.1558887,12.7368452",
      "google_place_id": "ChIJK44Zgy-d_RARFBPLbmllCJ0"
    }
  },
  {
    "id": "4847",
    "name": "FOTTA/ FOTTA PRY. SCH.",
    "registration_area_id": "227",
    "precise_location": null,
    "abbreviation": "003",
    "units": "003",
    "delimitation": "02/05/02/003",
    "remark": "EXISTING PU",
    "ward_id": "227",
    "ward_name": "DUWA",
    "local_government_id": "22",
    "local_government_name": "GOMBI",
    "state_id": "2",
    "state_name": "ADAMAWA",
    "location": {
      "latitude": 10.1558887,
      "longitude": 12.7368452,
      "viewport": {
        "northeast": {
          "lat": 10.15723462989272,
          "lng": 12.73812042989272
        },
        "southwest": {
          "lat": 10.15453497010728,
          "lng": 12.73542077010728
        }
      },
      "formatted_address": "5P3M+CC, Biu Rd, Gombi 642116, Balda, Nigeria",
      "google_map_url": "https://maps.google.com?q=10.1558887,12.7368452",
      "google_place_id": "ChIJK44Zgy-d_RARFBPLbmllCJ0"
    }
  },
  {
    "id": "4848",
    "name": "FOTTA/ FOTTA CLINIC",
    "registration_area_id": "227",
    "precise_location": null,
    "abbreviation": "004",
    "units": "004",
    "delimitation": "02/05/02/004",
    "remark": "EXISTING PU",
    "ward_id": "227",
    "ward_name": "DUWA",
    "local_government_id": "22",
    "local_government_name": "GOMBI",
    "state_id": "2",
    "state_name": "ADAMAWA",
    "location": {
      "latitude": 10.1614106,
      "longitude": 12.7378421,
      "viewport": {
        "northeast": {
          "lat": 10.16286277989272,
          "lng": 12.73920257989272
        },
        "southwest": {
          "lat": 10.16016312010728,
          "lng": 12.73650292010728
        }
      },
      "formatted_address": "5P6Q+H48, 642116, Balda, Nigeria",
      "google_map_url": "https://maps.google.com?q=10.1614106,12.7378421",
      "google_place_id": "ChIJcQXYhNid_RARCJGcYopCTx4"
    }
  },
  {
    "id": "4849",
    "name": "JARABOI/ KOFAR JAURO",
    "registration_area_id": "227",
    "precise_location": null,
    "abbreviation": "005",
    "units": "005",
    "delimitation": "02/05/02/005",
    "remark": "EXISTING PU",
    "ward_id": "227",
    "ward_name": "DUWA",
    "local_government_id": "22",
    "local_government_name": "GOMBI",
    "state_id": "2",
    "state_name": "ADAMAWA",
    "location": {
      "latitude": 10.1609151,
      "longitude": 12.7394573,
      "viewport": {
        "northeast": {
          "lat": 10.16225397989272,
          "lng": 12.74080597989272
        },
        "southwest": {
          "lat": 10.15955432010728,
          "lng": 12.73810632010728
        }
      },
      "formatted_address": "5P6Q+9QP, 642116, Balda, Nigeria",
      "google_map_url": "https://maps.google.com?q=10.1609151,12.7394573",
      "google_place_id": "ChIJDb7Dg_id_RARIV8fA9ANdqA"
    }
  },
  {
    "id": "4850",
    "name": "JERE/ KOFAR JAURO",
    "registration_area_id": "227",
    "precise_location": null,
    "abbreviation": "006",
    "units": "006",
    "delimitation": "02/05/02/006",
    "remark": "EXISTING PU",
    "ward_id": "227",
    "ward_name": "DUWA",
    "local_government_id": "22",
    "local_government_name": "GOMBI",
    "state_id": "2",
    "state_name": "ADAMAWA",
    "location": {
      "latitude": 10.1609151,
      "longitude": 12.7394573,
      "viewport": {
        "northeast": {
          "lat": 10.16225397989272,
          "lng": 12.74080597989272
        },
        "southwest": {
          "lat": 10.15955432010728,
          "lng": 12.73810632010728
        }
      },
      "formatted_address": "5P6Q+9QP, 642116, Balda, Nigeria",
      "google_map_url": "https://maps.google.com?q=10.1609151,12.7394573",
      "google_place_id": "ChIJDb7Dg_id_RARIV8fA9ANdqA"
    }
  },
  {
    "id": "4851",
    "name": "KIRO/ KOFAR JAURO",
    "registration_area_id": "227",
    "precise_location": null,
    "abbreviation": "007",
    "units": "007",
    "delimitation": "02/05/02/007",
    "remark": "EXISTING PU",
    "ward_id": "227",
    "ward_name": "DUWA",
    "local_government_id": "22",
    "local_government_name": "GOMBI",
    "state_id": "2",
    "state_name": "ADAMAWA",
    "location": {
      "latitude": 10.1609151,
      "longitude": 12.7394573,
      "viewport": {
        "northeast": {
          "lat": 10.16225397989272,
          "lng": 12.74080597989272
        },
        "southwest": {
          "lat": 10.15955432010728,
          "lng": 12.73810632010728
        }
      },
      "formatted_address": "5P6Q+9QP, 642116, Balda, Nigeria",
      "google_map_url": "https://maps.google.com?q=10.1609151,12.7394573",
      "google_place_id": "ChIJDb7Dg_id_RARIV8fA9ANdqA"
    }
  },
  {
    "id": "4852",
    "name": "LEME FULANI/ KOFAR JAURO",
    "registration_area_id": "227",
    "precise_location": null,
    "abbreviation": "008",
    "units": "008",
    "delimitation": "02/05/02/008",
    "remark": "EXISTING PU",
    "ward_id": "227",
    "ward_name": "DUWA",
    "local_government_id": "22",
    "local_government_name": "GOMBI",
    "state_id": "2",
    "state_name": "ADAMAWA",
    "location": null
  },
  {
    "id": "4853",
    "name": "RIJI/ PRY. SCH.",
    "registration_area_id": "227",
    "precise_location": null,
    "abbreviation": "009",
    "units": "009",
    "delimitation": "02/05/02/009",
    "remark": "EXISTING PU",
    "ward_id": "227",
    "ward_name": "DUWA",
    "local_government_id": "22",
    "local_government_name": "GOMBI",
    "state_id": "2",
    "state_name": "ADAMAWA",
    "location": {
      "latitude": 10.1558887,
      "longitude": 12.7368452,
      "viewport": {
        "northeast": {
          "lat": 10.15723462989272,
          "lng": 12.73812042989272
        },
        "southwest": {
          "lat": 10.15453497010728,
          "lng": 12.73542077010728
        }
      },
      "formatted_address": "5P3M+CC, Biu Rd, Gombi 642116, Balda, Nigeria",
      "google_map_url": "https://maps.google.com?q=10.1558887,12.7368452",
      "google_place_id": "ChIJK44Zgy-d_RARFBPLbmllCJ0"
    }
  },
  {
    "id": "4854",
    "name": "FOTTA CLINIC",
    "registration_area_id": "227",
    "precise_location": null,
    "abbreviation": "010",
    "units": "010",
    "delimitation": "02/05/02/010",
    "remark": "NEW PU",
    "ward_id": "227",
    "ward_name": "DUWA",
    "local_government_id": "22",
    "local_government_name": "GOMBI",
    "state_id": "2",
    "state_name": "ADAMAWA",
    "location": {
      "latitude": 10.1614106,
      "longitude": 12.7378421,
      "viewport": {
        "northeast": {
          "lat": 10.16286277989272,
          "lng": 12.73920257989272
        },
        "southwest": {
          "lat": 10.16016312010728,
          "lng": 12.73650292010728
        }
      },
      "formatted_address": "5P6Q+H48, 642116, Balda, Nigeria",
      "google_map_url": "https://maps.google.com?q=10.1614106,12.7378421",
      "google_place_id": "ChIJcQXYhNid_RARCJGcYopCTx4"
    }
  },
  {
    "id": "4855",
    "name": "DUWA GARI PRY SCH",
    "registration_area_id": "227",
    "precise_location": null,
    "abbreviation": "011",
    "units": "011",
    "delimitation": "02/05/02/011",
    "remark": "NEW PU",
    "ward_id": "227",
    "ward_name": "DUWA",
    "local_government_id": "22",
    "local_government_name": "GOMBI",
    "state_id": "2",
    "state_name": "ADAMAWA",
    "location": {
      "latitude": 10.1558887,
      "longitude": 12.7368452,
      "viewport": {
        "northeast": {
          "lat": 10.15723462989272,
          "lng": 12.73812042989272
        },
        "southwest": {
          "lat": 10.15453497010728,
          "lng": 12.73542077010728
        }
      },
      "formatted_address": "5P3M+CC, Biu Rd, Gombi 642116, Balda, Nigeria",
      "google_map_url": "https://maps.google.com?q=10.1558887,12.7368452",
      "google_place_id": "ChIJK44Zgy-d_RARFBPLbmllCJ0"
    }
  },
  {
    "id": "4856",
    "name": "RIJI PRY SCH",
    "registration_area_id": "227",
    "precise_location": null,
    "abbreviation": "012",
    "units": "012",
    "delimitation": "02/05/02/012",
    "remark": "NEW PU",
    "ward_id": "227",
    "ward_name": "DUWA",
    "local_government_id": "22",
    "local_government_name": "GOMBI",
    "state_id": "2",
    "state_name": "ADAMAWA",
    "location": {
      "latitude": 10.1558887,
      "longitude": 12.7368452,
      "viewport": {
        "northeast": {
          "lat": 10.15723462989272,
          "lng": 12.73812042989272
        },
        "southwest": {
          "lat": 10.15453497010728,
          "lng": 12.73542077010728
        }
      },
      "formatted_address": "5P3M+CC, Biu Rd, Gombi 642116, Balda, Nigeria",
      "google_map_url": "https://maps.google.com?q=10.1558887,12.7368452",
      "google_place_id": "ChIJK44Zgy-d_RARFBPLbmllCJ0"
    }
  }
]