[
  {
    "id": "5831",
    "name": "ARDO AHMADU/ DEV. AREA OFFICE",
    "registration_area_id": "284",
    "precise_location": null,
    "abbreviation": "001",
    "units": "001",
    "delimitation": "02/10/06/001",
    "remark": "EXISTING PU",
    "ward_id": "284",
    "ward_name": "MADAGALI",
    "local_government_id": "27",
    "local_government_name": "MADAGALI",
    "state_id": "2",
    "state_name": "ADAMAWA",
    "location": {
      "latitude": 10.8930406,
      "longitude": 13.6149217,
      "viewport": {
        "northeast": {
          "lat": 10.89409957989272,
          "lng": 13.61635552989272
        },
        "southwest": {
          "lat": 10.89139992010728,
          "lng": 13.61365587010728
        }
      },
      "formatted_address": "VJV7+6X7, 651102, Madagali, Nigeria",
      "google_map_url": "https://maps.google.com?q=10.8930406,13.6149217",
      "google_place_id": "ChIJdaHVlcktHRERFWxUp3Ut-Ig"
    }
  },
  {
    "id": "5832",
    "name": "BURHANG I/ NEAR LAWAN'S AREA I",
    "registration_area_id": "284",
    "precise_location": null,
    "abbreviation": "002",
    "units": "002",
    "delimitation": "02/10/06/002",
    "remark": "EXISTING PU",
    "ward_id": "284",
    "ward_name": "MADAGALI",
    "local_government_id": "27",
    "local_government_name": "MADAGALI",
    "state_id": "2",
    "state_name": "ADAMAWA",
    "location": null
  },
  {
    "id": "5833",
    "name": "BURHANG II/ NEAR LAWAN'S AREA II",
    "registration_area_id": "284",
    "precise_location": null,
    "abbreviation": "003",
    "units": "003",
    "delimitation": "02/10/06/003",
    "remark": "EXISTING PU",
    "ward_id": "284",
    "ward_name": "MADAGALI",
    "local_government_id": "27",
    "local_government_name": "MADAGALI",
    "state_id": "2",
    "state_name": "ADAMAWA",
    "location": null
  },
  {
    "id": "5834",
    "name": "DISA/ DISA OPEN SQUARE",
    "registration_area_id": "284",
    "precise_location": null,
    "abbreviation": "004",
    "units": "004",
    "delimitation": "02/10/06/004",
    "remark": "EXISTING PU",
    "ward_id": "284",
    "ward_name": "MADAGALI",
    "local_government_id": "27",
    "local_government_name": "MADAGALI",
    "state_id": "2",
    "state_name": "ADAMAWA",
    "location": null
  },
  {
    "id": "5835",
    "name": "HUMSHI/ ARDO'S OPEN FIELD",
    "registration_area_id": "284",
    "precise_location": null,
    "abbreviation": "005",
    "units": "005",
    "delimitation": "02/10/06/005",
    "remark": "EXISTING PU",
    "ward_id": "284",
    "ward_name": "MADAGALI",
    "local_government_id": "27",
    "local_government_name": "MADAGALI",
    "state_id": "2",
    "state_name": "ADAMAWA",
    "location": {
      "latitude": 10.897991,
      "longitude": 13.62895,
      "viewport": {
        "northeast": {
          "lat": 10.89930932989272,
          "lng": 13.63029457989272
        },
        "southwest": {
          "lat": 10.89660967010728,
          "lng": 13.62759492010728
        }
      },
      "formatted_address": "OPP SHUWA SHOPPING COMPLEX SHUWA, LGA#, Madagali, Nigeria",
      "google_map_url": "https://maps.google.com?q=10.897991,13.62895",
      "google_place_id": "ChIJQeNnGSctHRERA4M3LLxF3R4"
    }
  },
  {
    "id": "5836",
    "name": "HURGO/ HURGO PRY. SCH.",
    "registration_area_id": "284",
    "precise_location": null,
    "abbreviation": "006",
    "units": "006",
    "delimitation": "02/10/06/006",
    "remark": "EXISTING PU",
    "ward_id": "284",
    "ward_name": "MADAGALI",
    "local_government_id": "27",
    "local_government_name": "MADAGALI",
    "state_id": "2",
    "state_name": "ADAMAWA",
    "location": {
      "latitude": 10.8964234,
      "longitude": 13.6166379,
      "viewport": {
        "northeast": {
          "lat": 10.89756857989272,
          "lng": 13.61801477989272
        },
        "southwest": {
          "lat": 10.89486892010728,
          "lng": 13.61531512010728
        }
      },
      "formatted_address": "VJW8+HJC, A4, 651102, Madagali, Nigeria",
      "google_map_url": "https://maps.google.com?q=10.8964234,13.6166379",
      "google_place_id": "ChIJxfVuf0EtHRERQtzxp43HAjI"
    }
  },
  {
    "id": "5837",
    "name": "IJAFARU I/ GSS MADAGALI",
    "registration_area_id": "284",
    "precise_location": null,
    "abbreviation": "007",
    "units": "007",
    "delimitation": "02/10/06/007",
    "remark": "EXISTING PU",
    "ward_id": "284",
    "ward_name": "MADAGALI",
    "local_government_id": "27",
    "local_government_name": "MADAGALI",
    "state_id": "2",
    "state_name": "ADAMAWA",
    "location": {
      "latitude": 10.8964234,
      "longitude": 13.6166379,
      "viewport": {
        "northeast": {
          "lat": 10.89756857989272,
          "lng": 13.61801477989272
        },
        "southwest": {
          "lat": 10.89486892010728,
          "lng": 13.61531512010728
        }
      },
      "formatted_address": "VJW8+HJC, A4, 651102, Madagali, Nigeria",
      "google_map_url": "https://maps.google.com?q=10.8964234,13.6166379",
      "google_place_id": "ChIJxfVuf0EtHRERQtzxp43HAjI"
    }
  },
  {
    "id": "5838",
    "name": "IJAFARU II/ GSS MADAGALI",
    "registration_area_id": "284",
    "precise_location": null,
    "abbreviation": "008",
    "units": "008",
    "delimitation": "02/10/06/008",
    "remark": "EXISTING PU",
    "ward_id": "284",
    "ward_name": "MADAGALI",
    "local_government_id": "27",
    "local_government_name": "MADAGALI",
    "state_id": "2",
    "state_name": "ADAMAWA",
    "location": null
  },
  {
    "id": "5839",
    "name": "KAIGAMA/ OPEN SQUARE",
    "registration_area_id": "284",
    "precise_location": null,
    "abbreviation": "009",
    "units": "009",
    "delimitation": "02/10/06/009",
    "remark": "EXISTING PU",
    "ward_id": "284",
    "ward_name": "MADAGALI",
    "local_government_id": "27",
    "local_government_name": "MADAGALI",
    "state_id": "2",
    "state_name": "ADAMAWA",
    "location": {
      "latitude": 10.87729,
      "longitude": 13.5611367,
      "viewport": {
        "northeast": {
          "lat": 10.87812567989272,
          "lng": 13.56274022989272
        },
        "southwest": {
          "lat": 10.87542602010728,
          "lng": 13.56004057010728
        }
      },
      "formatted_address": "VHG6+WF6, 651102, Madagali, Nigeria",
      "google_map_url": "https://maps.google.com?q=10.87729,13.5611367",
      "google_place_id": "ChIJ8TRA5P0tHRERk2TOENe6FaU"
    }
  },
  {
    "id": "5840",
    "name": "SABON GARI I/ GSS MADAGALI",
    "registration_area_id": "284",
    "precise_location": null,
    "abbreviation": "010",
    "units": "010",
    "delimitation": "02/10/06/010",
    "remark": "EXISTING PU",
    "ward_id": "284",
    "ward_name": "MADAGALI",
    "local_government_id": "27",
    "local_government_name": "MADAGALI",
    "state_id": "2",
    "state_name": "ADAMAWA",
    "location": {
      "latitude": 10.8995102,
      "longitude": 13.6180303,
      "viewport": {
        "northeast": {
          "lat": 10.90090677989272,
          "lng": 13.61953527989272
        },
        "southwest": {
          "lat": 10.89820712010728,
          "lng": 13.61683562010728
        }
      },
      "formatted_address": "VJX9+R62, 651102, Madagali, Nigeria",
      "google_map_url": "https://maps.google.com?q=10.8995102,13.6180303",
      "google_place_id": "ChIJWaFqr_stHRERo5PoJ5RTsbw"
    }
  },
  {
    "id": "5841",
    "name": "SABON GARI II/ GSS MADAGALI",
    "registration_area_id": "284",
    "precise_location": null,
    "abbreviation": "011",
    "units": "011",
    "delimitation": "02/10/06/011",
    "remark": "EXISTING PU",
    "ward_id": "284",
    "ward_name": "MADAGALI",
    "local_government_id": "27",
    "local_government_name": "MADAGALI",
    "state_id": "2",
    "state_name": "ADAMAWA",
    "location": {
      "latitude": 10.8995102,
      "longitude": 13.6180303,
      "viewport": {
        "northeast": {
          "lat": 10.90090677989272,
          "lng": 13.61953527989272
        },
        "southwest": {
          "lat": 10.89820712010728,
          "lng": 13.61683562010728
        }
      },
      "formatted_address": "VJX9+R62, 651102, Madagali, Nigeria",
      "google_map_url": "https://maps.google.com?q=10.8995102,13.6180303",
      "google_place_id": "ChIJWaFqr_stHRERo5PoJ5RTsbw"
    }
  },
  {
    "id": "5842",
    "name": "SABON LAYI I/ SABON LAYI PRY. SCH.",
    "registration_area_id": "284",
    "precise_location": null,
    "abbreviation": "012",
    "units": "012",
    "delimitation": "02/10/06/012",
    "remark": "EXISTING PU",
    "ward_id": "284",
    "ward_name": "MADAGALI",
    "local_government_id": "27",
    "local_government_name": "MADAGALI",
    "state_id": "2",
    "state_name": "ADAMAWA",
    "location": {
      "latitude": 10.8995102,
      "longitude": 13.6180303,
      "viewport": {
        "northeast": {
          "lat": 10.90090677989272,
          "lng": 13.61953527989272
        },
        "southwest": {
          "lat": 10.89820712010728,
          "lng": 13.61683562010728
        }
      },
      "formatted_address": "VJX9+R62, 651102, Madagali, Nigeria",
      "google_map_url": "https://maps.google.com?q=10.8995102,13.6180303",
      "google_place_id": "ChIJWaFqr_stHRERo5PoJ5RTsbw"
    }
  },
  {
    "id": "5843",
    "name": "SABON LAYI II/ SABON LAYI PRY. SCH.",
    "registration_area_id": "284",
    "precise_location": null,
    "abbreviation": "013",
    "units": "013",
    "delimitation": "02/10/06/013",
    "remark": "EXISTING PU",
    "ward_id": "284",
    "ward_name": "MADAGALI",
    "local_government_id": "27",
    "local_government_name": "MADAGALI",
    "state_id": "2",
    "state_name": "ADAMAWA",
    "location": {
      "latitude": 10.8995102,
      "longitude": 13.6180303,
      "viewport": {
        "northeast": {
          "lat": 10.90090677989272,
          "lng": 13.61953527989272
        },
        "southwest": {
          "lat": 10.89820712010728,
          "lng": 13.61683562010728
        }
      },
      "formatted_address": "VJX9+R62, 651102, Madagali, Nigeria",
      "google_map_url": "https://maps.google.com?q=10.8995102,13.6180303",
      "google_place_id": "ChIJWaFqr_stHRERo5PoJ5RTsbw"
    }
  },
  {
    "id": "5844",
    "name": "VISIK MATAKAM/ OPEN SQUARE",
    "registration_area_id": "284",
    "precise_location": null,
    "abbreviation": "014",
    "units": "014",
    "delimitation": "02/10/06/014",
    "remark": "EXISTING PU",
    "ward_id": "284",
    "ward_name": "MADAGALI",
    "local_government_id": "27",
    "local_government_name": "MADAGALI",
    "state_id": "2",
    "state_name": "ADAMAWA",
    "location": null
  },
  {
    "id": "5845",
    "name": "VISIK YALE/ VISIK PRY. SCH.",
    "registration_area_id": "284",
    "precise_location": null,
    "abbreviation": "015",
    "units": "015",
    "delimitation": "02/10/06/015",
    "remark": "EXISTING PU",
    "ward_id": "284",
    "ward_name": "MADAGALI",
    "local_government_id": "27",
    "local_government_name": "MADAGALI",
    "state_id": "2",
    "state_name": "ADAMAWA",
    "location": {
      "latitude": 10.8883901,
      "longitude": 13.6308529,
      "viewport": {
        "northeast": {
          "lat": 10.88960482989272,
          "lng": 13.63210517989272
        },
        "southwest": {
          "lat": 10.88690517010728,
          "lng": 13.62940552010728
        }
      },
      "formatted_address": "VJQJ+97G, Gadamahol Road, 651102, Madagali, Nigeria",
      "google_map_url": "https://maps.google.com?q=10.8883901,13.6308529",
      "google_place_id": "ChIJQ4U-GQItHRERi9OYeDOx2iI"
    }
  },
  {
    "id": "5846",
    "name": "UNDER NEEM TREE",
    "registration_area_id": "284",
    "precise_location": null,
    "abbreviation": "016",
    "units": "016",
    "delimitation": "02/10/06/016",
    "remark": "NEW PU",
    "ward_id": "284",
    "ward_name": "MADAGALI",
    "local_government_id": "27",
    "local_government_name": "MADAGALI",
    "state_id": "2",
    "state_name": "ADAMAWA",
    "location": {
      "latitude": 10.7370077,
      "longitude": 13.5688018,
      "viewport": {
        "northeast": {
          "lat": 10.73832267989272,
          "lng": 13.57014937989272
        },
        "southwest": {
          "lat": 10.73562302010728,
          "lng": 13.56744972010728
        }
      },
      "formatted_address": "PHP9+RG3, 651112, Damai, Nigeria",
      "google_map_url": "https://maps.google.com?q=10.7370077,13.5688018",
      "google_place_id": "ChIJ78mzceg0HRERp2PESukfdhg"
    }
  },
  {
    "id": "5847",
    "name": "AMINAL MKT SQUARE",
    "registration_area_id": "284",
    "precise_location": null,
    "abbreviation": "017",
    "units": "017",
    "delimitation": "02/10/06/017",
    "remark": "NEW PU",
    "ward_id": "284",
    "ward_name": "MADAGALI",
    "local_government_id": "27",
    "local_government_name": "MADAGALI",
    "state_id": "2",
    "state_name": "ADAMAWA",
    "location": {
      "latitude": 10.7461338,
      "longitude": 13.4141617,
      "viewport": {
        "northeast": {
          "lat": 10.74749432989272,
          "lng": 13.41541802989272
        },
        "southwest": {
          "lat": 10.74479467010728,
          "lng": 13.41271837010728
        }
      },
      "formatted_address": "103, GULAK ROAD DISTRIBUTION MADAGALI LGA#ADAMAWA STATE, Madagali, Nigeria",
      "google_map_url": "https://maps.google.com?q=10.7461338,13.4141617",
      "google_place_id": "ChIJ44f5U-3JAhERX1a-I4NuUJE"
    }
  },
  {
    "id": "5848",
    "name": "HAMMAJAM COMM.",
    "registration_area_id": "284",
    "precise_location": null,
    "abbreviation": "018",
    "units": "018",
    "delimitation": "02/10/06/018",
    "remark": "NEW PU",
    "ward_id": "284",
    "ward_name": "MADAGALI",
    "local_government_id": "27",
    "local_government_name": "MADAGALI",
    "state_id": "2",
    "state_name": "ADAMAWA",
    "location": null
  },
  {
    "id": "5849",
    "name": "NEAR SAIDU WANZAM",
    "registration_area_id": "284",
    "precise_location": null,
    "abbreviation": "019",
    "units": "019",
    "delimitation": "02/10/06/019",
    "remark": "NEW PU",
    "ward_id": "284",
    "ward_name": "MADAGALI",
    "local_government_id": "27",
    "local_government_name": "MADAGALI",
    "state_id": "2",
    "state_name": "ADAMAWA",
    "location": {
      "latitude": 10.8827885,
      "longitude": 13.6360906,
      "viewport": {
        "northeast": {
          "lat": 10.88405187989272,
          "lng": 13.63753532989272
        },
        "southwest": {
          "lat": 10.88135222010728,
          "lng": 13.63483567010728
        }
      },
      "formatted_address": "651102, Madagali, Nigeria",
      "google_map_url": "https://maps.google.com?q=10.8827885,13.6360906",
      "google_place_id": "ChIJ59RnJ9ktHRERdm2jfzntKeI"
    }
  },
  {
    "id": "5850",
    "name": "ARDO BORE HOLE",
    "registration_area_id": "284",
    "precise_location": null,
    "abbreviation": "020",
    "units": "020",
    "delimitation": "02/10/06/020",
    "remark": "NEW PU",
    "ward_id": "284",
    "ward_name": "MADAGALI",
    "local_government_id": "27",
    "local_government_name": "MADAGALI",
    "state_id": "2",
    "state_name": "ADAMAWA",
    "location": null
  },
  {
    "id": "5851",
    "name": "REB POWER STATION",
    "registration_area_id": "284",
    "precise_location": null,
    "abbreviation": "021",
    "units": "021",
    "delimitation": "02/10/06/021",
    "remark": "NEW PU",
    "ward_id": "284",
    "ward_name": "MADAGALI",
    "local_government_id": "27",
    "local_government_name": "MADAGALI",
    "state_id": "2",
    "state_name": "ADAMAWA",
    "location": {
      "latitude": 10.898629,
      "longitude": 13.6301925,
      "viewport": {
        "northeast": {
          "lat": 10.89994602989272,
          "lng": 13.63154362989272
        },
        "southwest": {
          "lat": 10.89724637010728,
          "lng": 13.62884397010728
        }
      },
      "formatted_address": "VJXJ+F34, A4, 651102, Madagali, Nigeria",
      "google_map_url": "https://maps.google.com?q=10.898629,13.6301925",
      "google_place_id": "ChIJcYigQ38tHRERTxggoV9JroI"
    }
  },
  {
    "id": "5852",
    "name": "AIRTEL ANTENNA",
    "registration_area_id": "284",
    "precise_location": null,
    "abbreviation": "022",
    "units": "022",
    "delimitation": "02/10/06/022",
    "remark": "NEW PU",
    "ward_id": "284",
    "ward_name": "MADAGALI",
    "local_government_id": "27",
    "local_government_name": "MADAGALI",
    "state_id": "2",
    "state_name": "ADAMAWA",
    "location": null
  },
  {
    "id": "5853",
    "name": "G.S.S MADAGALI",
    "registration_area_id": "284",
    "precise_location": null,
    "abbreviation": "023",
    "units": "023",
    "delimitation": "02/10/06/023",
    "remark": "NEW PU",
    "ward_id": "284",
    "ward_name": "MADAGALI",
    "local_government_id": "27",
    "local_government_name": "MADAGALI",
    "state_id": "2",
    "state_name": "ADAMAWA",
    "location": {
      "latitude": 10.8964234,
      "longitude": 13.6166379,
      "viewport": {
        "northeast": {
          "lat": 10.89756857989272,
          "lng": 13.61801477989272
        },
        "southwest": {
          "lat": 10.89486892010728,
          "lng": 13.61531512010728
        }
      },
      "formatted_address": "VJW8+HJC, A4, 651102, Madagali, Nigeria",
      "google_map_url": "https://maps.google.com?q=10.8964234,13.6166379",
      "google_place_id": "ChIJxfVuf0EtHRERQtzxp43HAjI"
    }
  },
  {
    "id": "5854",
    "name": "G.S.S MADAGALI",
    "registration_area_id": "284",
    "precise_location": null,
    "abbreviation": "024",
    "units": "024",
    "delimitation": "02/10/06/024",
    "remark": "NEW PU",
    "ward_id": "284",
    "ward_name": "MADAGALI",
    "local_government_id": "27",
    "local_government_name": "MADAGALI",
    "state_id": "2",
    "state_name": "ADAMAWA",
    "location": {
      "latitude": 10.8964234,
      "longitude": 13.6166379,
      "viewport": {
        "northeast": {
          "lat": 10.89756857989272,
          "lng": 13.61801477989272
        },
        "southwest": {
          "lat": 10.89486892010728,
          "lng": 13.61531512010728
        }
      },
      "formatted_address": "VJW8+HJC, A4, 651102, Madagali, Nigeria",
      "google_map_url": "https://maps.google.com?q=10.8964234,13.6166379",
      "google_place_id": "ChIJxfVuf0EtHRERQtzxp43HAjI"
    }
  }
]