[
  {
    "id": "62222",
    "name": "COMMUNITY SCHOOL, AMAOHURU",
    "registration_area_id": "3352",
    "precise_location": null,
    "abbreviation": "001",
    "units": "001",
    "delimitation": "16/01/04/001",
    "remark": "EXISTING PU",
    "ward_id": "3352",
    "ward_name": "NGURU-NWEKE",
    "local_government_id": "293",
    "local_government_name": "ABOH MBAISE",
    "state_id": "16",
    "state_name": "IMO",
    "location": {
      "latitude": 5.4810371,
      "longitude": 7.2469412,
      "viewport": {
        "northeast": {
          "lat": 5.482613879892722,
          "lng": 7.248258579892721
        },
        "southwest": {
          "lat": 5.479914220107278,
          "lng": 7.245558920107277
        }
      },
      "formatted_address": "F6JW+CQ8, 462103, Umuezee Ezuhu Nguru, Nigeria",
      "google_map_url": "https://maps.google.com?q=5.4810371,7.2469412",
      "google_place_id": "ChIJkdFuBq_xQhARqk8Okxjzw6o"
    }
  },
  {
    "id": "62223",
    "name": "UKAONU UGAA HALL",
    "registration_area_id": "3352",
    "precise_location": null,
    "abbreviation": "002",
    "units": "002",
    "delimitation": "16/01/04/002",
    "remark": "EXISTING PU",
    "ward_id": "3352",
    "ward_name": "NGURU-NWEKE",
    "local_government_id": "293",
    "local_government_name": "ABOH MBAISE",
    "state_id": "16",
    "state_name": "IMO",
    "location": {
      "latitude": 5.5333374,
      "longitude": 7.3261565,
      "viewport": {
        "northeast": {
          "lat": 5.534633129892722,
          "lng": 7.327605279892723
        },
        "southwest": {
          "lat": 5.531933470107278,
          "lng": 7.32490562010728
        }
      },
      "formatted_address": "St Andrew's Primary School, Road, 462122, Nigeria",
      "google_map_url": "https://maps.google.com?q=5.5333374,7.3261565",
      "google_place_id": "ChIJOYvQYeblQhARjPnE3dd0Afg"
    }
  },
  {
    "id": "62224",
    "name": "UMUEZEAMA HALL",
    "registration_area_id": "3352",
    "precise_location": null,
    "abbreviation": "003",
    "units": "003",
    "delimitation": "16/01/04/003",
    "remark": "EXISTING PU",
    "ward_id": "3352",
    "ward_name": "NGURU-NWEKE",
    "local_government_id": "293",
    "local_government_name": "ABOH MBAISE",
    "state_id": "16",
    "state_name": "IMO",
    "location": {
      "latitude": 5.4891066,
      "longitude": 7.215481899999999,
      "viewport": {
        "northeast": {
          "lat": 5.490423479892722,
          "lng": 7.21676742989272
        },
        "southwest": {
          "lat": 5.487723820107278,
          "lng": 7.214067770107276
        }
      },
      "formatted_address": "F6Q8+J5X, Ọgwụ/Umuoda Road, Oboama, Nigeria",
      "google_map_url": "https://maps.google.com?q=5.4891066,7.215481899999999",
      "google_place_id": "ChIJA2wwTIzxQhARWSKPrhRv_gk"
    }
  },
  {
    "id": "62225",
    "name": "CHOKONEZE HALL",
    "registration_area_id": "3352",
    "precise_location": null,
    "abbreviation": "004",
    "units": "004",
    "delimitation": "16/01/04/004",
    "remark": "EXISTING PU",
    "ward_id": "3352",
    "ward_name": "NGURU-NWEKE",
    "local_government_id": "293",
    "local_government_name": "ABOH MBAISE",
    "state_id": "16",
    "state_name": "IMO",
    "location": {
      "latitude": 5.4891066,
      "longitude": 7.215481899999999,
      "viewport": {
        "northeast": {
          "lat": 5.490423479892722,
          "lng": 7.21676742989272
        },
        "southwest": {
          "lat": 5.487723820107278,
          "lng": 7.214067770107276
        }
      },
      "formatted_address": "F6Q8+J5X, Ọgwụ/Umuoda Road, Oboama, Nigeria",
      "google_map_url": "https://maps.google.com?q=5.4891066,7.215481899999999",
      "google_place_id": "ChIJA2wwTIzxQhARWSKPrhRv_gk"
    }
  },
  {
    "id": "62226",
    "name": "GROUP SCHOOL EZUHU",
    "registration_area_id": "3352",
    "precise_location": null,
    "abbreviation": "005",
    "units": "005",
    "delimitation": "16/01/04/005",
    "remark": "EXISTING PU",
    "ward_id": "3352",
    "ward_name": "NGURU-NWEKE",
    "local_government_id": "293",
    "local_government_name": "ABOH MBAISE",
    "state_id": "16",
    "state_name": "IMO",
    "location": {
      "latitude": 5.4831183,
      "longitude": 7.266167299999999,
      "viewport": {
        "northeast": {
          "lat": 5.484782129892722,
          "lng": 7.267568529892722
        },
        "southwest": {
          "lat": 5.482082470107279,
          "lng": 7.264868870107278
        }
      },
      "formatted_address": "F7M8+6F, 470110, Umuezee Ezuhu Nguru, Nigeria",
      "google_map_url": "https://maps.google.com?q=5.4831183,7.266167299999999",
      "google_place_id": "ChIJqcMzCbnvQhARMcNGom9Q9oA"
    }
  },
  {
    "id": "62227",
    "name": "TOWN SCHOOL UMUAMAECHI",
    "registration_area_id": "3352",
    "precise_location": null,
    "abbreviation": "006",
    "units": "006",
    "delimitation": "16/01/04/006",
    "remark": "EXISTING PU",
    "ward_id": "3352",
    "ward_name": "NGURU-NWEKE",
    "local_government_id": "293",
    "local_government_name": "ABOH MBAISE",
    "state_id": "16",
    "state_name": "IMO",
    "location": {
      "latitude": 5.4978812,
      "longitude": 7.2378244,
      "viewport": {
        "northeast": {
          "lat": 5.499225529892722,
          "lng": 7.239382479892722
        },
        "southwest": {
          "lat": 5.496525870107278,
          "lng": 7.236682820107278
        }
      },
      "formatted_address": "F6XQ+544, Mbaise Rd, 462102, Umuezee Ezuhu Nguru, Nigeria",
      "google_map_url": "https://maps.google.com?q=5.4978812,7.2378244",
      "google_place_id": "ChIJix7P82nwQhAR_QuQAuyPonM"
    }
  },
  {
    "id": "62228",
    "name": "COMMUNITY SCHOOL EGBEREDE",
    "registration_area_id": "3352",
    "precise_location": null,
    "abbreviation": "007",
    "units": "007",
    "delimitation": "16/01/04/007",
    "remark": "EXISTING PU",
    "ward_id": "3352",
    "ward_name": "NGURU-NWEKE",
    "local_government_id": "293",
    "local_government_name": "ABOH MBAISE",
    "state_id": "16",
    "state_name": "IMO",
    "location": {
      "latitude": 5.491083,
      "longitude": 7.2685769,
      "viewport": {
        "northeast": {
          "lat": 5.492439529892722,
          "lng": 7.269910429892723
        },
        "southwest": {
          "lat": 5.489739870107278,
          "lng": 7.267210770107279
        }
      },
      "formatted_address": "F7R9+CCP, Unnamed Road, Umuezee Ezuhu, Nguru, Nigeria",
      "google_map_url": "https://maps.google.com?q=5.491083,7.2685769",
      "google_place_id": "ChIJI2JVLNnvQhARUSrPcfGnNzg"
    }
  },
  {
    "id": "62229",
    "name": "COMMUNITY SCHOOL EZIALA",
    "registration_area_id": "3352",
    "precise_location": null,
    "abbreviation": "008",
    "units": "008",
    "delimitation": "16/01/04/008",
    "remark": "EXISTING PU",
    "ward_id": "3352",
    "ward_name": "NGURU-NWEKE",
    "local_government_id": "293",
    "local_government_name": "ABOH MBAISE",
    "state_id": "16",
    "state_name": "IMO",
    "location": {
      "latitude": 5.491083,
      "longitude": 7.2685769,
      "viewport": {
        "northeast": {
          "lat": 5.492439529892722,
          "lng": 7.269910429892723
        },
        "southwest": {
          "lat": 5.489739870107278,
          "lng": 7.267210770107279
        }
      },
      "formatted_address": "F7R9+CCP, Unnamed Road, Umuezee Ezuhu, Nguru, Nigeria",
      "google_map_url": "https://maps.google.com?q=5.491083,7.2685769",
      "google_place_id": "ChIJI2JVLNnvQhARUSrPcfGnNzg"
    }
  },
  {
    "id": "62230",
    "name": "COMMUNITY SCHOOL OKWU NGURU",
    "registration_area_id": "3352",
    "precise_location": null,
    "abbreviation": "009",
    "units": "009",
    "delimitation": "16/01/04/009",
    "remark": "EXISTING PU",
    "ward_id": "3352",
    "ward_name": "NGURU-NWEKE",
    "local_government_id": "293",
    "local_government_name": "ABOH MBAISE",
    "state_id": "16",
    "state_name": "IMO",
    "location": {
      "latitude": 5.4810371,
      "longitude": 7.2469412,
      "viewport": {
        "northeast": {
          "lat": 5.482613879892722,
          "lng": 7.248258579892721
        },
        "southwest": {
          "lat": 5.479914220107278,
          "lng": 7.245558920107277
        }
      },
      "formatted_address": "F6JW+CQ8, 462103, Umuezee Ezuhu Nguru, Nigeria",
      "google_map_url": "https://maps.google.com?q=5.4810371,7.2469412",
      "google_place_id": "ChIJkdFuBq_xQhARqk8Okxjzw6o"
    }
  },
  {
    "id": "62231",
    "name": "AWO BLOCK ROSARY SQUARE",
    "registration_area_id": "3352",
    "precise_location": null,
    "abbreviation": "010",
    "units": "010",
    "delimitation": "16/01/04/010",
    "remark": "EXISTING PU",
    "ward_id": "3352",
    "ward_name": "NGURU-NWEKE",
    "local_government_id": "293",
    "local_government_name": "ABOH MBAISE",
    "state_id": "16",
    "state_name": "IMO",
    "location": {
      "latitude": 5.4832705,
      "longitude": 7.236115000000001,
      "viewport": {
        "northeast": {
          "lat": 5.484852029892722,
          "lng": 7.237476229892723
        },
        "southwest": {
          "lat": 5.482152370107278,
          "lng": 7.234776570107279
        }
      },
      "formatted_address": "F6MP+8C5, 462103, Umuezee Ezuhu Nguru, Nigeria",
      "google_map_url": "https://maps.google.com?q=5.4832705,7.236115000000001",
      "google_place_id": "ChIJJ4rX1SzxQhARTGxHWLwKJEM"
    }
  },
  {
    "id": "62232",
    "name": "AMAKO HALL",
    "registration_area_id": "3352",
    "precise_location": null,
    "abbreviation": "011",
    "units": "011",
    "delimitation": "16/01/04/011",
    "remark": "EXISTING PU",
    "ward_id": "3352",
    "ward_name": "NGURU-NWEKE",
    "local_government_id": "293",
    "local_government_name": "ABOH MBAISE",
    "state_id": "16",
    "state_name": "IMO",
    "location": {
      "latitude": 5.4891066,
      "longitude": 7.215481899999999,
      "viewport": {
        "northeast": {
          "lat": 5.490423479892722,
          "lng": 7.21676742989272
        },
        "southwest": {
          "lat": 5.487723820107278,
          "lng": 7.214067770107276
        }
      },
      "formatted_address": "F6Q8+J5X, Ọgwụ/Umuoda Road, Oboama, Nigeria",
      "google_map_url": "https://maps.google.com?q=5.4891066,7.215481899999999",
      "google_place_id": "ChIJA2wwTIzxQhARWSKPrhRv_gk"
    }
  },
  {
    "id": "62233",
    "name": "UKWUEGBU SQUARE",
    "registration_area_id": "3352",
    "precise_location": null,
    "abbreviation": "012",
    "units": "012",
    "delimitation": "16/01/04/012",
    "remark": "EXISTING PU",
    "ward_id": "3352",
    "ward_name": "NGURU-NWEKE",
    "local_government_id": "293",
    "local_government_name": "ABOH MBAISE",
    "state_id": "16",
    "state_name": "IMO",
    "location": {
      "latitude": 5.4950709,
      "longitude": 7.2623544,
      "viewport": {
        "northeast": {
          "lat": 5.496405129892721,
          "lng": 7.263705329892723
        },
        "southwest": {
          "lat": 5.493705470107277,
          "lng": 7.261005670107279
        }
      },
      "formatted_address": "F7W6+2WH, EKE ABOH -OKPALA ROAD, Nguru, Nigeria",
      "google_map_url": "https://maps.google.com?q=5.4950709,7.2623544",
      "google_place_id": "ChIJGftLtCHwQhAREkD5vRWTobk"
    }
  },
  {
    "id": "62234",
    "name": "UMUNGOMA HALL",
    "registration_area_id": "3352",
    "precise_location": null,
    "abbreviation": "013",
    "units": "013",
    "delimitation": "16/01/04/013",
    "remark": "EXISTING PU",
    "ward_id": "3352",
    "ward_name": "NGURU-NWEKE",
    "local_government_id": "293",
    "local_government_name": "ABOH MBAISE",
    "state_id": "16",
    "state_name": "IMO",
    "location": {
      "latitude": 5.4891066,
      "longitude": 7.215481899999999,
      "viewport": {
        "northeast": {
          "lat": 5.490423479892722,
          "lng": 7.21676742989272
        },
        "southwest": {
          "lat": 5.487723820107278,
          "lng": 7.214067770107276
        }
      },
      "formatted_address": "F6Q8+J5X, Ọgwụ/Umuoda Road, Oboama, Nigeria",
      "google_map_url": "https://maps.google.com?q=5.4891066,7.215481899999999",
      "google_place_id": "ChIJA2wwTIzxQhARWSKPrhRv_gk"
    }
  },
  {
    "id": "62235",
    "name": "ALADINMA AMAOHURU HALL",
    "registration_area_id": "3352",
    "precise_location": null,
    "abbreviation": "014",
    "units": "014",
    "delimitation": "16/01/04/014",
    "remark": "NEW PU",
    "ward_id": "3352",
    "ward_name": "NGURU-NWEKE",
    "local_government_id": "293",
    "local_government_name": "ABOH MBAISE",
    "state_id": "16",
    "state_name": "IMO",
    "location": {
      "latitude": 5.4891066,
      "longitude": 7.215481899999999,
      "viewport": {
        "northeast": {
          "lat": 5.490423479892722,
          "lng": 7.21676742989272
        },
        "southwest": {
          "lat": 5.487723820107278,
          "lng": 7.214067770107276
        }
      },
      "formatted_address": "F6Q8+J5X, Ọgwụ/Umuoda Road, Oboama, Nigeria",
      "google_map_url": "https://maps.google.com?q=5.4891066,7.215481899999999",
      "google_place_id": "ChIJA2wwTIzxQhARWSKPrhRv_gk"
    }
  },
  {
    "id": "62236",
    "name": "AFOR NA AKALI HALL",
    "registration_area_id": "3352",
    "precise_location": null,
    "abbreviation": "015",
    "units": "015",
    "delimitation": "16/01/04/015",
    "remark": "NEW PU",
    "ward_id": "3352",
    "ward_name": "NGURU-NWEKE",
    "local_government_id": "293",
    "local_government_name": "ABOH MBAISE",
    "state_id": "16",
    "state_name": "IMO",
    "location": {
      "latitude": 5.491083,
      "longitude": 7.2685769,
      "viewport": {
        "northeast": {
          "lat": 5.492439529892722,
          "lng": 7.269910429892723
        },
        "southwest": {
          "lat": 5.489739870107278,
          "lng": 7.267210770107279
        }
      },
      "formatted_address": "F7R9+CCP, Unnamed Road, Umuezee Ezuhu, Nguru, Nigeria",
      "google_map_url": "https://maps.google.com?q=5.491083,7.2685769",
      "google_place_id": "ChIJI2JVLNnvQhARUSrPcfGnNzg"
    }
  },
  {
    "id": "62237",
    "name": "AKUBU EZIUKA HALL",
    "registration_area_id": "3352",
    "precise_location": null,
    "abbreviation": "016",
    "units": "016",
    "delimitation": "16/01/04/016",
    "remark": "NEW PU",
    "ward_id": "3352",
    "ward_name": "NGURU-NWEKE",
    "local_government_id": "293",
    "local_government_name": "ABOH MBAISE",
    "state_id": "16",
    "state_name": "IMO",
    "location": {
      "latitude": 5.491083,
      "longitude": 7.2685769,
      "viewport": {
        "northeast": {
          "lat": 5.492439529892722,
          "lng": 7.269910429892723
        },
        "southwest": {
          "lat": 5.489739870107278,
          "lng": 7.267210770107279
        }
      },
      "formatted_address": "F7R9+CCP, Unnamed Road, Umuezee Ezuhu, Nguru, Nigeria",
      "google_map_url": "https://maps.google.com?q=5.491083,7.2685769",
      "google_place_id": "ChIJI2JVLNnvQhARUSrPcfGnNzg"
    }
  },
  {
    "id": "62238",
    "name": "UMUEGEJOR HALL",
    "registration_area_id": "3352",
    "precise_location": null,
    "abbreviation": "017",
    "units": "017",
    "delimitation": "16/01/04/017",
    "remark": "NEW PU",
    "ward_id": "3352",
    "ward_name": "NGURU-NWEKE",
    "local_government_id": "293",
    "local_government_name": "ABOH MBAISE",
    "state_id": "16",
    "state_name": "IMO",
    "location": {
      "latitude": 5.4891066,
      "longitude": 7.215481899999999,
      "viewport": {
        "northeast": {
          "lat": 5.490423479892722,
          "lng": 7.21676742989272
        },
        "southwest": {
          "lat": 5.487723820107278,
          "lng": 7.214067770107276
        }
      },
      "formatted_address": "F6Q8+J5X, Ọgwụ/Umuoda Road, Oboama, Nigeria",
      "google_map_url": "https://maps.google.com?q=5.4891066,7.215481899999999",
      "google_place_id": "ChIJA2wwTIzxQhARWSKPrhRv_gk"
    }
  },
  {
    "id": "62239",
    "name": "UMUIJEOMA HALL",
    "registration_area_id": "3352",
    "precise_location": null,
    "abbreviation": "018",
    "units": "018",
    "delimitation": "16/01/04/018",
    "remark": "NEW PU",
    "ward_id": "3352",
    "ward_name": "NGURU-NWEKE",
    "local_government_id": "293",
    "local_government_name": "ABOH MBAISE",
    "state_id": "16",
    "state_name": "IMO",
    "location": {
      "latitude": 5.4891066,
      "longitude": 7.215481899999999,
      "viewport": {
        "northeast": {
          "lat": 5.490423479892722,
          "lng": 7.21676742989272
        },
        "southwest": {
          "lat": 5.487723820107278,
          "lng": 7.214067770107276
        }
      },
      "formatted_address": "F6Q8+J5X, Ọgwụ/Umuoda Road, Oboama, Nigeria",
      "google_map_url": "https://maps.google.com?q=5.4891066,7.215481899999999",
      "google_place_id": "ChIJA2wwTIzxQhARWSKPrhRv_gk"
    }
  },
  {
    "id": "62240",
    "name": "UMUGBALA HALL",
    "registration_area_id": "3352",
    "precise_location": null,
    "abbreviation": "019",
    "units": "019",
    "delimitation": "16/01/04/019",
    "remark": "NEW PU",
    "ward_id": "3352",
    "ward_name": "NGURU-NWEKE",
    "local_government_id": "293",
    "local_government_name": "ABOH MBAISE",
    "state_id": "16",
    "state_name": "IMO",
    "location": null
  },
  {
    "id": "62241",
    "name": "UMUAGWU HALL",
    "registration_area_id": "3352",
    "precise_location": null,
    "abbreviation": "020",
    "units": "020",
    "delimitation": "16/01/04/020",
    "remark": "NEW PU",
    "ward_id": "3352",
    "ward_name": "NGURU-NWEKE",
    "local_government_id": "293",
    "local_government_name": "ABOH MBAISE",
    "state_id": "16",
    "state_name": "IMO",
    "location": {
      "latitude": 5.4891066,
      "longitude": 7.215481899999999,
      "viewport": {
        "northeast": {
          "lat": 5.490423479892722,
          "lng": 7.21676742989272
        },
        "southwest": {
          "lat": 5.487723820107278,
          "lng": 7.214067770107276
        }
      },
      "formatted_address": "F6Q8+J5X, Ọgwụ/Umuoda Road, Oboama, Nigeria",
      "google_map_url": "https://maps.google.com?q=5.4891066,7.215481899999999",
      "google_place_id": "ChIJA2wwTIzxQhARWSKPrhRv_gk"
    }
  },
  {
    "id": "62242",
    "name": "OSHICHOKO HALL UMUAMADI",
    "registration_area_id": "3352",
    "precise_location": null,
    "abbreviation": "021",
    "units": "021",
    "delimitation": "16/01/04/021",
    "remark": "NEW PU",
    "ward_id": "3352",
    "ward_name": "NGURU-NWEKE",
    "local_government_id": "293",
    "local_government_name": "ABOH MBAISE",
    "state_id": "16",
    "state_name": "IMO",
    "location": {
      "latitude": 5.4891066,
      "longitude": 7.215481899999999,
      "viewport": {
        "northeast": {
          "lat": 5.490423479892722,
          "lng": 7.21676742989272
        },
        "southwest": {
          "lat": 5.487723820107278,
          "lng": 7.214067770107276
        }
      },
      "formatted_address": "F6Q8+J5X, Ọgwụ/Umuoda Road, Oboama, Nigeria",
      "google_map_url": "https://maps.google.com?q=5.4891066,7.215481899999999",
      "google_place_id": "ChIJA2wwTIzxQhARWSKPrhRv_gk"
    }
  },
  {
    "id": "62243",
    "name": "NDI OKPU HALL",
    "registration_area_id": "3352",
    "precise_location": null,
    "abbreviation": "022",
    "units": "022",
    "delimitation": "16/01/04/022",
    "remark": "NEW PU",
    "ward_id": "3352",
    "ward_name": "NGURU-NWEKE",
    "local_government_id": "293",
    "local_government_name": "ABOH MBAISE",
    "state_id": "16",
    "state_name": "IMO",
    "location": {
      "latitude": 5.4891066,
      "longitude": 7.215481899999999,
      "viewport": {
        "northeast": {
          "lat": 5.490423479892722,
          "lng": 7.21676742989272
        },
        "southwest": {
          "lat": 5.487723820107278,
          "lng": 7.214067770107276
        }
      },
      "formatted_address": "F6Q8+J5X, Ọgwụ/Umuoda Road, Oboama, Nigeria",
      "google_map_url": "https://maps.google.com?q=5.4891066,7.215481899999999",
      "google_place_id": "ChIJA2wwTIzxQhARWSKPrhRv_gk"
    }
  },
  {
    "id": "62244",
    "name": "UMUEDO HALL",
    "registration_area_id": "3352",
    "precise_location": null,
    "abbreviation": "023",
    "units": "023",
    "delimitation": "16/01/04/023",
    "remark": "NEW PU",
    "ward_id": "3352",
    "ward_name": "NGURU-NWEKE",
    "local_government_id": "293",
    "local_government_name": "ABOH MBAISE",
    "state_id": "16",
    "state_name": "IMO",
    "location": {
      "latitude": 5.4891066,
      "longitude": 7.215481899999999,
      "viewport": {
        "northeast": {
          "lat": 5.490423479892722,
          "lng": 7.21676742989272
        },
        "southwest": {
          "lat": 5.487723820107278,
          "lng": 7.214067770107276
        }
      },
      "formatted_address": "F6Q8+J5X, Ọgwụ/Umuoda Road, Oboama, Nigeria",
      "google_map_url": "https://maps.google.com?q=5.4891066,7.215481899999999",
      "google_place_id": "ChIJA2wwTIzxQhARWSKPrhRv_gk"
    }
  },
  {
    "id": "62245",
    "name": "UFEAKU HALL",
    "registration_area_id": "3352",
    "precise_location": null,
    "abbreviation": "024",
    "units": "024",
    "delimitation": "16/01/04/024",
    "remark": "NEW PU",
    "ward_id": "3352",
    "ward_name": "NGURU-NWEKE",
    "local_government_id": "293",
    "local_government_name": "ABOH MBAISE",
    "state_id": "16",
    "state_name": "IMO",
    "location": {
      "latitude": 6.393830899999999,
      "longitude": 5.606478699999999,
      "viewport": {
        "northeast": {
          "lat": 6.395179129892721,
          "lng": 5.607862429892721
        },
        "southwest": {
          "lat": 6.392479470107277,
          "lng": 5.605162770107277
        }
      },
      "formatted_address": "Felix Agbonifo St, Uselu 300103, Benin City, Nigeria",
      "google_map_url": "https://maps.google.com?q=6.393830899999999,5.606478699999999",
      "google_place_id": "ChIJrWtFEfAtRxARfhXRTsfC08w"
    }
  },
  {
    "id": "62246",
    "name": "EZIALA HALL",
    "registration_area_id": "3352",
    "precise_location": null,
    "abbreviation": "025",
    "units": "025",
    "delimitation": "16/01/04/025",
    "remark": "NEW PU",
    "ward_id": "3352",
    "ward_name": "NGURU-NWEKE",
    "local_government_id": "293",
    "local_government_name": "ABOH MBAISE",
    "state_id": "16",
    "state_name": "IMO",
    "location": {
      "latitude": 5.491083,
      "longitude": 7.2685769,
      "viewport": {
        "northeast": {
          "lat": 5.492439529892722,
          "lng": 7.269910429892723
        },
        "southwest": {
          "lat": 5.489739870107278,
          "lng": 7.267210770107279
        }
      },
      "formatted_address": "F7R9+CCP, Unnamed Road, Umuezee Ezuhu, Nguru, Nigeria",
      "google_map_url": "https://maps.google.com?q=5.491083,7.2685769",
      "google_place_id": "ChIJI2JVLNnvQhARUSrPcfGnNzg"
    }
  },
  {
    "id": "62247",
    "name": "UMUAKALI HALL",
    "registration_area_id": "3352",
    "precise_location": null,
    "abbreviation": "026",
    "units": "026",
    "delimitation": "16/01/04/026",
    "remark": "NEW PU",
    "ward_id": "3352",
    "ward_name": "NGURU-NWEKE",
    "local_government_id": "293",
    "local_government_name": "ABOH MBAISE",
    "state_id": "16",
    "state_name": "IMO",
    "location": {
      "latitude": 5.4891066,
      "longitude": 7.215481899999999,
      "viewport": {
        "northeast": {
          "lat": 5.490423479892722,
          "lng": 7.21676742989272
        },
        "southwest": {
          "lat": 5.487723820107278,
          "lng": 7.214067770107276
        }
      },
      "formatted_address": "F6Q8+J5X, Ọgwụ/Umuoda Road, Oboama, Nigeria",
      "google_map_url": "https://maps.google.com?q=5.4891066,7.215481899999999",
      "google_place_id": "ChIJA2wwTIzxQhARWSKPrhRv_gk"
    }
  },
  {
    "id": "62248",
    "name": "UMUIHE OCHA HALL",
    "registration_area_id": "3352",
    "precise_location": null,
    "abbreviation": "027",
    "units": "027",
    "delimitation": "16/01/04/027",
    "remark": "NEW PU",
    "ward_id": "3352",
    "ward_name": "NGURU-NWEKE",
    "local_government_id": "293",
    "local_government_name": "ABOH MBAISE",
    "state_id": "16",
    "state_name": "IMO",
    "location": null
  },
  {
    "id": "62249",
    "name": "UMUOPARA HALL",
    "registration_area_id": "3352",
    "precise_location": null,
    "abbreviation": "028",
    "units": "028",
    "delimitation": "16/01/04/028",
    "remark": "NEW PU",
    "ward_id": "3352",
    "ward_name": "NGURU-NWEKE",
    "local_government_id": "293",
    "local_government_name": "ABOH MBAISE",
    "state_id": "16",
    "state_name": "IMO",
    "location": {
      "latitude": 5.4891066,
      "longitude": 7.215481899999999,
      "viewport": {
        "northeast": {
          "lat": 5.490423479892722,
          "lng": 7.21676742989272
        },
        "southwest": {
          "lat": 5.487723820107278,
          "lng": 7.214067770107276
        }
      },
      "formatted_address": "F6Q8+J5X, Ọgwụ/Umuoda Road, Oboama, Nigeria",
      "google_map_url": "https://maps.google.com?q=5.4891066,7.215481899999999",
      "google_place_id": "ChIJA2wwTIzxQhARWSKPrhRv_gk"
    }
  }
]