[
  {
    "id": "12623",
    "name": "OGBUGBAOGU PRY. SCHOOL I",
    "registration_area_id": "748",
    "precise_location": null,
    "abbreviation": "001",
    "units": "001",
    "delimitation": "04/01/09/001",
    "remark": "EXISTING PU",
    "ward_id": "748",
    "ward_name": "EZINIFITE  II",
    "local_government_id": "70",
    "local_government_name": "AGUATA",
    "state_id": "4",
    "state_name": "ANAMBRA",
    "location": {
      "latitude": 5.883904299999999,
      "longitude": 6.998779,
      "viewport": {
        "northeast": {
          "lat": 5.885586279892722,
          "lng": 7.000003279892723
        },
        "southwest": {
          "lat": 5.882886620107278,
          "lng": 6.997303620107279
        }
      },
      "formatted_address": "St Mary's, 473114, Ezinifite, Nigeria",
      "google_map_url": "https://maps.google.com?q=5.883904299999999,6.998779",
      "google_place_id": "ChIJufXlU7GlQxARawy0l1Ot3N4"
    }
  },
  {
    "id": "12624",
    "name": "OGBUGBAOGU PRY. SCHOOL II",
    "registration_area_id": "748",
    "precise_location": null,
    "abbreviation": "002",
    "units": "002",
    "delimitation": "04/01/09/002",
    "remark": "EXISTING PU",
    "ward_id": "748",
    "ward_name": "EZINIFITE  II",
    "local_government_id": "70",
    "local_government_name": "AGUATA",
    "state_id": "4",
    "state_name": "ANAMBRA",
    "location": {
      "latitude": 5.883904299999999,
      "longitude": 6.998779,
      "viewport": {
        "northeast": {
          "lat": 5.885586279892722,
          "lng": 7.000003279892723
        },
        "southwest": {
          "lat": 5.882886620107278,
          "lng": 6.997303620107279
        }
      },
      "formatted_address": "St Mary's, 473114, Ezinifite, Nigeria",
      "google_map_url": "https://maps.google.com?q=5.883904299999999,6.998779",
      "google_place_id": "ChIJufXlU7GlQxARawy0l1Ot3N4"
    }
  },
  {
    "id": "12625",
    "name": "B.S.S.",
    "registration_area_id": "748",
    "precise_location": null,
    "abbreviation": "003",
    "units": "003",
    "delimitation": "04/01/09/003",
    "remark": "EXISTING PU",
    "ward_id": "748",
    "ward_name": "EZINIFITE  II",
    "local_government_id": "70",
    "local_government_name": "AGUATA",
    "state_id": "4",
    "state_name": "ANAMBRA",
    "location": {
      "latitude": 5.9614976,
      "longitude": 7.0687842,
      "viewport": {
        "northeast": {
          "lat": 5.962814279892722,
          "lng": 7.070090779892721
        },
        "southwest": {
          "lat": 5.960114620107278,
          "lng": 7.067391120107277
        }
      },
      "formatted_address": "X369+HGV, 422115, Aguata, Nigeria",
      "google_map_url": "https://maps.google.com?q=5.9614976,7.0687842",
      "google_place_id": "ChIJxxXkBZmhQxARC8pS9oPhfAk"
    }
  },
  {
    "id": "12626",
    "name": "ANULI PRY. SCHOOL",
    "registration_area_id": "748",
    "precise_location": null,
    "abbreviation": "004",
    "units": "004",
    "delimitation": "04/01/09/004",
    "remark": "EXISTING PU",
    "ward_id": "748",
    "ward_name": "EZINIFITE  II",
    "local_government_id": "70",
    "local_government_name": "AGUATA",
    "state_id": "4",
    "state_name": "ANAMBRA",
    "location": {
      "latitude": 5.883904299999999,
      "longitude": 6.998779,
      "viewport": {
        "northeast": {
          "lat": 5.885586279892722,
          "lng": 7.000003279892723
        },
        "southwest": {
          "lat": 5.882886620107278,
          "lng": 6.997303620107279
        }
      },
      "formatted_address": "St Mary's, 473114, Ezinifite, Nigeria",
      "google_map_url": "https://maps.google.com?q=5.883904299999999,6.998779",
      "google_place_id": "ChIJufXlU7GlQxARawy0l1Ot3N4"
    }
  },
  {
    "id": "12627",
    "name": "CIVIC CENTRE",
    "registration_area_id": "748",
    "precise_location": null,
    "abbreviation": "005",
    "units": "005",
    "delimitation": "04/01/09/005",
    "remark": "EXISTING PU",
    "ward_id": "748",
    "ward_name": "EZINIFITE  II",
    "local_government_id": "70",
    "local_government_name": "AGUATA",
    "state_id": "4",
    "state_name": "ANAMBRA",
    "location": {
      "latitude": 6.065706,
      "longitude": 7.0505311,
      "viewport": {
        "northeast": {
          "lat": 6.067061879892722,
          "lng": 7.051890529892722
        },
        "southwest": {
          "lat": 6.064362220107278,
          "lng": 7.049190870107278
        }
      },
      "formatted_address": "3382+75W, Etti, Nanka, Nigeria",
      "google_map_url": "https://maps.google.com?q=6.065706,7.0505311",
      "google_place_id": "ChIJuwVcXVWeQxARuy5fCceedQk"
    }
  },
  {
    "id": "12628",
    "name": "NWAHIA KINDER SCHOOL",
    "registration_area_id": "748",
    "precise_location": null,
    "abbreviation": "006",
    "units": "006",
    "delimitation": "04/01/09/006",
    "remark": "EXISTING PU",
    "ward_id": "748",
    "ward_name": "EZINIFITE  II",
    "local_government_id": "70",
    "local_government_name": "AGUATA",
    "state_id": "4",
    "state_name": "ANAMBRA",
    "location": {
      "latitude": 5.9819933,
      "longitude": 7.058231699999999,
      "viewport": {
        "northeast": {
          "lat": 5.983269679892721,
          "lng": 7.059451879892721
        },
        "southwest": {
          "lat": 5.980570020107277,
          "lng": 7.056752220107278
        }
      },
      "formatted_address": "X3J5+Q7X, 422123, Aguata, Nigeria",
      "google_map_url": "https://maps.google.com?q=5.9819933,7.058231699999999",
      "google_place_id": "ChIJKTcm-9qhQxARTXIFjwqTMqw"
    }
  },
  {
    "id": "12629",
    "name": "EZIHU/AFOR",
    "registration_area_id": "748",
    "precise_location": null,
    "abbreviation": "007",
    "units": "007",
    "delimitation": "04/01/09/007",
    "remark": "EXISTING PU",
    "ward_id": "748",
    "ward_name": "EZINIFITE  II",
    "local_government_id": "70",
    "local_government_name": "AGUATA",
    "state_id": "4",
    "state_name": "ANAMBRA",
    "location": {
      "latitude": 5.9614976,
      "longitude": 7.0687842,
      "viewport": {
        "northeast": {
          "lat": 5.962814279892722,
          "lng": 7.070090779892721
        },
        "southwest": {
          "lat": 5.960114620107278,
          "lng": 7.067391120107277
        }
      },
      "formatted_address": "X369+HGV, 422115, Aguata, Nigeria",
      "google_map_url": "https://maps.google.com?q=5.9614976,7.0687842",
      "google_place_id": "ChIJxxXkBZmhQxARC8pS9oPhfAk"
    }
  },
  {
    "id": "12630",
    "name": "OZALLA CENTRE",
    "registration_area_id": "748",
    "precise_location": null,
    "abbreviation": "008",
    "units": "008",
    "delimitation": "04/01/09/008",
    "remark": "EXISTING PU",
    "ward_id": "748",
    "ward_name": "EZINIFITE  II",
    "local_government_id": "70",
    "local_government_name": "AGUATA",
    "state_id": "4",
    "state_name": "ANAMBRA",
    "location": {
      "latitude": 5.9752046,
      "longitude": 7.067459899999999,
      "viewport": {
        "northeast": {
          "lat": 5.976510979892722,
          "lng": 7.068755629892721
        },
        "southwest": {
          "lat": 5.973811320107278,
          "lng": 7.066055970107278
        }
      },
      "formatted_address": "X3G8+3XP, Ifite Ezinifite, Aguata, Nigeria",
      "google_map_url": "https://maps.google.com?q=5.9752046,7.067459899999999",
      "google_place_id": "ChIJWxn1RQuhQxARxfu6KjDKTqs"
    }
  },
  {
    "id": "12631",
    "name": "UMUOBI KINDER SCHOOL",
    "registration_area_id": "748",
    "precise_location": null,
    "abbreviation": "009",
    "units": "009",
    "delimitation": "04/01/09/009",
    "remark": "EXISTING PU",
    "ward_id": "748",
    "ward_name": "EZINIFITE  II",
    "local_government_id": "70",
    "local_government_name": "AGUATA",
    "state_id": "4",
    "state_name": "ANAMBRA",
    "location": {
      "latitude": 5.883904299999999,
      "longitude": 6.998779,
      "viewport": {
        "northeast": {
          "lat": 5.885586279892722,
          "lng": 7.000003279892723
        },
        "southwest": {
          "lat": 5.882886620107278,
          "lng": 6.997303620107279
        }
      },
      "formatted_address": "St Mary's, 473114, Ezinifite, Nigeria",
      "google_map_url": "https://maps.google.com?q=5.883904299999999,6.998779",
      "google_place_id": "ChIJufXlU7GlQxARawy0l1Ot3N4"
    }
  },
  {
    "id": "12632",
    "name": "UMUEZENWA CENTRE",
    "registration_area_id": "748",
    "precise_location": null,
    "abbreviation": "010",
    "units": "010",
    "delimitation": "04/01/09/010",
    "remark": "EXISTING PU",
    "ward_id": "748",
    "ward_name": "EZINIFITE  II",
    "local_government_id": "70",
    "local_government_name": "AGUATA",
    "state_id": "4",
    "state_name": "ANAMBRA",
    "location": {
      "latitude": 5.9614976,
      "longitude": 7.0687842,
      "viewport": {
        "northeast": {
          "lat": 5.962814279892722,
          "lng": 7.070090779892721
        },
        "southwest": {
          "lat": 5.960114620107278,
          "lng": 7.067391120107277
        }
      },
      "formatted_address": "X369+HGV, 422115, Aguata, Nigeria",
      "google_map_url": "https://maps.google.com?q=5.9614976,7.0687842",
      "google_place_id": "ChIJxxXkBZmhQxARC8pS9oPhfAk"
    }
  },
  {
    "id": "12633",
    "name": "TOWN SCHOOL UHUALA",
    "registration_area_id": "748",
    "precise_location": null,
    "abbreviation": "011",
    "units": "011",
    "delimitation": "04/01/09/011",
    "remark": "NEW PU",
    "ward_id": "748",
    "ward_name": "EZINIFITE  II",
    "local_government_id": "70",
    "local_government_name": "AGUATA",
    "state_id": "4",
    "state_name": "ANAMBRA",
    "location": {
      "latitude": 5.9819933,
      "longitude": 7.058231699999999,
      "viewport": {
        "northeast": {
          "lat": 5.983269679892721,
          "lng": 7.059451879892721
        },
        "southwest": {
          "lat": 5.980570020107277,
          "lng": 7.056752220107278
        }
      },
      "formatted_address": "X3J5+Q7X, 422123, Aguata, Nigeria",
      "google_map_url": "https://maps.google.com?q=5.9819933,7.058231699999999",
      "google_place_id": "ChIJKTcm-9qhQxARTXIFjwqTMqw"
    }
  }
]