[
  {
    "id": "85105",
    "name": "FILIN MAI ITACE I, OPEN SPACE I",
    "registration_area_id": "4412",
    "precise_location": null,
    "abbreviation": "001",
    "units": "001",
    "delimitation": "19/07/03/001",
    "remark": "EXISTING PU",
    "ward_id": "4412",
    "ward_name": "DALA",
    "local_government_id": "376",
    "local_government_name": "DALA",
    "state_id": "19",
    "state_name": "KANO",
    "location": {
      "latitude": 12.0169777,
      "longitude": 8.5038149,
      "viewport": {
        "northeast": {
          "lat": 12.01845727989272,
          "lng": 8.505504229892722
        },
        "southwest": {
          "lat": 12.01575762010728,
          "lng": 8.502804570107278
        }
      },
      "formatted_address": "7F4C2G83+QGW community, Ward 700252, Kano, Nigeria",
      "google_map_url": "https://maps.google.com?q=12.0169777,8.5038149",
      "google_place_id": "ChIJjwye0fCBrhERPmMMX7AVWdY"
    }
  },
  {
    "id": "85106",
    "name": "FILIN MAI ITACE I, OPEN SPACE II",
    "registration_area_id": "4412",
    "precise_location": null,
    "abbreviation": "002",
    "units": "002",
    "delimitation": "19/07/03/002",
    "remark": "EXISTING PU",
    "ward_id": "4412",
    "ward_name": "DALA",
    "local_government_id": "376",
    "local_government_name": "DALA",
    "state_id": "19",
    "state_name": "KANO",
    "location": {
      "latitude": 12.0169777,
      "longitude": 8.5038149,
      "viewport": {
        "northeast": {
          "lat": 12.01845727989272,
          "lng": 8.505504229892722
        },
        "southwest": {
          "lat": 12.01575762010728,
          "lng": 8.502804570107278
        }
      },
      "formatted_address": "7F4C2G83+QGW community, Ward 700252, Kano, Nigeria",
      "google_map_url": "https://maps.google.com?q=12.0169777,8.5038149",
      "google_place_id": "ChIJjwye0fCBrhERPmMMX7AVWdY"
    }
  },
  {
    "id": "85107",
    "name": "FILIN TSULA I",
    "registration_area_id": "4412",
    "precise_location": null,
    "abbreviation": "003",
    "units": "003",
    "delimitation": "19/07/03/003",
    "remark": "EXISTING PU",
    "ward_id": "4412",
    "ward_name": "DALA",
    "local_government_id": "376",
    "local_government_name": "DALA",
    "state_id": "19",
    "state_name": "KANO",
    "location": {
      "latitude": 12.0071466,
      "longitude": 8.4969368,
      "viewport": {
        "northeast": {
          "lat": 12.00851047989272,
          "lng": 8.49829482989272
        },
        "southwest": {
          "lat": 12.00581082010728,
          "lng": 8.495595170107276
        }
      },
      "formatted_address": "Ƙofar-Ruwa Road, Opposite Gwammaja Housing Estate, Kano, Nigeria",
      "google_map_url": "https://maps.google.com?q=12.0071466,8.4969368",
      "google_place_id": "ChIJyc_8E5eArhERePhRA8ZENgQ"
    }
  },
  {
    "id": "85108",
    "name": "FILIN TSULA II",
    "registration_area_id": "4412",
    "precise_location": null,
    "abbreviation": "004",
    "units": "004",
    "delimitation": "19/07/03/004",
    "remark": "EXISTING PU",
    "ward_id": "4412",
    "ward_name": "DALA",
    "local_government_id": "376",
    "local_government_name": "DALA",
    "state_id": "19",
    "state_name": "KANO",
    "location": {
      "latitude": 12.0071466,
      "longitude": 8.4969368,
      "viewport": {
        "northeast": {
          "lat": 12.00851047989272,
          "lng": 8.49829482989272
        },
        "southwest": {
          "lat": 12.00581082010728,
          "lng": 8.495595170107276
        }
      },
      "formatted_address": "Ƙofar-Ruwa Road, Opposite Gwammaja Housing Estate, Kano, Nigeria",
      "google_map_url": "https://maps.google.com?q=12.0071466,8.4969368",
      "google_place_id": "ChIJyc_8E5eArhERePhRA8ZENgQ"
    }
  },
  {
    "id": "85109",
    "name": "GAREJIN, ALH ALI I",
    "registration_area_id": "4412",
    "precise_location": null,
    "abbreviation": "005",
    "units": "005",
    "delimitation": "19/07/03/005",
    "remark": "EXISTING PU",
    "ward_id": "4412",
    "ward_name": "DALA",
    "local_government_id": "376",
    "local_government_name": "DALA",
    "state_id": "19",
    "state_name": "KANO",
    "location": {
      "latitude": 12.0182139,
      "longitude": 8.504971099999999,
      "viewport": {
        "northeast": {
          "lat": 12.01963522989272,
          "lng": 8.506300129892722
        },
        "southwest": {
          "lat": 12.01693557010728,
          "lng": 8.503600470107278
        }
      },
      "formatted_address": "2G93+8X4, Garejin Danbuzu Rd, Kano City 700252, Kano, Nigeria",
      "google_map_url": "https://maps.google.com?q=12.0182139,8.504971099999999",
      "google_place_id": "ChIJ_Tvg-IqBrhERhDu0wJO3bnI"
    }
  },
  {
    "id": "85110",
    "name": "GAREJIN, ALH ALI II",
    "registration_area_id": "4412",
    "precise_location": null,
    "abbreviation": "006",
    "units": "006",
    "delimitation": "19/07/03/006",
    "remark": "EXISTING PU",
    "ward_id": "4412",
    "ward_name": "DALA",
    "local_government_id": "376",
    "local_government_name": "DALA",
    "state_id": "19",
    "state_name": "KANO",
    "location": {
      "latitude": 12.0071466,
      "longitude": 8.4969368,
      "viewport": {
        "northeast": {
          "lat": 12.00851047989272,
          "lng": 8.49829482989272
        },
        "southwest": {
          "lat": 12.00581082010728,
          "lng": 8.495595170107276
        }
      },
      "formatted_address": "Ƙofar-Ruwa Road, Opposite Gwammaja Housing Estate, Kano, Nigeria",
      "google_map_url": "https://maps.google.com?q=12.0071466,8.4969368",
      "google_place_id": "ChIJyc_8E5eArhERePhRA8ZENgQ"
    }
  },
  {
    "id": "85111",
    "name": "GAREJIN MAGAJI I",
    "registration_area_id": "4412",
    "precise_location": null,
    "abbreviation": "007",
    "units": "007",
    "delimitation": "19/07/03/007",
    "remark": "EXISTING PU",
    "ward_id": "4412",
    "ward_name": "DALA",
    "local_government_id": "376",
    "local_government_name": "DALA",
    "state_id": "19",
    "state_name": "KANO",
    "location": {
      "latitude": 11.9130395,
      "longitude": 8.4549725,
      "viewport": {
        "northeast": {
          "lat": 11.91388407989272,
          "lng": 8.456195329892722
        },
        "southwest": {
          "lat": 11.91118442010728,
          "lng": 8.453495670107278
        }
      },
      "formatted_address": "WF73+6X9, Dala Inland Dry Port is located at Zawachiki in Kumbotso Local Government Area of, Kano, Nigeria",
      "google_map_url": "https://maps.google.com?q=11.9130395,8.4549725",
      "google_place_id": "ChIJ74oyL1vVrRERGTLgyffbVs0"
    }
  },
  {
    "id": "85112",
    "name": "GAREJIN MAGAJI II",
    "registration_area_id": "4412",
    "precise_location": null,
    "abbreviation": "008",
    "units": "008",
    "delimitation": "19/07/03/008",
    "remark": "EXISTING PU",
    "ward_id": "4412",
    "ward_name": "DALA",
    "local_government_id": "376",
    "local_government_name": "DALA",
    "state_id": "19",
    "state_name": "KANO",
    "location": {
      "latitude": 11.9130395,
      "longitude": 8.4549725,
      "viewport": {
        "northeast": {
          "lat": 11.91388407989272,
          "lng": 8.456195329892722
        },
        "southwest": {
          "lat": 11.91118442010728,
          "lng": 8.453495670107278
        }
      },
      "formatted_address": "WF73+6X9, Dala Inland Dry Port is located at Zawachiki in Kumbotso Local Government Area of, Kano, Nigeria",
      "google_map_url": "https://maps.google.com?q=11.9130395,8.4549725",
      "google_place_id": "ChIJ74oyL1vVrRERGTLgyffbVs0"
    }
  },
  {
    "id": "85113",
    "name": "FILIN RIJIYA BIYU I (K/GIDAN BATURE I, (R/BIYU) O/S I)",
    "registration_area_id": "4412",
    "precise_location": null,
    "abbreviation": "009",
    "units": "009",
    "delimitation": "19/07/03/009",
    "remark": "EXISTING PU",
    "ward_id": "4412",
    "ward_name": "DALA",
    "local_government_id": "376",
    "local_government_name": "DALA",
    "state_id": "19",
    "state_name": "KANO",
    "location": {
      "latitude": 12.0053769,
      "longitude": 8.494896299999999,
      "viewport": {
        "northeast": {
          "lat": 12.00681137989272,
          "lng": 8.496259829892722
        },
        "southwest": {
          "lat": 12.00411172010728,
          "lng": 8.493560170107278
        }
      },
      "formatted_address": "2F4V+5X2, Aminu Kano Way, Kofar Kansakali 700282, Kano, Nigeria",
      "google_map_url": "https://maps.google.com?q=12.0053769,8.494896299999999",
      "google_place_id": "ChIJY3ZesymBrhERZyP5TwUPK44"
    }
  },
  {
    "id": "85114",
    "name": "FILIN RIJIYA BIYU II (K/GIDAN BATURE I, (R/BIYU) O/S II)",
    "registration_area_id": "4412",
    "precise_location": null,
    "abbreviation": "010",
    "units": "010",
    "delimitation": "19/07/03/010",
    "remark": "EXISTING PU",
    "ward_id": "4412",
    "ward_name": "DALA",
    "local_government_id": "376",
    "local_government_name": "DALA",
    "state_id": "19",
    "state_name": "KANO",
    "location": {
      "latitude": 12.0053769,
      "longitude": 8.494896299999999,
      "viewport": {
        "northeast": {
          "lat": 12.00681137989272,
          "lng": 8.496259829892722
        },
        "southwest": {
          "lat": 12.00411172010728,
          "lng": 8.493560170107278
        }
      },
      "formatted_address": "2F4V+5X2, Aminu Kano Way, Kofar Kansakali 700282, Kano, Nigeria",
      "google_map_url": "https://maps.google.com?q=12.0053769,8.494896299999999",
      "google_place_id": "ChIJY3ZesymBrhERZyP5TwUPK44"
    }
  },
  {
    "id": "85115",
    "name": "BAYAN DALA DALA CLINIC (K/GIDAN BULAMA, O/SPACE)",
    "registration_area_id": "4412",
    "precise_location": null,
    "abbreviation": "011",
    "units": "011",
    "delimitation": "19/07/03/011",
    "remark": "EXISTING PU",
    "ward_id": "4412",
    "ward_name": "DALA",
    "local_government_id": "376",
    "local_government_name": "DALA",
    "state_id": "19",
    "state_name": "KANO",
    "location": {
      "latitude": 12.0071466,
      "longitude": 8.4969368,
      "viewport": {
        "northeast": {
          "lat": 12.00851047989272,
          "lng": 8.49829482989272
        },
        "southwest": {
          "lat": 12.00581082010728,
          "lng": 8.495595170107276
        }
      },
      "formatted_address": "Ƙofar-Ruwa Road, Opposite Gwammaja Housing Estate, Kano, Nigeria",
      "google_map_url": "https://maps.google.com?q=12.0071466,8.4969368",
      "google_place_id": "ChIJyc_8E5eArhERePhRA8ZENgQ"
    }
  },
  {
    "id": "85116",
    "name": "AISHATU ISLAMIYYA I (K/GIDAN MAI-UNGUWAR KABAWA I)",
    "registration_area_id": "4412",
    "precise_location": null,
    "abbreviation": "012",
    "units": "012",
    "delimitation": "19/07/03/012",
    "remark": "EXISTING PU",
    "ward_id": "4412",
    "ward_name": "DALA",
    "local_government_id": "376",
    "local_government_name": "DALA",
    "state_id": "19",
    "state_name": "KANO",
    "location": {
      "latitude": 11.969465,
      "longitude": 8.5823071,
      "viewport": {
        "northeast": {
          "lat": 11.97080282989272,
          "lng": 8.583676629892722
        },
        "southwest": {
          "lat": 11.96810317010728,
          "lng": 8.580976970107278
        }
      },
      "formatted_address": "7F3CXH9J+QWM, Hotoro 700213, Kano, Nigeria",
      "google_map_url": "https://maps.google.com?q=11.969465,8.5823071",
      "google_place_id": "ChIJpTjvCbeDrhERFjhyjy-mv-c"
    }
  },
  {
    "id": "85117",
    "name": "AISHATU ISLAMIYYA II (K/GIDAN MAI-UNGUWAR KABAWA II)",
    "registration_area_id": "4412",
    "precise_location": null,
    "abbreviation": "013",
    "units": "013",
    "delimitation": "19/07/03/013",
    "remark": "EXISTING PU",
    "ward_id": "4412",
    "ward_name": "DALA",
    "local_government_id": "376",
    "local_government_name": "DALA",
    "state_id": "19",
    "state_name": "KANO",
    "location": null
  },
  {
    "id": "85118",
    "name": "AISHATU ISLAMIYYA III (K/GIDAN MAI-UNGUWAR KABAWA III)",
    "registration_area_id": "4412",
    "precise_location": null,
    "abbreviation": "014",
    "units": "014",
    "delimitation": "19/07/03/014",
    "remark": "EXISTING PU",
    "ward_id": "4412",
    "ward_name": "DALA",
    "local_government_id": "376",
    "local_government_name": "DALA",
    "state_id": "19",
    "state_name": "KANO",
    "location": {
      "latitude": 12.0224011,
      "longitude": 8.498187699999999,
      "viewport": {
        "northeast": {
          "lat": 12.02373512989272,
          "lng": 8.499546779892722
        },
        "southwest": {
          "lat": 12.02103547010728,
          "lng": 8.496847120107278
        }
      },
      "formatted_address": "7F4C2FCX+X78, Kofar Danwawu 700252, Kano, Nigeria",
      "google_map_url": "https://maps.google.com?q=12.0224011,8.498187699999999",
      "google_place_id": "ChIJcyA99TaBrhERpvuTEsU68sU"
    }
  },
  {
    "id": "85119",
    "name": "KANGIWA ISLAMIYYA I (K/GIDAN MAI-UNGUWAR K/GIWA I)",
    "registration_area_id": "4412",
    "precise_location": null,
    "abbreviation": "015",
    "units": "015",
    "delimitation": "19/07/03/015",
    "remark": "EXISTING PU",
    "ward_id": "4412",
    "ward_name": "DALA",
    "local_government_id": "376",
    "local_government_name": "DALA",
    "state_id": "19",
    "state_name": "KANO",
    "location": null
  },
  {
    "id": "85120",
    "name": "KANGIWA ISLAMIYYA II (K/GIDAN MAI-UNGUWAR K/GIWA II)",
    "registration_area_id": "4412",
    "precise_location": null,
    "abbreviation": "016",
    "units": "016",
    "delimitation": "19/07/03/016",
    "remark": "EXISTING PU",
    "ward_id": "4412",
    "ward_name": "DALA",
    "local_government_id": "376",
    "local_government_name": "DALA",
    "state_id": "19",
    "state_name": "KANO",
    "location": {
      "latitude": 11.9811789,
      "longitude": 8.569975399999999,
      "viewport": {
        "northeast": {
          "lat": 11.98252462989272,
          "lng": 8.571326529892723
        },
        "southwest": {
          "lat": 11.97982497010728,
          "lng": 8.568626870107279
        }
      },
      "formatted_address": "7F3CXHJ9+FX9 KAWON ME, Mai Gari Street, Giginyu 700213, Kano, Nigeria",
      "google_map_url": "https://maps.google.com?q=11.9811789,8.569975399999999",
      "google_place_id": "ChIJzX--ivCBrhER7vITv-GrBQE"
    }
  },
  {
    "id": "85121",
    "name": "KANGIWA ISLAMIYYA III (K/GIDAN MAI-UNGUWAR K/GIWA III)",
    "registration_area_id": "4412",
    "precise_location": null,
    "abbreviation": "017",
    "units": "017",
    "delimitation": "19/07/03/017",
    "remark": "EXISTING PU",
    "ward_id": "4412",
    "ward_name": "DALA",
    "local_government_id": "376",
    "local_government_name": "DALA",
    "state_id": "19",
    "state_name": "KANO",
    "location": {
      "latitude": 12.0224011,
      "longitude": 8.498187699999999,
      "viewport": {
        "northeast": {
          "lat": 12.02373512989272,
          "lng": 8.499546779892722
        },
        "southwest": {
          "lat": 12.02103547010728,
          "lng": 8.496847120107278
        }
      },
      "formatted_address": "7F4C2FCX+X78, Kofar Danwawu 700252, Kano, Nigeria",
      "google_map_url": "https://maps.google.com?q=12.0224011,8.498187699999999",
      "google_place_id": "ChIJcyA99TaBrhERpvuTEsU68sU"
    }
  },
  {
    "id": "85122",
    "name": "LAYIN TELOLI (K/GIDAN MAI-UNGUWAR K/GIWA IV)",
    "registration_area_id": "4412",
    "precise_location": null,
    "abbreviation": "018",
    "units": "018",
    "delimitation": "19/07/03/018",
    "remark": "EXISTING PU",
    "ward_id": "4412",
    "ward_name": "DALA",
    "local_government_id": "376",
    "local_government_name": "DALA",
    "state_id": "19",
    "state_name": "KANO",
    "location": null
  },
  {
    "id": "85123",
    "name": "TUDUN MAKERA I (GIDAN MAKERA I)",
    "registration_area_id": "4412",
    "precise_location": null,
    "abbreviation": "019",
    "units": "019",
    "delimitation": "19/07/03/019",
    "remark": "EXISTING PU",
    "ward_id": "4412",
    "ward_name": "DALA",
    "local_government_id": "376",
    "local_government_name": "DALA",
    "state_id": "19",
    "state_name": "KANO",
    "location": {
      "latitude": 12.040182,
      "longitude": 8.486738299999999,
      "viewport": {
        "northeast": {
          "lat": 12.04151297989272,
          "lng": 8.488098529892723
        },
        "southwest": {
          "lat": 12.03881332010728,
          "lng": 8.485398870107277
        }
      },
      "formatted_address": "2FRP+3MH, Jazuli A Muhd Rd, Kano, Nigeria",
      "google_map_url": "https://maps.google.com?q=12.040182,8.486738299999999",
      "google_place_id": "ChIJO3387Ql-rhERaG3lx5k1YXE"
    }
  },
  {
    "id": "85124",
    "name": "TUDUN MAKERA II (GIDAN MAKERA II)",
    "registration_area_id": "4412",
    "precise_location": null,
    "abbreviation": "020",
    "units": "020",
    "delimitation": "19/07/03/020",
    "remark": "EXISTING PU",
    "ward_id": "4412",
    "ward_name": "DALA",
    "local_government_id": "376",
    "local_government_name": "DALA",
    "state_id": "19",
    "state_name": "KANO",
    "location": {
      "latitude": 12.040182,
      "longitude": 8.486738299999999,
      "viewport": {
        "northeast": {
          "lat": 12.04151297989272,
          "lng": 8.488098529892723
        },
        "southwest": {
          "lat": 12.03881332010728,
          "lng": 8.485398870107277
        }
      },
      "formatted_address": "2FRP+3MH, Jazuli A Muhd Rd, Kano, Nigeria",
      "google_map_url": "https://maps.google.com?q=12.040182,8.486738299999999",
      "google_place_id": "ChIJO3387Ql-rhERaG3lx5k1YXE"
    }
  },
  {
    "id": "85125",
    "name": "TUDUN MAKERA III (GIDAN MAKERA III)",
    "registration_area_id": "4412",
    "precise_location": null,
    "abbreviation": "021",
    "units": "021",
    "delimitation": "19/07/03/021",
    "remark": "EXISTING PU",
    "ward_id": "4412",
    "ward_name": "DALA",
    "local_government_id": "376",
    "local_government_name": "DALA",
    "state_id": "19",
    "state_name": "KANO",
    "location": {
      "latitude": 12.040182,
      "longitude": 8.486738299999999,
      "viewport": {
        "northeast": {
          "lat": 12.04151297989272,
          "lng": 8.488098529892723
        },
        "southwest": {
          "lat": 12.03881332010728,
          "lng": 8.485398870107277
        }
      },
      "formatted_address": "2FRP+3MH, Jazuli A Muhd Rd, Kano, Nigeria",
      "google_map_url": "https://maps.google.com?q=12.040182,8.486738299999999",
      "google_place_id": "ChIJO3387Ql-rhERaG3lx5k1YXE"
    }
  },
  {
    "id": "85126",
    "name": "FILIN RIJIYA BIYU I (K/GIDAN MAI-UNGUWAR (R/BIYU) I)",
    "registration_area_id": "4412",
    "precise_location": null,
    "abbreviation": "022",
    "units": "022",
    "delimitation": "19/07/03/022",
    "remark": "EXISTING PU",
    "ward_id": "4412",
    "ward_name": "DALA",
    "local_government_id": "376",
    "local_government_name": "DALA",
    "state_id": "19",
    "state_name": "KANO",
    "location": null
  },
  {
    "id": "85127",
    "name": "FILIN RIJIYA BIYU II (K/GIDAN MAI-UNGUWAR (R/BIYU) II)",
    "registration_area_id": "4412",
    "precise_location": null,
    "abbreviation": "023",
    "units": "023",
    "delimitation": "19/07/03/023",
    "remark": "EXISTING PU",
    "ward_id": "4412",
    "ward_name": "DALA",
    "local_government_id": "376",
    "local_government_name": "DALA",
    "state_id": "19",
    "state_name": "KANO",
    "location": null
  },
  {
    "id": "85128",
    "name": "NAFAHATU ISLAMIYYA, SCH. I P/BUILD I",
    "registration_area_id": "4412",
    "precise_location": null,
    "abbreviation": "024",
    "units": "024",
    "delimitation": "19/07/03/024",
    "remark": "EXISTING PU",
    "ward_id": "4412",
    "ward_name": "DALA",
    "local_government_id": "376",
    "local_government_name": "DALA",
    "state_id": "19",
    "state_name": "KANO",
    "location": {
      "latitude": 12.0102361,
      "longitude": 8.5075075,
      "viewport": {
        "northeast": {
          "lat": 12.01159452989272,
          "lng": 8.50886282989272
        },
        "southwest": {
          "lat": 12.00889487010727,
          "lng": 8.506163170107277
        }
      },
      "formatted_address": "7F4C2G65+422, Kano City 700251, Kano, Nigeria",
      "google_map_url": "https://maps.google.com?q=12.0102361,8.5075075",
      "google_place_id": "ChIJ4dGAA6qBrhEROpBDVF-mW8A"
    }
  },
  {
    "id": "85129",
    "name": "NAFAHATU ISLAMIYYA ,SCH. I P/BUILD II",
    "registration_area_id": "4412",
    "precise_location": null,
    "abbreviation": "025",
    "units": "025",
    "delimitation": "19/07/03/025",
    "remark": "EXISTING PU",
    "ward_id": "4412",
    "ward_name": "DALA",
    "local_government_id": "376",
    "local_government_name": "DALA",
    "state_id": "19",
    "state_name": "KANO",
    "location": {
      "latitude": 12.0102361,
      "longitude": 8.5075075,
      "viewport": {
        "northeast": {
          "lat": 12.01159452989272,
          "lng": 8.50886282989272
        },
        "southwest": {
          "lat": 12.00889487010727,
          "lng": 8.506163170107277
        }
      },
      "formatted_address": "7F4C2G65+422, Kano City 700251, Kano, Nigeria",
      "google_map_url": "https://maps.google.com?q=12.0102361,8.5075075",
      "google_place_id": "ChIJ4dGAA6qBrhEROpBDVF-mW8A"
    }
  },
  {
    "id": "85130",
    "name": "NAFAHATU ISLAMIYYA, SCH. I P/BUILD III",
    "registration_area_id": "4412",
    "precise_location": null,
    "abbreviation": "026",
    "units": "026",
    "delimitation": "19/07/03/026",
    "remark": "EXISTING PU",
    "ward_id": "4412",
    "ward_name": "DALA",
    "local_government_id": "376",
    "local_government_name": "DALA",
    "state_id": "19",
    "state_name": "KANO",
    "location": {
      "latitude": 12.0552766,
      "longitude": 8.482722599999999,
      "viewport": {
        "northeast": {
          "lat": 12.05666177989272,
          "lng": 8.484054629892722
        },
        "southwest": {
          "lat": 12.05396212010728,
          "lng": 8.481354970107278
        }
      },
      "formatted_address": "3F4M+435, 700211, Kano, Nigeria",
      "google_map_url": "https://maps.google.com?q=12.0552766,8.482722599999999",
      "google_place_id": "ChIJO63hP_V9rhER9esAnyFMriw"
    }
  },
  {
    "id": "85131",
    "name": "SHATSHARI (KAROFI) O/SPACE I",
    "registration_area_id": "4412",
    "precise_location": null,
    "abbreviation": "027",
    "units": "027",
    "delimitation": "19/07/03/027",
    "remark": "EXISTING PU",
    "ward_id": "4412",
    "ward_name": "DALA",
    "local_government_id": "376",
    "local_government_name": "DALA",
    "state_id": "19",
    "state_name": "KANO",
    "location": {
      "latitude": 12.0071466,
      "longitude": 8.4969368,
      "viewport": {
        "northeast": {
          "lat": 12.00851047989272,
          "lng": 8.49829482989272
        },
        "southwest": {
          "lat": 12.00581082010728,
          "lng": 8.495595170107276
        }
      },
      "formatted_address": "Ƙofar-Ruwa Road, Opposite Gwammaja Housing Estate, Kano, Nigeria",
      "google_map_url": "https://maps.google.com?q=12.0071466,8.4969368",
      "google_place_id": "ChIJyc_8E5eArhERePhRA8ZENgQ"
    }
  },
  {
    "id": "85132",
    "name": "SHATSHARI (KAROFI) O/SPACE II",
    "registration_area_id": "4412",
    "precise_location": null,
    "abbreviation": "028",
    "units": "028",
    "delimitation": "19/07/03/028",
    "remark": "EXISTING PU",
    "ward_id": "4412",
    "ward_name": "DALA",
    "local_government_id": "376",
    "local_government_name": "DALA",
    "state_id": "19",
    "state_name": "KANO",
    "location": {
      "latitude": 12.0071466,
      "longitude": 8.4969368,
      "viewport": {
        "northeast": {
          "lat": 12.00851047989272,
          "lng": 8.49829482989272
        },
        "southwest": {
          "lat": 12.00581082010728,
          "lng": 8.495595170107276
        }
      },
      "formatted_address": "Ƙofar-Ruwa Road, Opposite Gwammaja Housing Estate, Kano, Nigeria",
      "google_map_url": "https://maps.google.com?q=12.0071466,8.4969368",
      "google_place_id": "ChIJyc_8E5eArhERePhRA8ZENgQ"
    }
  },
  {
    "id": "85133",
    "name": "SHATSHARI (KAROFI) O/SPACE III",
    "registration_area_id": "4412",
    "precise_location": null,
    "abbreviation": "029",
    "units": "029",
    "delimitation": "19/07/03/029",
    "remark": "EXISTING PU",
    "ward_id": "4412",
    "ward_name": "DALA",
    "local_government_id": "376",
    "local_government_name": "DALA",
    "state_id": "19",
    "state_name": "KANO",
    "location": {
      "latitude": 12.0071466,
      "longitude": 8.4969368,
      "viewport": {
        "northeast": {
          "lat": 12.00851047989272,
          "lng": 8.49829482989272
        },
        "southwest": {
          "lat": 12.00581082010728,
          "lng": 8.495595170107276
        }
      },
      "formatted_address": "Ƙofar-Ruwa Road, Opposite Gwammaja Housing Estate, Kano, Nigeria",
      "google_map_url": "https://maps.google.com?q=12.0071466,8.4969368",
      "google_place_id": "ChIJyc_8E5eArhERePhRA8ZENgQ"
    }
  },
  {
    "id": "85134",
    "name": "BAYAN DALA I",
    "registration_area_id": "4412",
    "precise_location": null,
    "abbreviation": "030",
    "units": "030",
    "delimitation": "19/07/03/030",
    "remark": "NEW PU",
    "ward_id": "4412",
    "ward_name": "DALA",
    "local_government_id": "376",
    "local_government_name": "DALA",
    "state_id": "19",
    "state_name": "KANO",
    "location": {
      "latitude": 12.0125978,
      "longitude": 8.5037992,
      "viewport": {
        "northeast": {
          "lat": 12.01436877989272,
          "lng": 8.505392779892722
        },
        "southwest": {
          "lat": 12.01166912010728,
          "lng": 8.502693120107278
        }
      },
      "formatted_address": "Ruwan Dala, Kano City 700212, Kano, Nigeria",
      "google_map_url": "https://maps.google.com?q=12.0125978,8.5037992",
      "google_place_id": "ChIJsRrBr7-ArhERb-zkhelMmF0"
    }
  },
  {
    "id": "85135",
    "name": "BAYAN DALA II",
    "registration_area_id": "4412",
    "precise_location": null,
    "abbreviation": "031",
    "units": "031",
    "delimitation": "19/07/03/031",
    "remark": "NEW PU",
    "ward_id": "4412",
    "ward_name": "DALA",
    "local_government_id": "376",
    "local_government_name": "DALA",
    "state_id": "19",
    "state_name": "KANO",
    "location": {
      "latitude": 12.0125978,
      "longitude": 8.5037992,
      "viewport": {
        "northeast": {
          "lat": 12.01436877989272,
          "lng": 8.505392779892722
        },
        "southwest": {
          "lat": 12.01166912010728,
          "lng": 8.502693120107278
        }
      },
      "formatted_address": "Ruwan Dala, Kano City 700212, Kano, Nigeria",
      "google_map_url": "https://maps.google.com?q=12.0125978,8.5037992",
      "google_place_id": "ChIJsRrBr7-ArhERb-zkhelMmF0"
    }
  },
  {
    "id": "85136",
    "name": "BAYAN DALA III",
    "registration_area_id": "4412",
    "precise_location": null,
    "abbreviation": "032",
    "units": "032",
    "delimitation": "19/07/03/032",
    "remark": "NEW PU",
    "ward_id": "4412",
    "ward_name": "DALA",
    "local_government_id": "376",
    "local_government_name": "DALA",
    "state_id": "19",
    "state_name": "KANO",
    "location": {
      "latitude": 12.0125978,
      "longitude": 8.5037992,
      "viewport": {
        "northeast": {
          "lat": 12.01436877989272,
          "lng": 8.505392779892722
        },
        "southwest": {
          "lat": 12.01166912010728,
          "lng": 8.502693120107278
        }
      },
      "formatted_address": "Ruwan Dala, Kano City 700212, Kano, Nigeria",
      "google_map_url": "https://maps.google.com?q=12.0125978,8.5037992",
      "google_place_id": "ChIJsRrBr7-ArhERb-zkhelMmF0"
    }
  },
  {
    "id": "85137",
    "name": "BAYAN DALA IV",
    "registration_area_id": "4412",
    "precise_location": null,
    "abbreviation": "033",
    "units": "033",
    "delimitation": "19/07/03/033",
    "remark": "NEW PU",
    "ward_id": "4412",
    "ward_name": "DALA",
    "local_government_id": "376",
    "local_government_name": "DALA",
    "state_id": "19",
    "state_name": "KANO",
    "location": {
      "latitude": 12.0071466,
      "longitude": 8.4969368,
      "viewport": {
        "northeast": {
          "lat": 12.00851047989272,
          "lng": 8.49829482989272
        },
        "southwest": {
          "lat": 12.00581082010728,
          "lng": 8.495595170107276
        }
      },
      "formatted_address": "Ƙofar-Ruwa Road, Opposite Gwammaja Housing Estate, Kano, Nigeria",
      "google_map_url": "https://maps.google.com?q=12.0071466,8.4969368",
      "google_place_id": "ChIJyc_8E5eArhERePhRA8ZENgQ"
    }
  }
]