[
  {
    "id": "348130",
    "name": "IFINRIN/ST DAVIDS PRY SCH",
    "registration_area_id": "17679",
    "precise_location": null,
    "abbreviation": "001",
    "units": "001",
    "delimitation": "28/17/01/001",
    "remark": "EXISTING PU",
    "ward_id": "17679",
    "ward_name": "AFO",
    "local_government_id": "598",
    "local_government_name": "OSE",
    "state_id": "28",
    "state_name": "ONDO",
    "location": {
      "latitude": 7.369578199999999,
      "longitude": 5.828280899999999,
      "viewport": {
        "northeast": {
          "lat": 7.370893279892723,
          "lng": 5.829598379892722
        },
        "southwest": {
          "lat": 7.368193620107279,
          "lng": 5.826898720107278
        }
      },
      "formatted_address": "9R9H+R8J, Idoani-Ikun Oba Rd, 341117, Afo, Nigeria",
      "google_map_url": "https://maps.google.com?q=7.369578199999999,5.828280899999999",
      "google_place_id": "ChIJg2dh7pBJRhARHmDeNdYDKeU"
    }
  },
  {
    "id": "348131",
    "name": "OKE-AFO/U.P.E SCH",
    "registration_area_id": "17679",
    "precise_location": null,
    "abbreviation": "002",
    "units": "002",
    "delimitation": "28/17/01/002",
    "remark": "EXISTING PU",
    "ward_id": "17679",
    "ward_name": "AFO",
    "local_government_id": "598",
    "local_government_name": "OSE",
    "state_id": "28",
    "state_name": "ONDO",
    "location": {
      "latitude": 6.9119129,
      "longitude": 5.7758585,
      "viewport": {
        "northeast": {
          "lat": 6.913682379892722,
          "lng": 5.778107599999999
        },
        "southwest": {
          "lat": 6.910982720107278,
          "lng": 5.775108800000001
        }
      },
      "formatted_address": "WQ6G+Q89, 341111, Ifon, Nigeria",
      "google_map_url": "https://maps.google.com?q=6.9119129,5.7758585",
      "google_place_id": "ChIJXSw7Fdf9RhARpumaX8xz4IY"
    }
  },
  {
    "id": "348132",
    "name": "OKE-AFO/OPEN SPACE AT OGUNLERE",
    "registration_area_id": "17679",
    "precise_location": null,
    "abbreviation": "003",
    "units": "003",
    "delimitation": "28/17/01/003",
    "remark": "EXISTING PU",
    "ward_id": "17679",
    "ward_name": "AFO",
    "local_government_id": "598",
    "local_government_name": "OSE",
    "state_id": "28",
    "state_name": "ONDO",
    "location": {
      "latitude": 7.4045735,
      "longitude": 5.012007,
      "viewport": {
        "northeast": {
          "lat": 7.40588277989272,
          "lng": 5.013446829892721
        },
        "southwest": {
          "lat": 7.403183120107276,
          "lng": 5.010747170107277
        }
      },
      "formatted_address": "C236+RRC, Unnamed Road, 340110, Igbara Oke, Nigeria",
      "google_map_url": "https://maps.google.com?q=7.4045735,5.012007",
      "google_place_id": "ChIJVVVVVdF0OBARnK1ZYzMF2PE"
    }
  },
  {
    "id": "348133",
    "name": "UGBOWOYE/UGBOWOYE ST",
    "registration_area_id": "17679",
    "precise_location": null,
    "abbreviation": "004",
    "units": "004",
    "delimitation": "28/17/01/004",
    "remark": "EXISTING PU",
    "ward_id": "17679",
    "ward_name": "AFO",
    "local_government_id": "598",
    "local_government_name": "OSE",
    "state_id": "28",
    "state_name": "ONDO",
    "location": {
      "latitude": 6.9119129,
      "longitude": 5.7758585,
      "viewport": {
        "northeast": {
          "lat": 6.913682379892722,
          "lng": 5.778107599999999
        },
        "southwest": {
          "lat": 6.910982720107278,
          "lng": 5.775108800000001
        }
      },
      "formatted_address": "WQ6G+Q89, 341111, Ifon, Nigeria",
      "google_map_url": "https://maps.google.com?q=6.9119129,5.7758585",
      "google_place_id": "ChIJXSw7Fdf9RhARpumaX8xz4IY"
    }
  },
  {
    "id": "348134",
    "name": "ADE CAMP/OHINMALE/OPEN SPACE AT OHINMALE",
    "registration_area_id": "17679",
    "precise_location": null,
    "abbreviation": "005",
    "units": "005",
    "delimitation": "28/17/01/005",
    "remark": "EXISTING PU",
    "ward_id": "17679",
    "ward_name": "AFO",
    "local_government_id": "598",
    "local_government_name": "OSE",
    "state_id": "28",
    "state_name": "ONDO",
    "location": {
      "latitude": 7.482307199999999,
      "longitude": 5.7499614,
      "viewport": {
        "northeast": {
          "lat": 7.483466649999998,
          "lng": 5.75632425
        },
        "southwest": {
          "lat": 7.47882885,
          "lng": 5.730872850000001
        }
      },
      "formatted_address": "Ondo, Akungba, Nigeria",
      "google_map_url": "https://maps.google.com?q=7.482307199999999,5.7499614",
      "google_place_id": "ChIJA-BXg6g0RhARoBHYulriIaI"
    }
  },
  {
    "id": "348135",
    "name": "UGBE AFO QTRS 1/ST JAMES PRY SCH I",
    "registration_area_id": "17679",
    "precise_location": null,
    "abbreviation": "006",
    "units": "006",
    "delimitation": "28/17/01/006",
    "remark": "EXISTING PU",
    "ward_id": "17679",
    "ward_name": "AFO",
    "local_government_id": "598",
    "local_government_name": "OSE",
    "state_id": "28",
    "state_name": "ONDO",
    "location": null
  },
  {
    "id": "348136",
    "name": "UGBE AFO QTRS 11/ST JAMES PRY SCH II",
    "registration_area_id": "17679",
    "precise_location": null,
    "abbreviation": "007",
    "units": "007",
    "delimitation": "28/17/01/007",
    "remark": "EXISTING PU",
    "ward_id": "17679",
    "ward_name": "AFO",
    "local_government_id": "598",
    "local_government_name": "OSE",
    "state_id": "28",
    "state_name": "ONDO",
    "location": {
      "latitude": 7.268670599999999,
      "longitude": 5.215028999999999,
      "viewport": {
        "northeast": {
          "lat": 7.270015629892723,
          "lng": 5.216343879892722
        },
        "southwest": {
          "lat": 7.267315970107279,
          "lng": 5.213644220107279
        }
      },
      "formatted_address": "7698+F2P, Ijapo Estate, Before Solton Hotel, 234340, Akure, Nigeria",
      "google_map_url": "https://maps.google.com?q=7.268670599999999,5.215028999999999",
      "google_place_id": "ChIJK2_17M-PRxAR-C__hFfDvMw"
    }
  },
  {
    "id": "348137",
    "name": "UGBE AFO QTRS 111/ST JAMES PRY SCH III",
    "registration_area_id": "17679",
    "precise_location": null,
    "abbreviation": "008",
    "units": "008",
    "delimitation": "28/17/01/008",
    "remark": "EXISTING PU",
    "ward_id": "17679",
    "ward_name": "AFO",
    "local_government_id": "598",
    "local_government_name": "OSE",
    "state_id": "28",
    "state_name": "ONDO",
    "location": null
  },
  {
    "id": "348138",
    "name": "IBESAN/L.A PRY SCH",
    "registration_area_id": "17679",
    "precise_location": null,
    "abbreviation": "009",
    "units": "009",
    "delimitation": "28/17/01/009",
    "remark": "EXISTING PU",
    "ward_id": "17679",
    "ward_name": "AFO",
    "local_government_id": "598",
    "local_government_name": "OSE",
    "state_id": "28",
    "state_name": "ONDO",
    "location": {
      "latitude": 7.106006499999999,
      "longitude": 4.810423699999999,
      "viewport": {
        "northeast": {
          "lat": 7.107384379892721,
          "lng": 4.811790279892723
        },
        "southwest": {
          "lat": 7.104684720107278,
          "lng": 4.809090620107279
        }
      },
      "formatted_address": "4R46+C53, Funbi Fagun, 351110, Ondo, Nigeria",
      "google_map_url": "https://maps.google.com?q=7.106006499999999,4.810423699999999",
      "google_place_id": "ChIJe4OaqYBhOBARlOcA0Llhtwg"
    }
  },
  {
    "id": "348139",
    "name": "OPEN SPACE AT AKOMOGBE'S HOUSE",
    "registration_area_id": "17679",
    "precise_location": null,
    "abbreviation": "010",
    "units": "010",
    "delimitation": "28/17/01/010",
    "remark": "NEW PU",
    "ward_id": "17679",
    "ward_name": "AFO",
    "local_government_id": "598",
    "local_government_name": "OSE",
    "state_id": "28",
    "state_name": "ONDO",
    "location": {
      "latitude": 6.9119129,
      "longitude": 5.7758585,
      "viewport": {
        "northeast": {
          "lat": 6.913682379892722,
          "lng": 5.778107599999999
        },
        "southwest": {
          "lat": 6.910982720107278,
          "lng": 5.775108800000001
        }
      },
      "formatted_address": "WQ6G+Q89, 341111, Ifon, Nigeria",
      "google_map_url": "https://maps.google.com?q=6.9119129,5.7758585",
      "google_place_id": "ChIJXSw7Fdf9RhARpumaX8xz4IY"
    }
  }
]