[
  {
    "id": "335654",
    "name": "KOFAR DANKAWU",
    "registration_area_id": "17046",
    "precise_location": null,
    "abbreviation": "001",
    "units": "001",
    "delimitation": "26/06/03/001",
    "remark": "EXISTING PU",
    "ward_id": "17046",
    "ward_name": "MAKERA",
    "local_government_id": "542",
    "local_government_name": "CHANCHAGA",
    "state_id": "26",
    "state_name": "NIGER",
    "location": null
  },
  {
    "id": "335655",
    "name": "KOFAR BAWA MAIWANKI",
    "registration_area_id": "17046",
    "precise_location": null,
    "abbreviation": "002",
    "units": "002",
    "delimitation": "26/06/03/002",
    "remark": "EXISTING PU",
    "ward_id": "17046",
    "ward_name": "MAKERA",
    "local_government_id": "542",
    "local_government_name": "CHANCHAGA",
    "state_id": "26",
    "state_name": "NIGER",
    "location": {
      "latitude": 9.6513069,
      "longitude": 6.5338736,
      "viewport": {
        "northeast": {
          "lat": 9.652673979892722,
          "lng": 6.535240729892721
        },
        "southwest": {
          "lat": 9.649974320107278,
          "lng": 6.532541070107277
        }
      },
      "formatted_address": "Bosso Road, Bosso 920101, Minna, Nigeria",
      "google_map_url": "https://maps.google.com?q=9.6513069,6.5338736",
      "google_place_id": "ChIJjUuXSttxTBARGiN_7e8Cyfo"
    }
  },
  {
    "id": "335656",
    "name": "ANWUARUDEEN MOSQUE",
    "registration_area_id": "17046",
    "precise_location": null,
    "abbreviation": "003",
    "units": "003",
    "delimitation": "26/06/03/003",
    "remark": "EXISTING PU",
    "ward_id": "17046",
    "ward_name": "MAKERA",
    "local_government_id": "542",
    "local_government_name": "CHANCHAGA",
    "state_id": "26",
    "state_name": "NIGER",
    "location": {
      "latitude": 9.615765,
      "longitude": 6.5450443,
      "viewport": {
        "northeast": {
          "lat": 9.617113029892723,
          "lng": 6.546390329892723
        },
        "southwest": {
          "lat": 9.614413370107279,
          "lng": 6.543690670107279
        }
      },
      "formatted_address": "JG8W+824, Minna 920101, Minna, Nigeria",
      "google_map_url": "https://maps.google.com?q=9.615765,6.5450443",
      "google_place_id": "ChIJHRTTQK1xTBARgzaeXDBHkwc"
    }
  },
  {
    "id": "335657",
    "name": "FILIN QUARTERS",
    "registration_area_id": "17046",
    "precise_location": null,
    "abbreviation": "004",
    "units": "004",
    "delimitation": "26/06/03/004",
    "remark": "EXISTING PU",
    "ward_id": "17046",
    "ward_name": "MAKERA",
    "local_government_id": "542",
    "local_government_name": "CHANCHAGA",
    "state_id": "26",
    "state_name": "NIGER",
    "location": {
      "latitude": 9.6152476,
      "longitude": 6.5399258,
      "viewport": {
        "northeast": {
          "lat": 9.616588879892722,
          "lng": 6.541270829892722
        },
        "southwest": {
          "lat": 9.613889220107279,
          "lng": 6.538571170107279
        }
      },
      "formatted_address": "No. 158D, Old Airport Quarters, Minna, Nigeria",
      "google_map_url": "https://maps.google.com?q=9.6152476,6.5399258",
      "google_place_id": "ChIJ_17Ma6txTBAR39FA2B2rsyI"
    }
  },
  {
    "id": "335658",
    "name": "HASSAN KUKURUKU",
    "registration_area_id": "17046",
    "precise_location": null,
    "abbreviation": "005",
    "units": "005",
    "delimitation": "26/06/03/005",
    "remark": "EXISTING PU",
    "ward_id": "17046",
    "ward_name": "MAKERA",
    "local_government_id": "542",
    "local_government_name": "CHANCHAGA",
    "state_id": "26",
    "state_name": "NIGER",
    "location": null
  },
  {
    "id": "335659",
    "name": "KOFAR MADAKI",
    "registration_area_id": "17046",
    "precise_location": null,
    "abbreviation": "006",
    "units": "006",
    "delimitation": "26/06/03/006",
    "remark": "EXISTING PU",
    "ward_id": "17046",
    "ward_name": "MAKERA",
    "local_government_id": "542",
    "local_government_name": "CHANCHAGA",
    "state_id": "26",
    "state_name": "NIGER",
    "location": null
  },
  {
    "id": "335660",
    "name": "IKON ALLAH MOTORS",
    "registration_area_id": "17046",
    "precise_location": null,
    "abbreviation": "007",
    "units": "007",
    "delimitation": "26/06/03/007",
    "remark": "EXISTING PU",
    "ward_id": "17046",
    "ward_name": "MAKERA",
    "local_government_id": "542",
    "local_government_name": "CHANCHAGA",
    "state_id": "26",
    "state_name": "NIGER",
    "location": {
      "latitude": 9.5945026,
      "longitude": 6.574466699999999,
      "viewport": {
        "northeast": {
          "lat": 9.595865579892722,
          "lng": 6.575615579892721
        },
        "southwest": {
          "lat": 9.593165920107278,
          "lng": 6.572915920107278
        }
      },
      "formatted_address": "HHVF+QQX, Niger, Minna, Nigeria",
      "google_map_url": "https://maps.google.com?q=9.5945026,6.574466699999999",
      "google_place_id": "ChIJ-ZkBKd5xTBARc___skeaKjU"
    }
  },
  {
    "id": "335661",
    "name": "WARD HEAD OFFICE",
    "registration_area_id": "17046",
    "precise_location": null,
    "abbreviation": "008",
    "units": "008",
    "delimitation": "26/06/03/008",
    "remark": "EXISTING PU",
    "ward_id": "17046",
    "ward_name": "MAKERA",
    "local_government_id": "542",
    "local_government_name": "CHANCHAGA",
    "state_id": "26",
    "state_name": "NIGER",
    "location": {
      "latitude": 9.6165674,
      "longitude": 6.5496365,
      "viewport": {
        "northeast": {
          "lat": 9.617901929892723,
          "lng": 6.550966929892723
        },
        "southwest": {
          "lat": 9.615202270107279,
          "lng": 6.548267270107279
        }
      },
      "formatted_address": "JG8X+JVM, Minna 920101, Minna, Nigeria",
      "google_map_url": "https://maps.google.com?q=9.6165674,6.5496365",
      "google_place_id": "ChIJcb1jLbNxTBARcIEjMMBae68"
    }
  },
  {
    "id": "335662",
    "name": "ANSARUDEEN MOSQUE",
    "registration_area_id": "17046",
    "precise_location": null,
    "abbreviation": "009",
    "units": "009",
    "delimitation": "26/06/03/009",
    "remark": "EXISTING PU",
    "ward_id": "17046",
    "ward_name": "MAKERA",
    "local_government_id": "542",
    "local_government_name": "CHANCHAGA",
    "state_id": "26",
    "state_name": "NIGER",
    "location": {
      "latitude": 9.6171964,
      "longitude": 6.5429515,
      "viewport": {
        "northeast": {
          "lat": 9.618540829892723,
          "lng": 6.544284829892722
        },
        "southwest": {
          "lat": 9.615841170107279,
          "lng": 6.541585170107278
        }
      },
      "formatted_address": "101 Hospital Road, Minna 920211, Minna, Nigeria",
      "google_map_url": "https://maps.google.com?q=9.6171964,6.5429515",
      "google_place_id": "ChIJC4R3uKxxTBARNbpxA3CmXFc"
    }
  },
  {
    "id": "335663",
    "name": "HOSPITAL GATE",
    "registration_area_id": "17046",
    "precise_location": null,
    "abbreviation": "010",
    "units": "010",
    "delimitation": "26/06/03/010",
    "remark": "EXISTING PU",
    "ward_id": "17046",
    "ward_name": "MAKERA",
    "local_government_id": "542",
    "local_government_name": "CHANCHAGA",
    "state_id": "26",
    "state_name": "NIGER",
    "location": {
      "latitude": 9.5754237,
      "longitude": 6.564477200000001,
      "viewport": {
        "northeast": {
          "lat": 9.576889729892722,
          "lng": 6.565775629892722
        },
        "southwest": {
          "lat": 9.574190070107278,
          "lng": 6.563075970107279
        }
      },
      "formatted_address": "Unnamed Road, 920101, Minna, Nigeria",
      "google_map_url": "https://maps.google.com?q=9.5754237,6.564477200000001",
      "google_place_id": "ChIJQZ0ppvRxTBARRS3GSBykpqI"
    }
  },
  {
    "id": "335664",
    "name": "RAILWAY POLICE BARRACKS",
    "registration_area_id": "17046",
    "precise_location": null,
    "abbreviation": "011",
    "units": "011",
    "delimitation": "26/06/03/011",
    "remark": "EXISTING PU",
    "ward_id": "17046",
    "ward_name": "MAKERA",
    "local_government_id": "542",
    "local_government_name": "CHANCHAGA",
    "state_id": "26",
    "state_name": "NIGER",
    "location": {
      "latitude": 9.653673,
      "longitude": 6.519073199999999,
      "viewport": {
        "northeast": {
          "lat": 9.654867629892722,
          "lng": 6.520294079892722
        },
        "southwest": {
          "lat": 9.652167970107278,
          "lng": 6.517594420107278
        }
      },
      "formatted_address": "Bosso Police Divison Headquaters, Bosso 920101, Minna, Nigeria",
      "google_map_url": "https://maps.google.com?q=9.653673,6.519073199999999",
      "google_place_id": "ChIJ3yWSeZlwTBARqkT_iNpoCpw"
    }
  },
  {
    "id": "335665",
    "name": "POLICE BARRACKS",
    "registration_area_id": "17046",
    "precise_location": null,
    "abbreviation": "012",
    "units": "012",
    "delimitation": "26/06/03/012",
    "remark": "EXISTING PU",
    "ward_id": "17046",
    "ward_name": "MAKERA",
    "local_government_id": "542",
    "local_government_name": "CHANCHAGA",
    "state_id": "26",
    "state_name": "NIGER",
    "location": {
      "latitude": 9.6193229,
      "longitude": 6.5466124,
      "viewport": {
        "northeast": {
          "lat": 9.62057277989272,
          "lng": 6.547983429892722
        },
        "southwest": {
          "lat": 9.617873120107276,
          "lng": 6.545283770107277
        }
      },
      "formatted_address": "JG9W+PJH, Minna 920101, Minna, Nigeria",
      "google_map_url": "https://maps.google.com?q=9.6193229,6.5466124",
      "google_place_id": "ChIJnTzOfk1wTBARF2EK3bGv0oE"
    }
  },
  {
    "id": "335666",
    "name": "UMARU ERANA  ROAD JUNCTION",
    "registration_area_id": "17046",
    "precise_location": null,
    "abbreviation": "013",
    "units": "013",
    "delimitation": "26/06/03/013",
    "remark": "EXISTING PU",
    "ward_id": "17046",
    "ward_name": "MAKERA",
    "local_government_id": "542",
    "local_government_name": "CHANCHAGA",
    "state_id": "26",
    "state_name": "NIGER",
    "location": {
      "latitude": 9.607164,
      "longitude": 6.545999000000001,
      "viewport": {
        "northeast": {
          "lat": 9.608521679892721,
          "lng": 6.547336479892721
        },
        "southwest": {
          "lat": 9.605822020107277,
          "lng": 6.544636820107277
        }
      },
      "formatted_address": "Umaru Erana Road, Minna South 920101, Minna, Nigeria",
      "google_map_url": "https://maps.google.com?q=9.607164,6.545999000000001",
      "google_place_id": "ChIJzyuFBqlxTBAROVCLaxKPSfo"
    }
  },
  {
    "id": "335667",
    "name": "PIGERY JUNCTION",
    "registration_area_id": "17046",
    "precise_location": null,
    "abbreviation": "014",
    "units": "014",
    "delimitation": "26/06/03/014",
    "remark": "EXISTING PU",
    "ward_id": "17046",
    "ward_name": "MAKERA",
    "local_government_id": "542",
    "local_government_name": "CHANCHAGA",
    "state_id": "26",
    "state_name": "NIGER",
    "location": {
      "latitude": 9.621836600000002,
      "longitude": 6.5316765,
      "viewport": {
        "northeast": {
          "lat": 9.623178279892722,
          "lng": 6.532988329892721
        },
        "southwest": {
          "lat": 9.620478620107278,
          "lng": 6.530288670107277
        }
      },
      "formatted_address": "JGCJ+PMP, 920101, Minna, Nigeria",
      "google_map_url": "https://maps.google.com?q=9.621836600000002,6.5316765",
      "google_place_id": "ChIJWYJkXZ5xTBARmtyHNvJNG5o"
    }
  },
  {
    "id": "335668",
    "name": "POLICE TRAINIG SCHOOL",
    "registration_area_id": "17046",
    "precise_location": null,
    "abbreviation": "015",
    "units": "015",
    "delimitation": "26/06/03/015",
    "remark": "EXISTING PU",
    "ward_id": "17046",
    "ward_name": "MAKERA",
    "local_government_id": "542",
    "local_government_name": "CHANCHAGA",
    "state_id": "26",
    "state_name": "NIGER",
    "location": {
      "latitude": 9.606290099999999,
      "longitude": 6.5518595,
      "viewport": {
        "northeast": {
          "lat": 9.60758612989272,
          "lng": 6.553030029892722
        },
        "southwest": {
          "lat": 9.604886470107276,
          "lng": 6.550330370107278
        }
      },
      "formatted_address": "JH42+GP9, Minna 920101, Minna, Nigeria",
      "google_map_url": "https://maps.google.com?q=9.606290099999999,6.5518595",
      "google_place_id": "ChIJndeHTbdxTBARXMvPAMhQsPU"
    }
  },
  {
    "id": "335669",
    "name": "OLD BATA SHOP (OPEN SPACE)",
    "registration_area_id": "17046",
    "precise_location": null,
    "abbreviation": "016",
    "units": "016",
    "delimitation": "26/06/03/016",
    "remark": "NEW PU",
    "ward_id": "17046",
    "ward_name": "MAKERA",
    "local_government_id": "542",
    "local_government_name": "CHANCHAGA",
    "state_id": "26",
    "state_name": "NIGER",
    "location": null
  },
  {
    "id": "335670",
    "name": "FILIN MUKEKE",
    "registration_area_id": "17046",
    "precise_location": null,
    "abbreviation": "017",
    "units": "017",
    "delimitation": "26/06/03/017",
    "remark": "NEW PU",
    "ward_id": "17046",
    "ward_name": "MAKERA",
    "local_government_id": "542",
    "local_government_name": "CHANCHAGA",
    "state_id": "26",
    "state_name": "NIGER",
    "location": null
  },
  {
    "id": "335671",
    "name": "KAWU RATA OPEN SPACE",
    "registration_area_id": "17046",
    "precise_location": null,
    "abbreviation": "018",
    "units": "018",
    "delimitation": "26/06/03/018",
    "remark": "NEW PU",
    "ward_id": "17046",
    "ward_name": "MAKERA",
    "local_government_id": "542",
    "local_government_name": "CHANCHAGA",
    "state_id": "26",
    "state_name": "NIGER",
    "location": null
  },
  {
    "id": "335672",
    "name": "FILIN TANIMU CHINDO",
    "registration_area_id": "17046",
    "precise_location": null,
    "abbreviation": "019",
    "units": "019",
    "delimitation": "26/06/03/019",
    "remark": "NEW PU",
    "ward_id": "17046",
    "ward_name": "MAKERA",
    "local_government_id": "542",
    "local_government_name": "CHANCHAGA",
    "state_id": "26",
    "state_name": "NIGER",
    "location": null
  },
  {
    "id": "335673",
    "name": "CENTRAL GUEST INN",
    "registration_area_id": "17046",
    "precise_location": null,
    "abbreviation": "020",
    "units": "020",
    "delimitation": "26/06/03/020",
    "remark": "NEW PU",
    "ward_id": "17046",
    "ward_name": "MAKERA",
    "local_government_id": "542",
    "local_government_name": "CHANCHAGA",
    "state_id": "26",
    "state_name": "NIGER",
    "location": {
      "latitude": 9.615853699999999,
      "longitude": 6.5464384,
      "viewport": {
        "northeast": {
          "lat": 9.617247429892721,
          "lng": 6.547781279892721
        },
        "southwest": {
          "lat": 9.614547770107277,
          "lng": 6.545081620107277
        }
      },
      "formatted_address": "34Bosso Road, Minna 920101, Minna, Nigeria",
      "google_map_url": "https://maps.google.com?q=9.615853699999999,6.5464384",
      "google_place_id": "ChIJbTs1lahxTBARbQSkjTYJp8o"
    }
  },
  {
    "id": "335674",
    "name": "FILIN WAKILI",
    "registration_area_id": "17046",
    "precise_location": null,
    "abbreviation": "021",
    "units": "021",
    "delimitation": "26/06/03/021",
    "remark": "NEW PU",
    "ward_id": "17046",
    "ward_name": "MAKERA",
    "local_government_id": "542",
    "local_government_name": "CHANCHAGA",
    "state_id": "26",
    "state_name": "NIGER",
    "location": null
  },
  {
    "id": "335675",
    "name": "GINDIN KUKA",
    "registration_area_id": "17046",
    "precise_location": null,
    "abbreviation": "022",
    "units": "022",
    "delimitation": "26/06/03/022",
    "remark": "NEW PU",
    "ward_id": "17046",
    "ward_name": "MAKERA",
    "local_government_id": "542",
    "local_government_name": "CHANCHAGA",
    "state_id": "26",
    "state_name": "NIGER",
    "location": {
      "latitude": 43.6005156,
      "longitude": -79.77583109999999,
      "viewport": {
        "northeast": {
          "lat": 43.60196587989272,
          "lng": -79.77450317010728
        },
        "southwest": {
          "lat": 43.59926622010727,
          "lng": -79.77720282989273
        }
      },
      "formatted_address": "2865 Argentia Rd. Units 4-5, Mississauga, ON L5N 8G6, Canada",
      "google_map_url": "https://maps.google.com?q=43.6005156,-79.77583109999999",
      "google_place_id": "ChIJl3FK4PVqK4gRr3dKymJwDRc"
    }
  },
  {
    "id": "335676",
    "name": "MONI OPEN SPACE",
    "registration_area_id": "17046",
    "precise_location": null,
    "abbreviation": "023",
    "units": "023",
    "delimitation": "26/06/03/023",
    "remark": "NEW PU",
    "ward_id": "17046",
    "ward_name": "MAKERA",
    "local_government_id": "542",
    "local_government_name": "CHANCHAGA",
    "state_id": "26",
    "state_name": "NIGER",
    "location": {
      "latitude": 9.6509971,
      "longitude": 6.530345899999999,
      "viewport": {
        "northeast": {
          "lat": 9.652324829892722,
          "lng": 6.531674929892722
        },
        "southwest": {
          "lat": 9.649625170107278,
          "lng": 6.528975270107278
        }
      },
      "formatted_address": "MG2J+94R, Bosso 920101, Minna, Nigeria",
      "google_map_url": "https://maps.google.com?q=9.6509971,6.530345899999999",
      "google_place_id": "ChIJtxtU61hxTBARA0-nZ8zlcKQ"
    }
  },
  {
    "id": "335677",
    "name": "WILLIAMS OPEN SPACE",
    "registration_area_id": "17046",
    "precise_location": null,
    "abbreviation": "024",
    "units": "024",
    "delimitation": "26/06/03/024",
    "remark": "NEW PU",
    "ward_id": "17046",
    "ward_name": "MAKERA",
    "local_government_id": "542",
    "local_government_name": "CHANCHAGA",
    "state_id": "26",
    "state_name": "NIGER",
    "location": {
      "latitude": 9.582457,
      "longitude": 6.565536,
      "viewport": {
        "northeast": {
          "lat": 9.58338117989272,
          "lng": 6.567038029892721
        },
        "southwest": {
          "lat": 9.580681520107277,
          "lng": 6.564338370107277
        }
      },
      "formatted_address": "Chanchaga Local Govt Secreteriat Complex Niger, Nigeria",
      "google_map_url": "https://maps.google.com?q=9.582457,6.565536",
      "google_place_id": "ChIJE5XbF35xTBARKq-lsanNjYY"
    }
  },
  {
    "id": "335678",
    "name": "POLICE CHILDREN SCHOOL OPEN SPACE",
    "registration_area_id": "17046",
    "precise_location": null,
    "abbreviation": "025",
    "units": "025",
    "delimitation": "26/06/03/025",
    "remark": "NEW PU",
    "ward_id": "17046",
    "ward_name": "MAKERA",
    "local_government_id": "542",
    "local_government_name": "CHANCHAGA",
    "state_id": "26",
    "state_name": "NIGER",
    "location": {
      "latitude": 9.6075567,
      "longitude": 6.548925499999999,
      "viewport": {
        "northeast": {
          "lat": 9.608916079892722,
          "lng": 6.550345029892721
        },
        "southwest": {
          "lat": 9.606216420107279,
          "lng": 6.547645370107277
        }
      },
      "formatted_address": "6FX8JG5X+2H7 POLICE BARRACK MEKERA chanchaga Niger, Minna, Nigeria",
      "google_map_url": "https://maps.google.com?q=9.6075567,6.548925499999999",
      "google_place_id": "ChIJ0Xzcuv5xTBAREyPzL6a2yFQ"
    }
  },
  {
    "id": "335679",
    "name": "MOHAMMED SABA OPEN SPACE",
    "registration_area_id": "17046",
    "precise_location": null,
    "abbreviation": "026",
    "units": "026",
    "delimitation": "26/06/03/026",
    "remark": "NEW PU",
    "ward_id": "17046",
    "ward_name": "MAKERA",
    "local_government_id": "542",
    "local_government_name": "CHANCHAGA",
    "state_id": "26",
    "state_name": "NIGER",
    "location": {
      "latitude": 9.6351526,
      "longitude": 6.543981199999999,
      "viewport": {
        "northeast": {
          "lat": 9.636384629892722,
          "lng": 6.544997679892722
        },
        "southwest": {
          "lat": 9.633684970107279,
          "lng": 6.542298020107278
        }
      },
      "formatted_address": "JGPV+3H9, Minna 920101, Minna, Nigeria",
      "google_map_url": "https://maps.google.com?q=9.6351526,6.543981199999999",
      "google_place_id": "ChIJSy6JAV1wTBARaRs3vfW6TGs"
    }
  },
  {
    "id": "335680",
    "name": "ABUBAKAR IBRAHIM OPEN SPACE",
    "registration_area_id": "17046",
    "precise_location": null,
    "abbreviation": "027",
    "units": "027",
    "delimitation": "26/06/03/027",
    "remark": "NEW PU",
    "ward_id": "17046",
    "ward_name": "MAKERA",
    "local_government_id": "542",
    "local_government_name": "CHANCHAGA",
    "state_id": "26",
    "state_name": "NIGER",
    "location": {
      "latitude": 11.7942612,
      "longitude": 8.8390542,
      "viewport": {
        "northeast": {
          "lat": 11.79552502989272,
          "lng": 8.840429029892722
        },
        "southwest": {
          "lat": 11.79282537010728,
          "lng": 8.837729370107278
        }
      },
      "formatted_address": "SABON GARI, Wudil, Nigeria",
      "google_map_url": "https://maps.google.com?q=11.7942612,8.8390542",
      "google_place_id": "ChIJ1X1xD-4ZrBERdwmXmp9Gag8"
    }
  },
  {
    "id": "335681",
    "name": "MORRIS FERTILIZER GATE",
    "registration_area_id": "17046",
    "precise_location": null,
    "abbreviation": "028",
    "units": "028",
    "delimitation": "26/06/03/028",
    "remark": "NEW PU",
    "ward_id": "17046",
    "ward_name": "MAKERA",
    "local_government_id": "542",
    "local_government_name": "CHANCHAGA",
    "state_id": "26",
    "state_name": "NIGER",
    "location": {
      "latitude": 9.599146099999999,
      "longitude": 6.5440745,
      "viewport": {
        "northeast": {
          "lat": 9.600218729892724,
          "lng": 6.545056429892722
        },
        "southwest": {
          "lat": 9.59751907010728,
          "lng": 6.542356770107278
        }
      },
      "formatted_address": "Muhamadu, Ndatsu Road, Minna, Nigeria",
      "google_map_url": "https://maps.google.com?q=9.599146099999999,6.5440745",
      "google_place_id": "ChIJnxkpidZxTBARvU51T4xm5vA"
    }
  },
  {
    "id": "335682",
    "name": "BACK OF MORRIS FERTILIZER JUNCTION",
    "registration_area_id": "17046",
    "precise_location": null,
    "abbreviation": "029",
    "units": "029",
    "delimitation": "26/06/03/029",
    "remark": "NEW PU",
    "ward_id": "17046",
    "ward_name": "MAKERA",
    "local_government_id": "542",
    "local_government_name": "CHANCHAGA",
    "state_id": "26",
    "state_name": "NIGER",
    "location": {
      "latitude": 9.599146099999999,
      "longitude": 6.5440745,
      "viewport": {
        "northeast": {
          "lat": 9.600218729892724,
          "lng": 6.545056429892722
        },
        "southwest": {
          "lat": 9.59751907010728,
          "lng": 6.542356770107278
        }
      },
      "formatted_address": "Muhamadu, Ndatsu Road, Minna, Nigeria",
      "google_map_url": "https://maps.google.com?q=9.599146099999999,6.5440745",
      "google_place_id": "ChIJnxkpidZxTBARvU51T4xm5vA"
    }
  }
]