[
  {
    "id": "48487",
    "name": "UDENS INT. SCH.,  EVBAREKE I",
    "registration_area_id": "2621",
    "precise_location": null,
    "abbreviation": "001",
    "units": "001",
    "delimitation": "12/02/06/001",
    "remark": "EXISTING PU",
    "ward_id": "2621",
    "ward_name": "EVBAREKE",
    "local_government_id": "226",
    "local_government_name": "EGOR",
    "state_id": "12",
    "state_name": "EDO",
    "location": {
      "latitude": 6.365724699999999,
      "longitude": 5.611469899999999,
      "viewport": {
        "northeast": {
          "lat": 6.367052379892721,
          "lng": 5.612524629892722
        },
        "southwest": {
          "lat": 6.364352720107277,
          "lng": 5.609824970107278
        }
      },
      "formatted_address": "9J86+7HQ, Evbareke St, Use 300103, Benin City, Nigeria",
      "google_map_url": "https://maps.google.com?q=6.365724699999999,5.611469899999999",
      "google_place_id": "ChIJWQJUq5TTQBARp6ErLeWUt24"
    }
  },
  {
    "id": "48488",
    "name": "UDENS INT. SCH.,  EVBAREKE II",
    "registration_area_id": "2621",
    "precise_location": null,
    "abbreviation": "002",
    "units": "002",
    "delimitation": "12/02/06/002",
    "remark": "EXISTING PU",
    "ward_id": "2621",
    "ward_name": "EVBAREKE",
    "local_government_id": "226",
    "local_government_name": "EGOR",
    "state_id": "12",
    "state_name": "EDO",
    "location": {
      "latitude": 6.365724699999999,
      "longitude": 5.611469899999999,
      "viewport": {
        "northeast": {
          "lat": 6.367052379892721,
          "lng": 5.612524629892722
        },
        "southwest": {
          "lat": 6.364352720107277,
          "lng": 5.609824970107278
        }
      },
      "formatted_address": "9J86+7HQ, Evbareke St, Use 300103, Benin City, Nigeria",
      "google_map_url": "https://maps.google.com?q=6.365724699999999,5.611469899999999",
      "google_place_id": "ChIJWQJUq5TTQBARp6ErLeWUt24"
    }
  },
  {
    "id": "48489",
    "name": "UDENS INT. SCH.,  EVBAREKE III",
    "registration_area_id": "2621",
    "precise_location": null,
    "abbreviation": "003",
    "units": "003",
    "delimitation": "12/02/06/003",
    "remark": "EXISTING PU",
    "ward_id": "2621",
    "ward_name": "EVBAREKE",
    "local_government_id": "226",
    "local_government_name": "EGOR",
    "state_id": "12",
    "state_name": "EDO",
    "location": {
      "latitude": 6.365724699999999,
      "longitude": 5.611469899999999,
      "viewport": {
        "northeast": {
          "lat": 6.367052379892721,
          "lng": 5.612524629892722
        },
        "southwest": {
          "lat": 6.364352720107277,
          "lng": 5.609824970107278
        }
      },
      "formatted_address": "9J86+7HQ, Evbareke St, Use 300103, Benin City, Nigeria",
      "google_map_url": "https://maps.google.com?q=6.365724699999999,5.611469899999999",
      "google_place_id": "ChIJWQJUq5TTQBARp6ErLeWUt24"
    }
  },
  {
    "id": "48490",
    "name": "UNDER A TREE BY UWELU RD.,  EVBAREKE I",
    "registration_area_id": "2621",
    "precise_location": null,
    "abbreviation": "004",
    "units": "004",
    "delimitation": "12/02/06/004",
    "remark": "EXISTING PU",
    "ward_id": "2621",
    "ward_name": "EVBAREKE",
    "local_government_id": "226",
    "local_government_name": "EGOR",
    "state_id": "12",
    "state_name": "EDO",
    "location": {
      "latitude": 6.365724699999999,
      "longitude": 5.611469899999999,
      "viewport": {
        "northeast": {
          "lat": 6.367052379892721,
          "lng": 5.612524629892722
        },
        "southwest": {
          "lat": 6.364352720107277,
          "lng": 5.609824970107278
        }
      },
      "formatted_address": "9J86+7HQ, Evbareke St, Use 300103, Benin City, Nigeria",
      "google_map_url": "https://maps.google.com?q=6.365724699999999,5.611469899999999",
      "google_place_id": "ChIJWQJUq5TTQBARp6ErLeWUt24"
    }
  },
  {
    "id": "48491",
    "name": "UNDER A TREE BY UWELU RD.,  EVBAREKE II",
    "registration_area_id": "2621",
    "precise_location": null,
    "abbreviation": "005",
    "units": "005",
    "delimitation": "12/02/06/005",
    "remark": "EXISTING PU",
    "ward_id": "2621",
    "ward_name": "EVBAREKE",
    "local_government_id": "226",
    "local_government_name": "EGOR",
    "state_id": "12",
    "state_name": "EDO",
    "location": {
      "latitude": 6.365724699999999,
      "longitude": 5.611469899999999,
      "viewport": {
        "northeast": {
          "lat": 6.367052379892721,
          "lng": 5.612524629892722
        },
        "southwest": {
          "lat": 6.364352720107277,
          "lng": 5.609824970107278
        }
      },
      "formatted_address": "9J86+7HQ, Evbareke St, Use 300103, Benin City, Nigeria",
      "google_map_url": "https://maps.google.com?q=6.365724699999999,5.611469899999999",
      "google_place_id": "ChIJWQJUq5TTQBARp6ErLeWUt24"
    }
  },
  {
    "id": "48492",
    "name": "BASO INT. SCH.,  EVBAREKE I",
    "registration_area_id": "2621",
    "precise_location": null,
    "abbreviation": "006",
    "units": "006",
    "delimitation": "12/02/06/006",
    "remark": "EXISTING PU",
    "ward_id": "2621",
    "ward_name": "EVBAREKE",
    "local_government_id": "226",
    "local_government_name": "EGOR",
    "state_id": "12",
    "state_name": "EDO",
    "location": {
      "latitude": 6.365724699999999,
      "longitude": 5.611469899999999,
      "viewport": {
        "northeast": {
          "lat": 6.367052379892721,
          "lng": 5.612524629892722
        },
        "southwest": {
          "lat": 6.364352720107277,
          "lng": 5.609824970107278
        }
      },
      "formatted_address": "9J86+7HQ, Evbareke St, Use 300103, Benin City, Nigeria",
      "google_map_url": "https://maps.google.com?q=6.365724699999999,5.611469899999999",
      "google_place_id": "ChIJWQJUq5TTQBARp6ErLeWUt24"
    }
  },
  {
    "id": "48493",
    "name": "BASO INT. SCH. , EVBAREKE II",
    "registration_area_id": "2621",
    "precise_location": null,
    "abbreviation": "007",
    "units": "007",
    "delimitation": "12/02/06/007",
    "remark": "EXISTING PU",
    "ward_id": "2621",
    "ward_name": "EVBAREKE",
    "local_government_id": "226",
    "local_government_name": "EGOR",
    "state_id": "12",
    "state_name": "EDO",
    "location": {
      "latitude": 6.365724699999999,
      "longitude": 5.611469899999999,
      "viewport": {
        "northeast": {
          "lat": 6.367052379892721,
          "lng": 5.612524629892722
        },
        "southwest": {
          "lat": 6.364352720107277,
          "lng": 5.609824970107278
        }
      },
      "formatted_address": "9J86+7HQ, Evbareke St, Use 300103, Benin City, Nigeria",
      "google_map_url": "https://maps.google.com?q=6.365724699999999,5.611469899999999",
      "google_place_id": "ChIJWQJUq5TTQBARp6ErLeWUt24"
    }
  },
  {
    "id": "48494",
    "name": "ADAMS INT. SCH.,  EVBAREKE I",
    "registration_area_id": "2621",
    "precise_location": null,
    "abbreviation": "008",
    "units": "008",
    "delimitation": "12/02/06/008",
    "remark": "EXISTING PU",
    "ward_id": "2621",
    "ward_name": "EVBAREKE",
    "local_government_id": "226",
    "local_government_name": "EGOR",
    "state_id": "12",
    "state_name": "EDO",
    "location": {
      "latitude": 6.358768100000001,
      "longitude": 5.5930116,
      "viewport": {
        "northeast": {
          "lat": 6.360161829892722,
          "lng": 5.594282129892721
        },
        "southwest": {
          "lat": 6.357462170107278,
          "lng": 5.591582470107277
        }
      },
      "formatted_address": "1-3 Audu street, opp. winners chapel, Benin City, Nigeria",
      "google_map_url": "https://maps.google.com?q=6.358768100000001,5.5930116",
      "google_place_id": "ChIJ86crtQ7TQBARVaMo8gwXyVU"
    }
  },
  {
    "id": "48495",
    "name": "ADAMS INT. SCH., EVBAREKE  II",
    "registration_area_id": "2621",
    "precise_location": null,
    "abbreviation": "009",
    "units": "009",
    "delimitation": "12/02/06/009",
    "remark": "EXISTING PU",
    "ward_id": "2621",
    "ward_name": "EVBAREKE",
    "local_government_id": "226",
    "local_government_name": "EGOR",
    "state_id": "12",
    "state_name": "EDO",
    "location": {
      "latitude": 6.365724699999999,
      "longitude": 5.611469899999999,
      "viewport": {
        "northeast": {
          "lat": 6.367052379892721,
          "lng": 5.612524629892722
        },
        "southwest": {
          "lat": 6.364352720107277,
          "lng": 5.609824970107278
        }
      },
      "formatted_address": "9J86+7HQ, Evbareke St, Use 300103, Benin City, Nigeria",
      "google_map_url": "https://maps.google.com?q=6.365724699999999,5.611469899999999",
      "google_place_id": "ChIJWQJUq5TTQBARp6ErLeWUt24"
    }
  },
  {
    "id": "48496",
    "name": "EVBAREKE GRAM SCH.,  EVBAREKE I",
    "registration_area_id": "2621",
    "precise_location": null,
    "abbreviation": "010",
    "units": "010",
    "delimitation": "12/02/06/010",
    "remark": "EXISTING PU",
    "ward_id": "2621",
    "ward_name": "EVBAREKE",
    "local_government_id": "226",
    "local_government_name": "EGOR",
    "state_id": "12",
    "state_name": "EDO",
    "location": {
      "latitude": 6.365724699999999,
      "longitude": 5.611469899999999,
      "viewport": {
        "northeast": {
          "lat": 6.367052379892721,
          "lng": 5.612524629892722
        },
        "southwest": {
          "lat": 6.364352720107277,
          "lng": 5.609824970107278
        }
      },
      "formatted_address": "9J86+7HQ, Evbareke St, Use 300103, Benin City, Nigeria",
      "google_map_url": "https://maps.google.com?q=6.365724699999999,5.611469899999999",
      "google_place_id": "ChIJWQJUq5TTQBARp6ErLeWUt24"
    }
  },
  {
    "id": "48497",
    "name": "EVBAREKE GRAM SCH., EVBAREKE II",
    "registration_area_id": "2621",
    "precise_location": null,
    "abbreviation": "011",
    "units": "011",
    "delimitation": "12/02/06/011",
    "remark": "EXISTING PU",
    "ward_id": "2621",
    "ward_name": "EVBAREKE",
    "local_government_id": "226",
    "local_government_name": "EGOR",
    "state_id": "12",
    "state_name": "EDO",
    "location": {
      "latitude": 6.365724699999999,
      "longitude": 5.611469899999999,
      "viewport": {
        "northeast": {
          "lat": 6.367052379892721,
          "lng": 5.612524629892722
        },
        "southwest": {
          "lat": 6.364352720107277,
          "lng": 5.609824970107278
        }
      },
      "formatted_address": "9J86+7HQ, Evbareke St, Use 300103, Benin City, Nigeria",
      "google_map_url": "https://maps.google.com?q=6.365724699999999,5.611469899999999",
      "google_place_id": "ChIJWQJUq5TTQBARp6ErLeWUt24"
    }
  },
  {
    "id": "48498",
    "name": "EVBAREKE GRAM SCH. , EVBAREKE III",
    "registration_area_id": "2621",
    "precise_location": null,
    "abbreviation": "012",
    "units": "012",
    "delimitation": "12/02/06/012",
    "remark": "EXISTING PU",
    "ward_id": "2621",
    "ward_name": "EVBAREKE",
    "local_government_id": "226",
    "local_government_name": "EGOR",
    "state_id": "12",
    "state_name": "EDO",
    "location": {
      "latitude": 6.365724699999999,
      "longitude": 5.611469899999999,
      "viewport": {
        "northeast": {
          "lat": 6.367052379892721,
          "lng": 5.612524629892722
        },
        "southwest": {
          "lat": 6.364352720107277,
          "lng": 5.609824970107278
        }
      },
      "formatted_address": "9J86+7HQ, Evbareke St, Use 300103, Benin City, Nigeria",
      "google_map_url": "https://maps.google.com?q=6.365724699999999,5.611469899999999",
      "google_place_id": "ChIJWQJUq5TTQBARp6ErLeWUt24"
    }
  },
  {
    "id": "48499",
    "name": "EVBAREKE GRAM SCH.,  EVBAREKE IV",
    "registration_area_id": "2621",
    "precise_location": null,
    "abbreviation": "013",
    "units": "013",
    "delimitation": "12/02/06/013",
    "remark": "EXISTING PU",
    "ward_id": "2621",
    "ward_name": "EVBAREKE",
    "local_government_id": "226",
    "local_government_name": "EGOR",
    "state_id": "12",
    "state_name": "EDO",
    "location": {
      "latitude": 6.3648122,
      "longitude": 5.6153391,
      "viewport": {
        "northeast": {
          "lat": 6.366164529892723,
          "lng": 5.616656079892721
        },
        "southwest": {
          "lat": 6.363464870107279,
          "lng": 5.613956420107277
        }
      },
      "formatted_address": "9J78+W4G, Anigboro St, Use 300103, Benin City, Nigeria",
      "google_map_url": "https://maps.google.com?q=6.3648122,5.6153391",
      "google_place_id": "ChIJuzUKwzrTQBAR6I04n6SSrGQ"
    }
  },
  {
    "id": "48500",
    "name": "EVBAREKE GRAM SCH. , EVBAREKE V",
    "registration_area_id": "2621",
    "precise_location": null,
    "abbreviation": "014",
    "units": "014",
    "delimitation": "12/02/06/014",
    "remark": "EXISTING PU",
    "ward_id": "2621",
    "ward_name": "EVBAREKE",
    "local_government_id": "226",
    "local_government_name": "EGOR",
    "state_id": "12",
    "state_name": "EDO",
    "location": {
      "latitude": 6.365724699999999,
      "longitude": 5.611469899999999,
      "viewport": {
        "northeast": {
          "lat": 6.367052379892721,
          "lng": 5.612524629892722
        },
        "southwest": {
          "lat": 6.364352720107277,
          "lng": 5.609824970107278
        }
      },
      "formatted_address": "9J86+7HQ, Evbareke St, Use 300103, Benin City, Nigeria",
      "google_map_url": "https://maps.google.com?q=6.365724699999999,5.611469899999999",
      "google_place_id": "ChIJWQJUq5TTQBARp6ErLeWUt24"
    }
  },
  {
    "id": "48501",
    "name": "AKA-ISOKAN JUNCTION (AKA INT. SCH EVBAREKE I)",
    "registration_area_id": "2621",
    "precise_location": null,
    "abbreviation": "015",
    "units": "015",
    "delimitation": "12/02/06/015",
    "remark": "EXISTING PU",
    "ward_id": "2621",
    "ward_name": "EVBAREKE",
    "local_government_id": "226",
    "local_government_name": "EGOR",
    "state_id": "12",
    "state_name": "EDO",
    "location": {
      "latitude": 6.3377608,
      "longitude": 5.6020585,
      "viewport": {
        "northeast": {
          "lat": 6.339118229892721,
          "lng": 5.603391679892721
        },
        "southwest": {
          "lat": 6.336418570107277,
          "lng": 5.600692020107277
        }
      },
      "formatted_address": "8JQ2+4Q9, Unnamed Road, Ogogugbo 300102, Benin City, Nigeria",
      "google_map_url": "https://maps.google.com?q=6.3377608,5.6020585",
      "google_place_id": "ChIJLdie_QHTQBARY-5XiYWTZu8"
    }
  },
  {
    "id": "48502",
    "name": "AKA-ISOKAN JUNCTION (AKA INT. SCH EVBAREKE II)",
    "registration_area_id": "2621",
    "precise_location": null,
    "abbreviation": "016",
    "units": "016",
    "delimitation": "12/02/06/016",
    "remark": "EXISTING PU",
    "ward_id": "2621",
    "ward_name": "EVBAREKE",
    "local_government_id": "226",
    "local_government_name": "EGOR",
    "state_id": "12",
    "state_name": "EDO",
    "location": {
      "latitude": 6.365724699999999,
      "longitude": 5.611469899999999,
      "viewport": {
        "northeast": {
          "lat": 6.367052379892721,
          "lng": 5.612524629892722
        },
        "southwest": {
          "lat": 6.364352720107277,
          "lng": 5.609824970107278
        }
      },
      "formatted_address": "9J86+7HQ, Evbareke St, Use 300103, Benin City, Nigeria",
      "google_map_url": "https://maps.google.com?q=6.365724699999999,5.611469899999999",
      "google_place_id": "ChIJWQJUq5TTQBARp6ErLeWUt24"
    }
  },
  {
    "id": "48503",
    "name": "AKA-ISOKAN JUNCTION (AKA INT. SCH EVBAREKE III)",
    "registration_area_id": "2621",
    "precise_location": null,
    "abbreviation": "017",
    "units": "017",
    "delimitation": "12/02/06/017",
    "remark": "EXISTING PU",
    "ward_id": "2621",
    "ward_name": "EVBAREKE",
    "local_government_id": "226",
    "local_government_name": "EGOR",
    "state_id": "12",
    "state_name": "EDO",
    "location": {
      "latitude": 6.365724699999999,
      "longitude": 5.611469899999999,
      "viewport": {
        "northeast": {
          "lat": 6.367052379892721,
          "lng": 5.612524629892722
        },
        "southwest": {
          "lat": 6.364352720107277,
          "lng": 5.609824970107278
        }
      },
      "formatted_address": "9J86+7HQ, Evbareke St, Use 300103, Benin City, Nigeria",
      "google_map_url": "https://maps.google.com?q=6.365724699999999,5.611469899999999",
      "google_place_id": "ChIJWQJUq5TTQBARp6ErLeWUt24"
    }
  },
  {
    "id": "48504",
    "name": "OPEN SPACE BY ST RAPHAEL CATHOLIC CHURCH EVBAREKE",
    "registration_area_id": "2621",
    "precise_location": null,
    "abbreviation": "018",
    "units": "018",
    "delimitation": "12/02/06/018",
    "remark": "NEW PU",
    "ward_id": "2621",
    "ward_name": "EVBAREKE",
    "local_government_id": "226",
    "local_government_name": "EGOR",
    "state_id": "12",
    "state_name": "EDO",
    "location": {
      "latitude": 43.35449699999999,
      "longitude": -79.7665457,
      "viewport": {
        "northeast": {
          "lat": 43.35578187989272,
          "lng": -79.76528162010727
        },
        "southwest": {
          "lat": 43.35308222010728,
          "lng": -79.76798127989272
        }
      },
      "formatted_address": "4072 New St, Burlington, ON L7L 1S9, Canada",
      "google_map_url": "https://maps.google.com?q=43.35449699999999,-79.7665457",
      "google_place_id": "ChIJV5IgN0FgK4gRH6hW2X4NCbY"
    }
  },
  {
    "id": "48505",
    "name": "OPEN SPACE BY PREVAILING SAINTS GLOBAL ASSEMBLY",
    "registration_area_id": "2621",
    "precise_location": null,
    "abbreviation": "019",
    "units": "019",
    "delimitation": "12/02/06/019",
    "remark": "NEW PU",
    "ward_id": "2621",
    "ward_name": "EVBAREKE",
    "local_government_id": "226",
    "local_government_name": "EGOR",
    "state_id": "12",
    "state_name": "EDO",
    "location": {
      "latitude": 6.3589818,
      "longitude": 5.604411799999999,
      "viewport": {
        "northeast": {
          "lat": 6.360363129892721,
          "lng": 5.605762379892722
        },
        "southwest": {
          "lat": 6.357663470107277,
          "lng": 5.603062720107278
        }
      },
      "formatted_address": "109 Textile Mill Rd, Use 300103, Benin City, Nigeria",
      "google_map_url": "https://maps.google.com?q=6.3589818,5.604411799999999",
      "google_place_id": "ChIJEbdQNpDTQBARASq17sOUMYg"
    }
  },
  {
    "id": "48506",
    "name": "OPEN SPACE, SKILL AND UNSKILL LABOURER OTOTE JUNCTION",
    "registration_area_id": "2621",
    "precise_location": null,
    "abbreviation": "020",
    "units": "020",
    "delimitation": "12/02/06/020",
    "remark": "NEW PU",
    "ward_id": "2621",
    "ward_name": "EVBAREKE",
    "local_government_id": "226",
    "local_government_name": "EGOR",
    "state_id": "12",
    "state_name": "EDO",
    "location": {
      "latitude": 6.3652643,
      "longitude": 5.6020156,
      "viewport": {
        "northeast": {
          "lat": 6.375574850000052,
          "lng": 5.603330579892721
        },
        "southwest": {
          "lat": 6.353441449999949,
          "lng": 5.600630920107277
        }
      },
      "formatted_address": "Otote Street, Use 300103, Benin City, Nigeria",
      "google_map_url": "https://maps.google.com?q=6.3652643,5.6020156",
      "google_place_id": "Ei1PdG90ZSBTdHJlZXQsIFVzZSAzMDAxMDMsIEJlbmluIENpdHksIE5pZ2VyaWEiLiosChQKEgkTQnSO19JAEBHTMqR_3WvjzhIUChIJzYo34SbTQBARUihFZHUXu0w"
    }
  },
  {
    "id": "48507",
    "name": "OPEN SPACE UNDER A TREE OGHOGHO JUNCTION",
    "registration_area_id": "2621",
    "precise_location": null,
    "abbreviation": "021",
    "units": "021",
    "delimitation": "12/02/06/021",
    "remark": "NEW PU",
    "ward_id": "2621",
    "ward_name": "EVBAREKE",
    "local_government_id": "226",
    "local_government_name": "EGOR",
    "state_id": "12",
    "state_name": "EDO",
    "location": {
      "latitude": 6.384815,
      "longitude": 5.6097147,
      "viewport": {
        "northeast": {
          "lat": 6.386161479892722,
          "lng": 5.61103302989272
        },
        "southwest": {
          "lat": 6.383461820107279,
          "lng": 5.608333370107276
        }
      },
      "formatted_address": "#214 Ugbowo-Lagos Rd, Uselu 300103, Benin City, Nigeria",
      "google_map_url": "https://maps.google.com?q=6.384815,5.6097147",
      "google_place_id": "ChIJe16RJdEsRxARSREshUqxz9Q"
    }
  },
  {
    "id": "48508",
    "name": "OPEN SPACE FAN MILK BY OMOKARO JUNCTION I",
    "registration_area_id": "2621",
    "precise_location": null,
    "abbreviation": "022",
    "units": "022",
    "delimitation": "12/02/06/022",
    "remark": "NEW PU",
    "ward_id": "2621",
    "ward_name": "EVBAREKE",
    "local_government_id": "226",
    "local_government_name": "EGOR",
    "state_id": "12",
    "state_name": "EDO",
    "location": {
      "latitude": 6.602181,
      "longitude": 3.3707374,
      "viewport": {
        "northeast": {
          "lat": 6.603655079892722,
          "lng": 3.372076729892722
        },
        "southwest": {
          "lat": 6.600955420107278,
          "lng": 3.369377070107277
        }
      },
      "formatted_address": "3 Billings Way, Oregun 101233, Ikeja, Nigeria",
      "google_map_url": "https://maps.google.com?q=6.602181,3.3707374",
      "google_place_id": "ChIJe0KpqFGSOxAR1P_laMVN99I"
    }
  },
  {
    "id": "48509",
    "name": "OPEN SPACE FAN MILK BY OMOKARO JUNCTION II",
    "registration_area_id": "2621",
    "precise_location": null,
    "abbreviation": "023",
    "units": "023",
    "delimitation": "12/02/06/023",
    "remark": "NEW PU",
    "ward_id": "2621",
    "ward_name": "EVBAREKE",
    "local_government_id": "226",
    "local_government_name": "EGOR",
    "state_id": "12",
    "state_name": "EDO",
    "location": {
      "latitude": 6.602181,
      "longitude": 3.3707374,
      "viewport": {
        "northeast": {
          "lat": 6.603655079892722,
          "lng": 3.372076729892722
        },
        "southwest": {
          "lat": 6.600955420107278,
          "lng": 3.369377070107277
        }
      },
      "formatted_address": "3 Billings Way, Oregun 101233, Ikeja, Nigeria",
      "google_map_url": "https://maps.google.com?q=6.602181,3.3707374",
      "google_place_id": "ChIJe0KpqFGSOxAR1P_laMVN99I"
    }
  },
  {
    "id": "48510",
    "name": "OPEN SPACE BY EVBAREKE JUNCTION, TEXTILE MILL RD",
    "registration_area_id": "2621",
    "precise_location": null,
    "abbreviation": "024",
    "units": "024",
    "delimitation": "12/02/06/024",
    "remark": "NEW PU",
    "ward_id": "2621",
    "ward_name": "EVBAREKE",
    "local_government_id": "226",
    "local_government_name": "EGOR",
    "state_id": "12",
    "state_name": "EDO",
    "location": {
      "latitude": 6.3594045,
      "longitude": 5.6122726,
      "viewport": {
        "northeast": {
          "lat": 6.360528779892723,
          "lng": 5.613622629892722
        },
        "southwest": {
          "lat": 6.357829120107279,
          "lng": 5.610922970107278
        }
      },
      "formatted_address": "46 Textile Mill Rd, Use 300103, Benin City, Nigeria",
      "google_map_url": "https://maps.google.com?q=6.3594045,5.6122726",
      "google_place_id": "ChIJ2b_jfiHTQBARXCGwyiUIisc"
    }
  },
  {
    "id": "48511",
    "name": "BASO INT SCH  JUNCTION I",
    "registration_area_id": "2621",
    "precise_location": null,
    "abbreviation": "025",
    "units": "025",
    "delimitation": "12/02/06/025",
    "remark": "NEW PU",
    "ward_id": "2621",
    "ward_name": "EVBAREKE",
    "local_government_id": "226",
    "local_government_name": "EGOR",
    "state_id": "12",
    "state_name": "EDO",
    "location": {
      "latitude": 6.3646745,
      "longitude": 5.6153157,
      "viewport": {
        "northeast": {
          "lat": 6.366095129892721,
          "lng": 5.616675429892721
        },
        "southwest": {
          "lat": 6.363395470107277,
          "lng": 5.613975770107277
        }
      },
      "formatted_address": "Anigboro St, Use 300103, Benin City, Nigeria",
      "google_map_url": "https://maps.google.com?q=6.3646745,5.6153157",
      "google_place_id": "ChIJDyidQ8DTQBARTb5rYMw3BEM"
    }
  },
  {
    "id": "48512",
    "name": "BASO/INT SCH  JUNCTION II",
    "registration_area_id": "2621",
    "precise_location": null,
    "abbreviation": "026",
    "units": "026",
    "delimitation": "12/02/06/026",
    "remark": "NEW PU",
    "ward_id": "2621",
    "ward_name": "EVBAREKE",
    "local_government_id": "226",
    "local_government_name": "EGOR",
    "state_id": "12",
    "state_name": "EDO",
    "location": {
      "latitude": 6.353693,
      "longitude": 5.587476,
      "viewport": {
        "northeast": {
          "lat": 6.354968429892722,
          "lng": 5.588781379892722
        },
        "southwest": {
          "lat": 6.352268770107278,
          "lng": 5.586081720107278
        }
      },
      "formatted_address": "10,Oromiyan Street, Off Adolor Rd, Nigeria",
      "google_map_url": "https://maps.google.com?q=6.353693,5.587476",
      "google_place_id": "ChIJWaeh0ynTQBARdaTH2Tg94xM"
    }
  },
  {
    "id": "48513",
    "name": "OPEN SPACE BY AIRHIENBUWA JUNCTION, EVBAREKE",
    "registration_area_id": "2621",
    "precise_location": null,
    "abbreviation": "027",
    "units": "027",
    "delimitation": "12/02/06/027",
    "remark": "NEW PU",
    "ward_id": "2621",
    "ward_name": "EVBAREKE",
    "local_government_id": "226",
    "local_government_name": "EGOR",
    "state_id": "12",
    "state_name": "EDO",
    "location": {
      "latitude": 6.3736358,
      "longitude": 5.6118808,
      "viewport": {
        "northeast": {
          "lat": 6.374935429892722,
          "lng": 5.613035729892722
        },
        "southwest": {
          "lat": 6.372235770107277,
          "lng": 5.610336070107278
        }
      },
      "formatted_address": "Egor local Government, 19 Omobenson Street, West 300103, Benin City, Nigeria",
      "google_map_url": "https://maps.google.com?q=6.3736358,5.6118808",
      "google_place_id": "ChIJX-7fsy3TQBARJeNn3ggJWG0"
    }
  },
  {
    "id": "48514",
    "name": "ADAMS INT SCH. EVBAREKE I",
    "registration_area_id": "2621",
    "precise_location": null,
    "abbreviation": "028",
    "units": "028",
    "delimitation": "12/02/06/028",
    "remark": "NEW PU",
    "ward_id": "2621",
    "ward_name": "EVBAREKE",
    "local_government_id": "226",
    "local_government_name": "EGOR",
    "state_id": "12",
    "state_name": "EDO",
    "location": {
      "latitude": 6.365724699999999,
      "longitude": 5.611469899999999,
      "viewport": {
        "northeast": {
          "lat": 6.367052379892721,
          "lng": 5.612524629892722
        },
        "southwest": {
          "lat": 6.364352720107277,
          "lng": 5.609824970107278
        }
      },
      "formatted_address": "9J86+7HQ, Evbareke St, Use 300103, Benin City, Nigeria",
      "google_map_url": "https://maps.google.com?q=6.365724699999999,5.611469899999999",
      "google_place_id": "ChIJWQJUq5TTQBARp6ErLeWUt24"
    }
  },
  {
    "id": "48515",
    "name": "ADAMS INT SCH. EVBAREKE II",
    "registration_area_id": "2621",
    "precise_location": null,
    "abbreviation": "029",
    "units": "029",
    "delimitation": "12/02/06/029",
    "remark": "NEW PU",
    "ward_id": "2621",
    "ward_name": "EVBAREKE",
    "local_government_id": "226",
    "local_government_name": "EGOR",
    "state_id": "12",
    "state_name": "EDO",
    "location": {
      "latitude": 6.365724699999999,
      "longitude": 5.611469899999999,
      "viewport": {
        "northeast": {
          "lat": 6.367052379892721,
          "lng": 5.612524629892722
        },
        "southwest": {
          "lat": 6.364352720107277,
          "lng": 5.609824970107278
        }
      },
      "formatted_address": "9J86+7HQ, Evbareke St, Use 300103, Benin City, Nigeria",
      "google_map_url": "https://maps.google.com?q=6.365724699999999,5.611469899999999",
      "google_place_id": "ChIJWQJUq5TTQBARp6ErLeWUt24"
    }
  },
  {
    "id": "48516",
    "name": "EVBAREKE GRAM SCH I",
    "registration_area_id": "2621",
    "precise_location": null,
    "abbreviation": "030",
    "units": "030",
    "delimitation": "12/02/06/030",
    "remark": "NEW PU",
    "ward_id": "2621",
    "ward_name": "EVBAREKE",
    "local_government_id": "226",
    "local_government_name": "EGOR",
    "state_id": "12",
    "state_name": "EDO",
    "location": {
      "latitude": 6.365724699999999,
      "longitude": 5.611469899999999,
      "viewport": {
        "northeast": {
          "lat": 6.367052379892721,
          "lng": 5.612524629892722
        },
        "southwest": {
          "lat": 6.364352720107277,
          "lng": 5.609824970107278
        }
      },
      "formatted_address": "9J86+7HQ, Evbareke St, Use 300103, Benin City, Nigeria",
      "google_map_url": "https://maps.google.com?q=6.365724699999999,5.611469899999999",
      "google_place_id": "ChIJWQJUq5TTQBARp6ErLeWUt24"
    }
  },
  {
    "id": "48517",
    "name": "EVBAREKE GRAM SCH II",
    "registration_area_id": "2621",
    "precise_location": null,
    "abbreviation": "031",
    "units": "031",
    "delimitation": "12/02/06/031",
    "remark": "NEW PU",
    "ward_id": "2621",
    "ward_name": "EVBAREKE",
    "local_government_id": "226",
    "local_government_name": "EGOR",
    "state_id": "12",
    "state_name": "EDO",
    "location": {
      "latitude": 6.3648122,
      "longitude": 5.6153391,
      "viewport": {
        "northeast": {
          "lat": 6.366164529892723,
          "lng": 5.616656079892721
        },
        "southwest": {
          "lat": 6.363464870107279,
          "lng": 5.613956420107277
        }
      },
      "formatted_address": "9J78+W4G, Anigboro St, Use 300103, Benin City, Nigeria",
      "google_map_url": "https://maps.google.com?q=6.3648122,5.6153391",
      "google_place_id": "ChIJuzUKwzrTQBAR6I04n6SSrGQ"
    }
  },
  {
    "id": "48518",
    "name": "OBA EWUARE  PRY SCH EVBAREKE I",
    "registration_area_id": "2621",
    "precise_location": null,
    "abbreviation": "032",
    "units": "032",
    "delimitation": "12/02/06/032",
    "remark": "NEW PU",
    "ward_id": "2621",
    "ward_name": "EVBAREKE",
    "local_government_id": "226",
    "local_government_name": "EGOR",
    "state_id": "12",
    "state_name": "EDO",
    "location": {
      "latitude": 6.3482618,
      "longitude": 5.6226289,
      "viewport": {
        "northeast": {
          "lat": 6.349611629892721,
          "lng": 5.623978729892722
        },
        "southwest": {
          "lat": 6.346911970107278,
          "lng": 5.621279070107278
        }
      },
      "formatted_address": "47-49 Dawson Street, Iyaro St, Benin City, Nigeria",
      "google_map_url": "https://maps.google.com?q=6.3482618,5.6226289",
      "google_place_id": "ChIJQ2OgAxPTQBARuEieJw2s5Ac"
    }
  },
  {
    "id": "48519",
    "name": "OPEN SPACE -OSAROBO/ODIASE JUNCTION",
    "registration_area_id": "2621",
    "precise_location": null,
    "abbreviation": "033",
    "units": "033",
    "delimitation": "12/02/06/033",
    "remark": "NEW PU",
    "ward_id": "2621",
    "ward_name": "EVBAREKE",
    "local_government_id": "226",
    "local_government_name": "EGOR",
    "state_id": "12",
    "state_name": "EDO",
    "location": {
      "latitude": 6.2942106,
      "longitude": 5.6104388,
      "viewport": {
        "northeast": {
          "lat": 6.295616129892722,
          "lng": 5.61178942989272
        },
        "southwest": {
          "lat": 6.292916470107278,
          "lng": 5.609089770107277
        }
      },
      "formatted_address": "4 Eriyimwen Street, off Okundia Junction, 2nd Ugbor, LGA, GRA 300012, Benin City, Nigeria",
      "google_map_url": "https://maps.google.com?q=6.2942106,5.6104388",
      "google_place_id": "ChIJMx4xf-TTQBARBsDgmaqo9Kk"
    }
  },
  {
    "id": "48520",
    "name": "OPEN SPACE -OMOSEFE/AKHARI JUNCTION",
    "registration_area_id": "2621",
    "precise_location": null,
    "abbreviation": "034",
    "units": "034",
    "delimitation": "12/02/06/034",
    "remark": "NEW PU",
    "ward_id": "2621",
    "ward_name": "EVBAREKE",
    "local_government_id": "226",
    "local_government_name": "EGOR",
    "state_id": "12",
    "state_name": "EDO",
    "location": {
      "latitude": 6.3498395,
      "longitude": 5.6172515,
      "viewport": {
        "northeast": {
          "lat": 6.351336729892722,
          "lng": 5.618620429892721
        },
        "southwest": {
          "lat": 6.348637070107278,
          "lng": 5.615920770107278
        }
      },
      "formatted_address": "59 C, ICE Road, Off Wire Rd, Benin City, Nigeria",
      "google_map_url": "https://maps.google.com?q=6.3498395,5.6172515",
      "google_place_id": "ChIJxWr2xcfTQBARuAL-8-Ynyb4"
    }
  },
  {
    "id": "48521",
    "name": "OPEN SPACE, EVBAREKE SPARE PART JUNCTION I",
    "registration_area_id": "2621",
    "precise_location": null,
    "abbreviation": "035",
    "units": "035",
    "delimitation": "12/02/06/035",
    "remark": "NEW PU",
    "ward_id": "2621",
    "ward_name": "EVBAREKE",
    "local_government_id": "226",
    "local_government_name": "EGOR",
    "state_id": "12",
    "state_name": "EDO",
    "location": {
      "latitude": 6.364247199999999,
      "longitude": 5.6089664,
      "viewport": {
        "northeast": {
          "lat": 6.365597579892721,
          "lng": 5.610348029892722
        },
        "southwest": {
          "lat": 6.362897920107277,
          "lng": 5.607648370107278
        }
      },
      "formatted_address": "9J75+MHW, Unnamed Road, Use 300103, Benin City, Nigeria",
      "google_map_url": "https://maps.google.com?q=6.364247199999999,5.6089664",
      "google_place_id": "ChIJV1qf1d7TQBARQdtgJKbjkCg"
    }
  },
  {
    "id": "48522",
    "name": "OPEN SPACE,EVBAREKE SPARE PART JUNCTION II",
    "registration_area_id": "2621",
    "precise_location": null,
    "abbreviation": "036",
    "units": "036",
    "delimitation": "12/02/06/036",
    "remark": "NEW PU",
    "ward_id": "2621",
    "ward_name": "EVBAREKE",
    "local_government_id": "226",
    "local_government_name": "EGOR",
    "state_id": "12",
    "state_name": "EDO",
    "location": {
      "latitude": 6.364247199999999,
      "longitude": 5.6089664,
      "viewport": {
        "northeast": {
          "lat": 6.365597579892721,
          "lng": 5.610348029892722
        },
        "southwest": {
          "lat": 6.362897920107277,
          "lng": 5.607648370107278
        }
      },
      "formatted_address": "9J75+MHW, Unnamed Road, Use 300103, Benin City, Nigeria",
      "google_map_url": "https://maps.google.com?q=6.364247199999999,5.6089664",
      "google_place_id": "ChIJV1qf1d7TQBARQdtgJKbjkCg"
    }
  },
  {
    "id": "48523",
    "name": "OPEN SPACE, COMMUNITY SKILL DEV JUNCTION I",
    "registration_area_id": "2621",
    "precise_location": null,
    "abbreviation": "037",
    "units": "037",
    "delimitation": "12/02/06/037",
    "remark": "NEW PU",
    "ward_id": "2621",
    "ward_name": "EVBAREKE",
    "local_government_id": "226",
    "local_government_name": "EGOR",
    "state_id": "12",
    "state_name": "EDO",
    "location": {
      "latitude": 6.3736358,
      "longitude": 5.6118808,
      "viewport": {
        "northeast": {
          "lat": 6.374935429892722,
          "lng": 5.613035729892722
        },
        "southwest": {
          "lat": 6.372235770107277,
          "lng": 5.610336070107278
        }
      },
      "formatted_address": "Egor local Government, 19 Omobenson Street, West 300103, Benin City, Nigeria",
      "google_map_url": "https://maps.google.com?q=6.3736358,5.6118808",
      "google_place_id": "ChIJX-7fsy3TQBARJeNn3ggJWG0"
    }
  },
  {
    "id": "48524",
    "name": "OPEN SPACE -IZEKOR/AIGBEDION JUNCTION",
    "registration_area_id": "2621",
    "precise_location": null,
    "abbreviation": "038",
    "units": "038",
    "delimitation": "12/02/06/038",
    "remark": "NEW PU",
    "ward_id": "2621",
    "ward_name": "EVBAREKE",
    "local_government_id": "226",
    "local_government_name": "EGOR",
    "state_id": "12",
    "state_name": "EDO",
    "location": {
      "latitude": 6.2975553,
      "longitude": 5.654092899999999,
      "viewport": {
        "northeast": {
          "lat": 6.298887079892721,
          "lng": 5.655454629892723
        },
        "southwest": {
          "lat": 6.296187420107278,
          "lng": 5.652754970107279
        }
      },
      "formatted_address": "5 Igbinedion St, Oka 300105, Benin City, Nigeria",
      "google_map_url": "https://maps.google.com?q=6.2975553,5.654092899999999",
      "google_place_id": "ChIJUwSL2erVQBARSKatJBrXPHM"
    }
  },
  {
    "id": "48525",
    "name": "OPEN SPACE,OMOREGIE AKENZUA JUNCTION I",
    "registration_area_id": "2621",
    "precise_location": null,
    "abbreviation": "039",
    "units": "039",
    "delimitation": "12/02/06/039",
    "remark": "NEW PU",
    "ward_id": "2621",
    "ward_name": "EVBAREKE",
    "local_government_id": "226",
    "local_government_name": "EGOR",
    "state_id": "12",
    "state_name": "EDO",
    "location": {
      "latitude": 6.359940099999999,
      "longitude": 5.608020199999999,
      "viewport": {
        "northeast": {
          "lat": 6.361289929892721,
          "lng": 5.609370029892722
        },
        "southwest": {
          "lat": 6.358590270107277,
          "lng": 5.606670370107278
        }
      },
      "formatted_address": "Omoregie Akenzua Wy, Use 300103, Benin City, Nigeria",
      "google_map_url": "https://maps.google.com?q=6.359940099999999,5.608020199999999",
      "google_place_id": "ChIJTTAudCHTQBARnwR89u5JMKI"
    }
  },
  {
    "id": "48526",
    "name": "OPEN SPACE,OMOREGIE AKENZUA JUNCTION I",
    "registration_area_id": "2621",
    "precise_location": null,
    "abbreviation": "040",
    "units": "040",
    "delimitation": "12/02/06/040",
    "remark": "NEW PU",
    "ward_id": "2621",
    "ward_name": "EVBAREKE",
    "local_government_id": "226",
    "local_government_name": "EGOR",
    "state_id": "12",
    "state_name": "EDO",
    "location": {
      "latitude": 6.359940099999999,
      "longitude": 5.608020199999999,
      "viewport": {
        "northeast": {
          "lat": 6.361289929892721,
          "lng": 5.609370029892722
        },
        "southwest": {
          "lat": 6.358590270107277,
          "lng": 5.606670370107278
        }
      },
      "formatted_address": "Omoregie Akenzua Wy, Use 300103, Benin City, Nigeria",
      "google_map_url": "https://maps.google.com?q=6.359940099999999,5.608020199999999",
      "google_place_id": "ChIJTTAudCHTQBARnwR89u5JMKI"
    }
  },
  {
    "id": "48527",
    "name": "OPEN SPACE, OBARASE JUNCTION I",
    "registration_area_id": "2621",
    "precise_location": null,
    "abbreviation": "041",
    "units": "041",
    "delimitation": "12/02/06/041",
    "remark": "NEW PU",
    "ward_id": "2621",
    "ward_name": "EVBAREKE",
    "local_government_id": "226",
    "local_government_name": "EGOR",
    "state_id": "12",
    "state_name": "EDO",
    "location": {
      "latitude": 6.3736358,
      "longitude": 5.6118808,
      "viewport": {
        "northeast": {
          "lat": 6.374935429892722,
          "lng": 5.613035729892722
        },
        "southwest": {
          "lat": 6.372235770107277,
          "lng": 5.610336070107278
        }
      },
      "formatted_address": "Egor local Government, 19 Omobenson Street, West 300103, Benin City, Nigeria",
      "google_map_url": "https://maps.google.com?q=6.3736358,5.6118808",
      "google_place_id": "ChIJX-7fsy3TQBARJeNn3ggJWG0"
    }
  },
  {
    "id": "48528",
    "name": "OPEN SPACE, OBARASE JUNCTION I",
    "registration_area_id": "2621",
    "precise_location": null,
    "abbreviation": "042",
    "units": "042",
    "delimitation": "12/02/06/042",
    "remark": "NEW PU",
    "ward_id": "2621",
    "ward_name": "EVBAREKE",
    "local_government_id": "226",
    "local_government_name": "EGOR",
    "state_id": "12",
    "state_name": "EDO",
    "location": {
      "latitude": 6.3736358,
      "longitude": 5.6118808,
      "viewport": {
        "northeast": {
          "lat": 6.374935429892722,
          "lng": 5.613035729892722
        },
        "southwest": {
          "lat": 6.372235770107277,
          "lng": 5.610336070107278
        }
      },
      "formatted_address": "Egor local Government, 19 Omobenson Street, West 300103, Benin City, Nigeria",
      "google_map_url": "https://maps.google.com?q=6.3736358,5.6118808",
      "google_place_id": "ChIJX-7fsy3TQBARJeNn3ggJWG0"
    }
  }
]