[
  {
    "id": "57533",
    "name": "C.S. EZIAMA AMECHI IDODO",
    "registration_area_id": "3121",
    "precise_location": null,
    "abbreviation": "001",
    "units": "001",
    "delimitation": "14/11/01/001",
    "remark": "EXISTING PU",
    "ward_id": "3121",
    "ward_name": "AMECHI/IDODO/ORUKU",
    "local_government_id": "269",
    "local_government_name": "NKANU EAST",
    "state_id": "14",
    "state_name": "ENUGU",
    "location": {
      "latitude": 6.461302,
      "longitude": 7.702945000000001,
      "viewport": {
        "northeast": {
          "lat": 6.4620833,
          "lng": 7.704340379892721
        },
        "southwest": {
          "lat": 6.458958100000001,
          "lng": 7.701640720107277
        }
      },
      "formatted_address": "FP63+G5G, 402115, Owo, Nigeria",
      "google_map_url": "https://maps.google.com?q=6.461302,7.702945000000001",
      "google_place_id": "ChIJvSIPXCOsRBARuOY8qJx_jnA"
    }
  },
  {
    "id": "57534",
    "name": "ORIE EZIAMA MARKET SQUARE",
    "registration_area_id": "3121",
    "precise_location": null,
    "abbreviation": "002",
    "units": "002",
    "delimitation": "14/11/01/002",
    "remark": "EXISTING PU",
    "ward_id": "3121",
    "ward_name": "AMECHI/IDODO/ORUKU",
    "local_government_id": "269",
    "local_government_name": "NKANU EAST",
    "state_id": "14",
    "state_name": "ENUGU",
    "location": {
      "latitude": 6.1952538,
      "longitude": 7.495577900000001,
      "viewport": {
        "northeast": {
          "lat": 6.196611829892722,
          "lng": 7.496904379892722
        },
        "southwest": {
          "lat": 6.193912170107278,
          "lng": 7.494204720107278
        }
      },
      "formatted_address": "5FWW+464, 402139, Nenwe, Nigeria",
      "google_map_url": "https://maps.google.com?q=6.1952538,7.495577900000001",
      "google_place_id": "ChIJW273h8VcQxARQzwSCSMJjWw"
    }
  },
  {
    "id": "57535",
    "name": "ORUKU TOWN HALL",
    "registration_area_id": "3121",
    "precise_location": null,
    "abbreviation": "003",
    "units": "003",
    "delimitation": "14/11/01/003",
    "remark": "EXISTING PU",
    "ward_id": "3121",
    "ward_name": "AMECHI/IDODO/ORUKU",
    "local_government_id": "269",
    "local_government_name": "NKANU EAST",
    "state_id": "14",
    "state_name": "ENUGU",
    "location": {
      "latitude": 6.4500744,
      "longitude": 7.631731599999999,
      "viewport": {
        "northeast": {
          "lat": 6.451434529892722,
          "lng": 7.633004579892722
        },
        "southwest": {
          "lat": 6.448734870107279,
          "lng": 7.630304920107278
        }
      },
      "formatted_address": "Akpugo-Ndiaga Akpugu-Ugbobo Rd, 400104, Nigeria",
      "google_map_url": "https://maps.google.com?q=6.4500744,7.631731599999999",
      "google_place_id": "ChIJEbNmoAGvRBARMkIDBGaYXXI"
    }
  },
  {
    "id": "57536",
    "name": "C.S. UZAM AMECHI IDODO I",
    "registration_area_id": "3121",
    "precise_location": null,
    "abbreviation": "004",
    "units": "004",
    "delimitation": "14/11/01/004",
    "remark": "EXISTING PU",
    "ward_id": "3121",
    "ward_name": "AMECHI/IDODO/ORUKU",
    "local_government_id": "269",
    "local_government_name": "NKANU EAST",
    "state_id": "14",
    "state_name": "ENUGU",
    "location": {
      "latitude": 6.461302,
      "longitude": 7.702945000000001,
      "viewport": {
        "northeast": {
          "lat": 6.4620833,
          "lng": 7.704340379892721
        },
        "southwest": {
          "lat": 6.458958100000001,
          "lng": 7.701640720107277
        }
      },
      "formatted_address": "FP63+G5G, 402115, Owo, Nigeria",
      "google_map_url": "https://maps.google.com?q=6.461302,7.702945000000001",
      "google_place_id": "ChIJvSIPXCOsRBARuOY8qJx_jnA"
    }
  },
  {
    "id": "57537",
    "name": "OBINAGU VILLAGE SQUARE",
    "registration_area_id": "3121",
    "precise_location": null,
    "abbreviation": "005",
    "units": "005",
    "delimitation": "14/11/01/005",
    "remark": "EXISTING PU",
    "ward_id": "3121",
    "ward_name": "AMECHI/IDODO/ORUKU",
    "local_government_id": "269",
    "local_government_name": "NKANU EAST",
    "state_id": "14",
    "state_name": "ENUGU",
    "location": {
      "latitude": 6.4679838,
      "longitude": 7.6015104,
      "viewport": {
        "northeast": {
          "lat": 6.469359429892722,
          "lng": 7.602889429892721
        },
        "southwest": {
          "lat": 6.466659770107278,
          "lng": 7.600189770107277
        }
      },
      "formatted_address": "FJ92+5JR, Abakaliki Road, Obinagu 400104, Enugu, Nigeria",
      "google_map_url": "https://maps.google.com?q=6.4679838,7.6015104",
      "google_place_id": "ChIJuTyIqpqlRBARQsA6_-AC_14"
    }
  },
  {
    "id": "57538",
    "name": "COMMUNITY PRIMARY SCHOOL UMUODE",
    "registration_area_id": "3121",
    "precise_location": null,
    "abbreviation": "006",
    "units": "006",
    "delimitation": "14/11/01/006",
    "remark": "EXISTING PU",
    "ward_id": "3121",
    "ward_name": "AMECHI/IDODO/ORUKU",
    "local_government_id": "269",
    "local_government_name": "NKANU EAST",
    "state_id": "14",
    "state_name": "ENUGU",
    "location": {
      "latitude": 6.439776699999999,
      "longitude": 7.628976599999999,
      "viewport": {
        "northeast": {
          "lat": 6.441051379892722,
          "lng": 7.630468529892722
        },
        "southwest": {
          "lat": 6.438351720107278,
          "lng": 7.627768870107278
        }
      },
      "formatted_address": "Community Primary School, Umuode - Akpugo Road, 400104, Nigeria",
      "google_map_url": "https://maps.google.com?q=6.439776699999999,7.628976599999999",
      "google_place_id": "ChIJNRtcXDOvRBARZOat5J-mIYw"
    }
  },
  {
    "id": "57539",
    "name": "UKWUEDO MARKET SQUARE",
    "registration_area_id": "3121",
    "precise_location": null,
    "abbreviation": "007",
    "units": "007",
    "delimitation": "14/11/01/007",
    "remark": "EXISTING PU",
    "ward_id": "3121",
    "ward_name": "AMECHI/IDODO/ORUKU",
    "local_government_id": "269",
    "local_government_name": "NKANU EAST",
    "state_id": "14",
    "state_name": "ENUGU",
    "location": {
      "latitude": 6.2678698,
      "longitude": 7.612429400000001,
      "viewport": {
        "northeast": {
          "lat": 6.269226129892722,
          "lng": 7.61379582989272
        },
        "southwest": {
          "lat": 6.266526470107278,
          "lng": 7.611096170107277
        }
      },
      "formatted_address": "7J96+4XV, Nkanu St, 402112, Enugu, Nigeria",
      "google_map_url": "https://maps.google.com?q=6.2678698,7.612429400000001",
      "google_place_id": "ChIJF4wyT1VXQxARUz06Qn8E9MA"
    }
  },
  {
    "id": "57540",
    "name": "EKE UMUODE MARKET SQUARE",
    "registration_area_id": "3121",
    "precise_location": null,
    "abbreviation": "008",
    "units": "008",
    "delimitation": "14/11/01/008",
    "remark": "EXISTING PU",
    "ward_id": "3121",
    "ward_name": "AMECHI/IDODO/ORUKU",
    "local_government_id": "269",
    "local_government_name": "NKANU EAST",
    "state_id": "14",
    "state_name": "ENUGU",
    "location": {
      "latitude": 6.4679838,
      "longitude": 7.6015104,
      "viewport": {
        "northeast": {
          "lat": 6.469359429892722,
          "lng": 7.602889429892721
        },
        "southwest": {
          "lat": 6.466659770107278,
          "lng": 7.600189770107277
        }
      },
      "formatted_address": "FJ92+5JR, Abakaliki Road, Obinagu 400104, Enugu, Nigeria",
      "google_map_url": "https://maps.google.com?q=6.4679838,7.6015104",
      "google_place_id": "ChIJuTyIqpqlRBARQsA6_-AC_14"
    }
  },
  {
    "id": "57541",
    "name": "C.S. UZAM AMECHI IDODO II",
    "registration_area_id": "3121",
    "precise_location": null,
    "abbreviation": "009",
    "units": "009",
    "delimitation": "14/11/01/009",
    "remark": "EXISTING PU",
    "ward_id": "3121",
    "ward_name": "AMECHI/IDODO/ORUKU",
    "local_government_id": "269",
    "local_government_name": "NKANU EAST",
    "state_id": "14",
    "state_name": "ENUGU",
    "location": {
      "latitude": 6.461302,
      "longitude": 7.702945000000001,
      "viewport": {
        "northeast": {
          "lat": 6.4620833,
          "lng": 7.704340379892721
        },
        "southwest": {
          "lat": 6.458958100000001,
          "lng": 7.701640720107277
        }
      },
      "formatted_address": "FP63+G5G, 402115, Owo, Nigeria",
      "google_map_url": "https://maps.google.com?q=6.461302,7.702945000000001",
      "google_place_id": "ChIJvSIPXCOsRBARuOY8qJx_jnA"
    }
  },
  {
    "id": "57542",
    "name": "EKE ORUKU MARKET SQUARE II",
    "registration_area_id": "3121",
    "precise_location": null,
    "abbreviation": "010",
    "units": "010",
    "delimitation": "14/11/01/010",
    "remark": "EXISTING PU",
    "ward_id": "3121",
    "ward_name": "AMECHI/IDODO/ORUKU",
    "local_government_id": "269",
    "local_government_name": "NKANU EAST",
    "state_id": "14",
    "state_name": "ENUGU",
    "location": {
      "latitude": 6.2678698,
      "longitude": 7.612429400000001,
      "viewport": {
        "northeast": {
          "lat": 6.269226129892722,
          "lng": 7.61379582989272
        },
        "southwest": {
          "lat": 6.266526470107278,
          "lng": 7.611096170107277
        }
      },
      "formatted_address": "7J96+4XV, Nkanu St, 402112, Enugu, Nigeria",
      "google_map_url": "https://maps.google.com?q=6.2678698,7.612429400000001",
      "google_place_id": "ChIJF4wyT1VXQxARUz06Qn8E9MA"
    }
  },
  {
    "id": "57543",
    "name": "COMM. PRI. SCH. ORUKU",
    "registration_area_id": "3121",
    "precise_location": null,
    "abbreviation": "011",
    "units": "011",
    "delimitation": "14/11/01/011",
    "remark": "NEW PU",
    "ward_id": "3121",
    "ward_name": "AMECHI/IDODO/ORUKU",
    "local_government_id": "269",
    "local_government_name": "NKANU EAST",
    "state_id": "14",
    "state_name": "ENUGU",
    "location": {
      "latitude": 6.439776699999999,
      "longitude": 7.628976599999999,
      "viewport": {
        "northeast": {
          "lat": 6.441051379892722,
          "lng": 7.630468529892722
        },
        "southwest": {
          "lat": 6.438351720107278,
          "lng": 7.627768870107278
        }
      },
      "formatted_address": "Community Primary School, Umuode - Akpugo Road, 400104, Nigeria",
      "google_map_url": "https://maps.google.com?q=6.439776699999999,7.628976599999999",
      "google_place_id": "ChIJNRtcXDOvRBARZOat5J-mIYw"
    }
  },
  {
    "id": "57544",
    "name": "AFOR UZAM VILL. SQ UMUODE",
    "registration_area_id": "3121",
    "precise_location": null,
    "abbreviation": "012",
    "units": "012",
    "delimitation": "14/11/01/012",
    "remark": "NEW PU",
    "ward_id": "3121",
    "ward_name": "AMECHI/IDODO/ORUKU",
    "local_government_id": "269",
    "local_government_name": "NKANU EAST",
    "state_id": "14",
    "state_name": "ENUGU",
    "location": {
      "latitude": 6.4500744,
      "longitude": 7.631731599999999,
      "viewport": {
        "northeast": {
          "lat": 6.451434529892722,
          "lng": 7.633004579892722
        },
        "southwest": {
          "lat": 6.448734870107279,
          "lng": 7.630304920107278
        }
      },
      "formatted_address": "Akpugo-Ndiaga Akpugu-Ugbobo Rd, 400104, Nigeria",
      "google_map_url": "https://maps.google.com?q=6.4500744,7.631731599999999",
      "google_place_id": "ChIJEbNmoAGvRBARMkIDBGaYXXI"
    }
  },
  {
    "id": "57545",
    "name": "OHANI VILL. SQ. AMECHI IDODO",
    "registration_area_id": "3121",
    "precise_location": null,
    "abbreviation": "013",
    "units": "013",
    "delimitation": "14/11/01/013",
    "remark": "NEW PU",
    "ward_id": "3121",
    "ward_name": "AMECHI/IDODO/ORUKU",
    "local_government_id": "269",
    "local_government_name": "NKANU EAST",
    "state_id": "14",
    "state_name": "ENUGU",
    "location": {
      "latitude": 6.4442602,
      "longitude": 7.713324999999999,
      "viewport": {
        "northeast": {
          "lat": 6.4553476,
          "lng": 7.729332400000001
        },
        "southwest": {
          "lat": 6.4331726,
          "lng": 7.6973176
        }
      },
      "formatted_address": "Ohani Village Square, 402115, Imeze Eziobodo, Nigeria",
      "google_map_url": "https://maps.google.com?q=6.4442602,7.713324999999999",
      "google_place_id": "ChIJbU_NFQ6sRBAR_eMiNXeJQz8"
    }
  },
  {
    "id": "57546",
    "name": "OBINAGU VILL. SQUARE II",
    "registration_area_id": "3121",
    "precise_location": null,
    "abbreviation": "014",
    "units": "014",
    "delimitation": "14/11/01/014",
    "remark": "NEW PU",
    "ward_id": "3121",
    "ward_name": "AMECHI/IDODO/ORUKU",
    "local_government_id": "269",
    "local_government_name": "NKANU EAST",
    "state_id": "14",
    "state_name": "ENUGU",
    "location": {
      "latitude": 6.4679838,
      "longitude": 7.6015104,
      "viewport": {
        "northeast": {
          "lat": 6.469359429892722,
          "lng": 7.602889429892721
        },
        "southwest": {
          "lat": 6.466659770107278,
          "lng": 7.600189770107277
        }
      },
      "formatted_address": "FJ92+5JR, Abakaliki Road, Obinagu 400104, Enugu, Nigeria",
      "google_map_url": "https://maps.google.com?q=6.4679838,7.6015104",
      "google_place_id": "ChIJuTyIqpqlRBARQsA6_-AC_14"
    }
  },
  {
    "id": "57547",
    "name": "C.S EZIAMA AMECHI IDODO II",
    "registration_area_id": "3121",
    "precise_location": null,
    "abbreviation": "015",
    "units": "015",
    "delimitation": "14/11/01/015",
    "remark": "NEW PU",
    "ward_id": "3121",
    "ward_name": "AMECHI/IDODO/ORUKU",
    "local_government_id": "269",
    "local_government_name": "NKANU EAST",
    "state_id": "14",
    "state_name": "ENUGU",
    "location": {
      "latitude": 6.461302,
      "longitude": 7.702945000000001,
      "viewport": {
        "northeast": {
          "lat": 6.4620833,
          "lng": 7.704340379892721
        },
        "southwest": {
          "lat": 6.458958100000001,
          "lng": 7.701640720107277
        }
      },
      "formatted_address": "FP63+G5G, 402115, Owo, Nigeria",
      "google_map_url": "https://maps.google.com?q=6.461302,7.702945000000001",
      "google_place_id": "ChIJvSIPXCOsRBARuOY8qJx_jnA"
    }
  },
  {
    "id": "57548",
    "name": "C.S. EZIAMA AMECHI IDODO III",
    "registration_area_id": "3121",
    "precise_location": null,
    "abbreviation": "016",
    "units": "016",
    "delimitation": "14/11/01/016",
    "remark": "NEW PU",
    "ward_id": "3121",
    "ward_name": "AMECHI/IDODO/ORUKU",
    "local_government_id": "269",
    "local_government_name": "NKANU EAST",
    "state_id": "14",
    "state_name": "ENUGU",
    "location": {
      "latitude": 6.461302,
      "longitude": 7.702945000000001,
      "viewport": {
        "northeast": {
          "lat": 6.4620833,
          "lng": 7.704340379892721
        },
        "southwest": {
          "lat": 6.458958100000001,
          "lng": 7.701640720107277
        }
      },
      "formatted_address": "FP63+G5G, 402115, Owo, Nigeria",
      "google_map_url": "https://maps.google.com?q=6.461302,7.702945000000001",
      "google_place_id": "ChIJvSIPXCOsRBARuOY8qJx_jnA"
    }
  }
]