[
  {
    "id": "355662",
    "name": "PRIMARY SCHOOL, AKINDELE",
    "registration_area_id": "18178",
    "precise_location": null,
    "abbreviation": "001",
    "units": "001",
    "delimitation": "30/14/03/001",
    "remark": "EXISTING PU",
    "ward_id": "18178",
    "ward_name": "AKINWARE/AKINDELE",
    "local_government_id": "641",
    "local_government_name": "IDO",
    "state_id": "30",
    "state_name": "OYO",
    "location": {
      "latitude": 7.527237100000001,
      "longitude": 3.7164276,
      "viewport": {
        "northeast": {
          "lat": 7.528580729892724,
          "lng": 3.717811179892722
        },
        "southwest": {
          "lat": 7.52588107010728,
          "lng": 3.715111520107278
        }
      },
      "formatted_address": "GPG8+VHV, 200130, Ido, Nigeria",
      "google_map_url": "https://maps.google.com?q=7.527237100000001,3.7164276",
      "google_place_id": "ChIJLdIS78YdOhARtL2sB3_9GhA"
    }
  },
  {
    "id": "355663",
    "name": "PRIMARY SCHOOL, ELESINFUNFUN",
    "registration_area_id": "18178",
    "precise_location": null,
    "abbreviation": "002",
    "units": "002",
    "delimitation": "30/14/03/002",
    "remark": "EXISTING PU",
    "ward_id": "18178",
    "ward_name": "AKINWARE/AKINDELE",
    "local_government_id": "641",
    "local_government_name": "IDO",
    "state_id": "30",
    "state_name": "OYO",
    "location": {
      "latitude": 7.527237100000001,
      "longitude": 3.7164276,
      "viewport": {
        "northeast": {
          "lat": 7.528580729892724,
          "lng": 3.717811179892722
        },
        "southwest": {
          "lat": 7.52588107010728,
          "lng": 3.715111520107278
        }
      },
      "formatted_address": "GPG8+VHV, 200130, Ido, Nigeria",
      "google_map_url": "https://maps.google.com?q=7.527237100000001,3.7164276",
      "google_place_id": "ChIJLdIS78YdOhARtL2sB3_9GhA"
    }
  },
  {
    "id": "355664",
    "name": "OPEN SPACE OLOKOGBORO",
    "registration_area_id": "18178",
    "precise_location": null,
    "abbreviation": "003",
    "units": "003",
    "delimitation": "30/14/03/003",
    "remark": "EXISTING PU",
    "ward_id": "18178",
    "ward_name": "AKINWARE/AKINDELE",
    "local_government_id": "641",
    "local_government_name": "IDO",
    "state_id": "30",
    "state_name": "OYO",
    "location": {
      "latitude": 7.832566099999999,
      "longitude": 3.9192967,
      "viewport": {
        "northeast": {
          "lat": 7.83405702989272,
          "lng": 3.920734079892721
        },
        "southwest": {
          "lat": 7.831357370107276,
          "lng": 3.918034420107277
        }
      },
      "formatted_address": "RWM9+2P6, Owode 211172, Oyo, Nigeria",
      "google_map_url": "https://maps.google.com?q=7.832566099999999,3.9192967",
      "google_place_id": "ChIJt230J_ZZNxARaTW0IemAb6A"
    }
  },
  {
    "id": "355665",
    "name": "OPEN SPACE ONIGBINDE",
    "registration_area_id": "18178",
    "precise_location": null,
    "abbreviation": "004",
    "units": "004",
    "delimitation": "30/14/03/004",
    "remark": "EXISTING PU",
    "ward_id": "18178",
    "ward_name": "AKINWARE/AKINDELE",
    "local_government_id": "641",
    "local_government_name": "IDO",
    "state_id": "30",
    "state_name": "OYO",
    "location": {
      "latitude": 7.5077051,
      "longitude": 3.7193936,
      "viewport": {
        "northeast": {
          "lat": 7.513023799999999,
          "lng": 3.724773
        },
        "southwest": {
          "lat": 7.501557200000001,
          "lng": 3.7124777
        }
      },
      "formatted_address": "200130, Ido, Nigeria",
      "google_map_url": "https://maps.google.com?q=7.5077051,3.7193936",
      "google_place_id": "ChIJMf1MxHUeOhARYM2fOu6RIaE"
    }
  },
  {
    "id": "355666",
    "name": "OPEN SPACE, AKINWARE",
    "registration_area_id": "18178",
    "precise_location": null,
    "abbreviation": "005",
    "units": "005",
    "delimitation": "30/14/03/005",
    "remark": "EXISTING PU",
    "ward_id": "18178",
    "ward_name": "AKINWARE/AKINDELE",
    "local_government_id": "641",
    "local_government_name": "IDO",
    "state_id": "30",
    "state_name": "OYO",
    "location": {
      "latitude": 7.5077051,
      "longitude": 3.7193936,
      "viewport": {
        "northeast": {
          "lat": 7.513023799999999,
          "lng": 3.724773
        },
        "southwest": {
          "lat": 7.501557200000001,
          "lng": 3.7124777
        }
      },
      "formatted_address": "200130, Ido, Nigeria",
      "google_map_url": "https://maps.google.com?q=7.5077051,3.7193936",
      "google_place_id": "ChIJMf1MxHUeOhARYM2fOu6RIaE"
    }
  },
  {
    "id": "355667",
    "name": "OPEN SPACE MORAKINYO",
    "registration_area_id": "18178",
    "precise_location": null,
    "abbreviation": "006",
    "units": "006",
    "delimitation": "30/14/03/006",
    "remark": "EXISTING PU",
    "ward_id": "18178",
    "ward_name": "AKINWARE/AKINDELE",
    "local_government_id": "641",
    "local_government_name": "IDO",
    "state_id": "30",
    "state_name": "OYO",
    "location": {
      "latitude": 7.5077051,
      "longitude": 3.7193936,
      "viewport": {
        "northeast": {
          "lat": 7.513023799999999,
          "lng": 3.724773
        },
        "southwest": {
          "lat": 7.501557200000001,
          "lng": 3.7124777
        }
      },
      "formatted_address": "200130, Ido, Nigeria",
      "google_map_url": "https://maps.google.com?q=7.5077051,3.7193936",
      "google_place_id": "ChIJMf1MxHUeOhARYM2fOu6RIaE"
    }
  },
  {
    "id": "355668",
    "name": "PRIMARY SCHOOL ELESHINFUNFUN II",
    "registration_area_id": "18178",
    "precise_location": null,
    "abbreviation": "007",
    "units": "007",
    "delimitation": "30/14/03/007",
    "remark": "NEW PU",
    "ward_id": "18178",
    "ward_name": "AKINWARE/AKINDELE",
    "local_government_id": "641",
    "local_government_name": "IDO",
    "state_id": "30",
    "state_name": "OYO",
    "location": {
      "latitude": 7.527237100000001,
      "longitude": 3.7164276,
      "viewport": {
        "northeast": {
          "lat": 7.528580729892724,
          "lng": 3.717811179892722
        },
        "southwest": {
          "lat": 7.52588107010728,
          "lng": 3.715111520107278
        }
      },
      "formatted_address": "GPG8+VHV, 200130, Ido, Nigeria",
      "google_map_url": "https://maps.google.com?q=7.527237100000001,3.7164276",
      "google_place_id": "ChIJLdIS78YdOhARtL2sB3_9GhA"
    }
  },
  {
    "id": "355669",
    "name": "NUD PRIMARY SCHOOL ONIGBINDE",
    "registration_area_id": "18178",
    "precise_location": null,
    "abbreviation": "008",
    "units": "008",
    "delimitation": "30/14/03/008",
    "remark": "NEW PU",
    "ward_id": "18178",
    "ward_name": "AKINWARE/AKINDELE",
    "local_government_id": "641",
    "local_government_name": "IDO",
    "state_id": "30",
    "state_name": "OYO",
    "location": {
      "latitude": 7.4692751,
      "longitude": 3.756404,
      "viewport": {
        "northeast": {
          "lat": 7.47061917989272,
          "lng": 3.757627579892721
        },
        "southwest": {
          "lat": 7.467919520107276,
          "lng": 3.754927920107277
        }
      },
      "formatted_address": "FQ94+PH6, 200130, Igbona, Nigeria",
      "google_map_url": "https://maps.google.com?q=7.4692751,3.756404",
      "google_place_id": "ChIJuR_QXpz1ORARmXC75R-XEFY"
    }
  }
]