[
  {
    "id": "44073",
    "name": "BY MOSHESHE AIRPORT ROAD & ENVIRONS",
    "registration_area_id": "2397",
    "precise_location": null,
    "abbreviation": "001",
    "units": "001",
    "delimitation": "10/22/05/001",
    "remark": "EXISTING PU",
    "ward_id": "2397",
    "ward_name": "UGBORIKOKO",
    "local_government_id": "208",
    "local_government_name": "UVWIE",
    "state_id": "10",
    "state_name": "DELTA",
    "location": {
      "latitude": 5.5466774,
      "longitude": 5.776641499999999,
      "viewport": {
        "northeast": {
          "lat": 5.548281129892722,
          "lng": 5.777977629892721
        },
        "southwest": {
          "lat": 5.545581470107278,
          "lng": 5.775277970107277
        }
      },
      "formatted_address": "GQWG+MMC, Airport Road, Warri 330102, Warri, Nigeria",
      "google_map_url": "https://maps.google.com?q=5.5466774,5.776641499999999",
      "google_place_id": "ChIJITdEiJytQRARrVhy0aaqIts"
    }
  },
  {
    "id": "44074",
    "name": "EYABUOBE  PRIMARY SCHOOL",
    "registration_area_id": "2397",
    "precise_location": null,
    "abbreviation": "002",
    "units": "002",
    "delimitation": "10/22/05/002",
    "remark": "EXISTING PU",
    "ward_id": "2397",
    "ward_name": "UGBORIKOKO",
    "local_government_id": "208",
    "local_government_name": "UVWIE",
    "state_id": "10",
    "state_name": "DELTA",
    "location": {
      "latitude": 5.568778000000001,
      "longitude": 5.744146,
      "viewport": {
        "northeast": {
          "lat": 5.570126329892722,
          "lng": 5.745517479892721
        },
        "southwest": {
          "lat": 5.567426670107278,
          "lng": 5.742817820107277
        }
      },
      "formatted_address": "HP9V+GM6, Ekpan, Effurun, Warri, Nigeria",
      "google_map_url": "https://maps.google.com?q=5.568778000000001,5.744146",
      "google_place_id": "ChIJsSaBQyStQRARBS1-1JHlItM"
    }
  },
  {
    "id": "44075",
    "name": "BY CUSTOM BARRACK",
    "registration_area_id": "2397",
    "precise_location": null,
    "abbreviation": "003",
    "units": "003",
    "delimitation": "10/22/05/003",
    "remark": "EXISTING PU",
    "ward_id": "2397",
    "ward_name": "UGBORIKOKO",
    "local_government_id": "208",
    "local_government_name": "UVWIE",
    "state_id": "10",
    "state_name": "DELTA",
    "location": {
      "latitude": 5.5316582,
      "longitude": 5.740020599999999,
      "viewport": {
        "northeast": {
          "lat": 5.533008029892723,
          "lng": 5.741370429892721
        },
        "southwest": {
          "lat": 5.530308370107279,
          "lng": 5.738670770107277
        }
      },
      "formatted_address": "107 Airport Road, Effurun 332104, Warri, Nigeria",
      "google_map_url": "https://maps.google.com?q=5.5316582,5.740020599999999",
      "google_place_id": "ChIJp9VhfKiyQRAR2nC-HnVAzRE"
    }
  },
  {
    "id": "44076",
    "name": "BY SHRINE  UGBORIKOKO TOWN",
    "registration_area_id": "2397",
    "precise_location": null,
    "abbreviation": "004",
    "units": "004",
    "delimitation": "10/22/05/004",
    "remark": "EXISTING PU",
    "ward_id": "2397",
    "ward_name": "UGBORIKOKO",
    "local_government_id": "208",
    "local_government_name": "UVWIE",
    "state_id": "10",
    "state_name": "DELTA",
    "location": {
      "latitude": 5.5537977,
      "longitude": 5.7900524,
      "viewport": {
        "northeast": {
          "lat": 5.555149479892721,
          "lng": 5.791406829892721
        },
        "southwest": {
          "lat": 5.552449820107277,
          "lng": 5.788707170107277
        }
      },
      "formatted_address": "HQ3R+G27, 330102, Warri, Nigeria",
      "google_map_url": "https://maps.google.com?q=5.5537977,5.7900524",
      "google_place_id": "ChIJN1YphZWtQRARd1kDlkuezxg"
    }
  },
  {
    "id": "44077",
    "name": "OPP. C.A.C CHURCH  OJOMO AVENUE",
    "registration_area_id": "2397",
    "precise_location": null,
    "abbreviation": "005",
    "units": "005",
    "delimitation": "10/22/05/005",
    "remark": "EXISTING PU",
    "ward_id": "2397",
    "ward_name": "UGBORIKOKO",
    "local_government_id": "208",
    "local_government_name": "UVWIE",
    "state_id": "10",
    "state_name": "DELTA",
    "location": {
      "latitude": 5.561456400000001,
      "longitude": 5.7804934,
      "viewport": {
        "northeast": {
          "lat": 5.562801479892721,
          "lng": 5.781830429892722
        },
        "southwest": {
          "lat": 5.560101820107278,
          "lng": 5.779130770107278
        }
      },
      "formatted_address": "HQ6J+H5M, Effurun 330102, Warri, Nigeria",
      "google_map_url": "https://maps.google.com?q=5.561456400000001,5.7804934",
      "google_place_id": "ChIJ56lUX6StQRAR7iybQe1vF5U"
    }
  },
  {
    "id": "44078",
    "name": "BY DPA UGBORIKOKO ESTATE",
    "registration_area_id": "2397",
    "precise_location": null,
    "abbreviation": "006",
    "units": "006",
    "delimitation": "10/22/05/006",
    "remark": "EXISTING PU",
    "ward_id": "2397",
    "ward_name": "UGBORIKOKO",
    "local_government_id": "208",
    "local_government_name": "UVWIE",
    "state_id": "10",
    "state_name": "DELTA",
    "location": {
      "latitude": 5.549430399999999,
      "longitude": 5.7668515,
      "viewport": {
        "northeast": {
          "lat": 5.5567383,
          "lng": 5.777919
        },
        "southwest": {
          "lat": 5.5276808,
          "lng": 5.755912899999999
        }
      },
      "formatted_address": "Ugborikoko, Warri, Nigeria",
      "google_map_url": "https://maps.google.com?q=5.549430399999999,5.7668515",
      "google_place_id": "ChIJe23mh3mtQRAR0lpVgb87MoM"
    }
  },
  {
    "id": "44079",
    "name": "BY ATAMAKOLOMI I",
    "registration_area_id": "2397",
    "precise_location": null,
    "abbreviation": "007",
    "units": "007",
    "delimitation": "10/22/05/007",
    "remark": "EXISTING PU",
    "ward_id": "2397",
    "ward_name": "UGBORIKOKO",
    "local_government_id": "208",
    "local_government_name": "UVWIE",
    "state_id": "10",
    "state_name": "DELTA",
    "location": {
      "latitude": 5.7914018,
      "longitude": 6.1046701,
      "viewport": {
        "northeast": {
          "lat": 5.792649779892722,
          "lng": 6.106022379892721
        },
        "southwest": {
          "lat": 5.789950120107278,
          "lng": 6.103322720107277
        }
      },
      "formatted_address": "Abraka - Abbi Rd, 330105, Uruoka, Nigeria",
      "google_map_url": "https://maps.google.com?q=5.7914018,6.1046701",
      "google_place_id": "ChIJeStZYOxzQRARU8he-3_PaeQ"
    }
  },
  {
    "id": "44080",
    "name": "KPOHARHO ESTATE",
    "registration_area_id": "2397",
    "precise_location": null,
    "abbreviation": "008",
    "units": "008",
    "delimitation": "10/22/05/008",
    "remark": "EXISTING PU",
    "ward_id": "2397",
    "ward_name": "UGBORIKOKO",
    "local_government_id": "208",
    "local_government_name": "UVWIE",
    "state_id": "10",
    "state_name": "DELTA",
    "location": {
      "latitude": 5.5411302,
      "longitude": 5.7638565,
      "viewport": {
        "northeast": {
          "lat": 5.542435429892722,
          "lng": 5.765181329892722
        },
        "southwest": {
          "lat": 5.539735770107278,
          "lng": 5.762481670107278
        }
      },
      "formatted_address": "Ugborikoko Shrine, Warri, 330102, Wado City, Nigeria",
      "google_map_url": "https://maps.google.com?q=5.5411302,5.7638565",
      "google_place_id": "ChIJ96kNPnytQRAR-oaxYdSKHy0"
    }
  },
  {
    "id": "44081",
    "name": "BY UGBORIKOKO MARKET",
    "registration_area_id": "2397",
    "precise_location": null,
    "abbreviation": "009",
    "units": "009",
    "delimitation": "10/22/05/009",
    "remark": "EXISTING PU",
    "ward_id": "2397",
    "ward_name": "UGBORIKOKO",
    "local_government_id": "208",
    "local_government_name": "UVWIE",
    "state_id": "10",
    "state_name": "DELTA",
    "location": {
      "latitude": 5.5413438,
      "longitude": 5.7635495,
      "viewport": {
        "northeast": {
          "lat": 5.542611629892722,
          "lng": 5.764864479892722
        },
        "southwest": {
          "lat": 5.539911970107278,
          "lng": 5.762164820107278
        }
      },
      "formatted_address": "GQR7+GCM, Warri 330102, Warri, Nigeria",
      "google_map_url": "https://maps.google.com?q=5.5413438,5.7635495",
      "google_place_id": "ChIJsfSyHHutQRARfuSc8mFeoRA"
    }
  },
  {
    "id": "44082",
    "name": "SOKOH ESTATE ROAD",
    "registration_area_id": "2397",
    "precise_location": null,
    "abbreviation": "010",
    "units": "010",
    "delimitation": "10/22/05/010",
    "remark": "EXISTING PU",
    "ward_id": "2397",
    "ward_name": "UGBORIKOKO",
    "local_government_id": "208",
    "local_government_name": "UVWIE",
    "state_id": "10",
    "state_name": "DELTA",
    "location": {
      "latitude": 5.5507197,
      "longitude": 5.7758106,
      "viewport": {
        "northeast": {
          "lat": 5.556930200000052,
          "lng": 5.780535899999999
        },
        "southwest": {
          "lat": 5.543268199999949,
          "lng": 5.771502300000001
        }
      },
      "formatted_address": "Council Rd, 330102, Warri, Nigeria",
      "google_map_url": "https://maps.google.com?q=5.5507197,5.7758106",
      "google_place_id": "EiJDb3VuY2lsIFJkLCAzMzAxMDIsIFdhcnJpLCBOaWdlcmlhIi4qLAoUChIJEZsH056tQRARCCxat0CY7AsSFAoSCXtt5od5rUEQEdJaVYG_OzKD"
    }
  },
  {
    "id": "44083",
    "name": "BY ATAMAKOLOMI II",
    "registration_area_id": "2397",
    "precise_location": null,
    "abbreviation": "011",
    "units": "011",
    "delimitation": "10/22/05/011",
    "remark": "EXISTING PU",
    "ward_id": "2397",
    "ward_name": "UGBORIKOKO",
    "local_government_id": "208",
    "local_government_name": "UVWIE",
    "state_id": "10",
    "state_name": "DELTA",
    "location": {
      "latitude": 5.7914018,
      "longitude": 6.1046701,
      "viewport": {
        "northeast": {
          "lat": 5.792649779892722,
          "lng": 6.106022379892721
        },
        "southwest": {
          "lat": 5.789950120107278,
          "lng": 6.103322720107277
        }
      },
      "formatted_address": "Abraka - Abbi Rd, 330105, Uruoka, Nigeria",
      "google_map_url": "https://maps.google.com?q=5.7914018,6.1046701",
      "google_place_id": "ChIJeStZYOxzQRARU8he-3_PaeQ"
    }
  },
  {
    "id": "44084",
    "name": "DELTA ESTATE BY PHD",
    "registration_area_id": "2397",
    "precise_location": null,
    "abbreviation": "012",
    "units": "012",
    "delimitation": "10/22/05/012",
    "remark": "EXISTING PU",
    "ward_id": "2397",
    "ward_name": "UGBORIKOKO",
    "local_government_id": "208",
    "local_government_name": "UVWIE",
    "state_id": "10",
    "state_name": "DELTA",
    "location": {
      "latitude": 5.5363523,
      "longitude": 5.7750994,
      "viewport": {
        "northeast": {
          "lat": 5.537184729892722,
          "lng": 5.778866299999999
        },
        "southwest": {
          "lat": 5.534485070107278,
          "lng": 5.773850700000001
        }
      },
      "formatted_address": "GQPG+H25, Unnamed Road, Warri 330102, Warri, Nigeria",
      "google_map_url": "https://maps.google.com?q=5.5363523,5.7750994",
      "google_place_id": "ChIJcW8M24CtQRAR0hqOu-1Y7cA"
    }
  },
  {
    "id": "44085",
    "name": "KODOSOH  LAYOUT",
    "registration_area_id": "2397",
    "precise_location": null,
    "abbreviation": "013",
    "units": "013",
    "delimitation": "10/22/05/013",
    "remark": "EXISTING PU",
    "ward_id": "2397",
    "ward_name": "UGBORIKOKO",
    "local_government_id": "208",
    "local_government_name": "UVWIE",
    "state_id": "10",
    "state_name": "DELTA",
    "location": {
      "latitude": 5.5411302,
      "longitude": 5.7638565,
      "viewport": {
        "northeast": {
          "lat": 5.542435429892722,
          "lng": 5.765181329892722
        },
        "southwest": {
          "lat": 5.539735770107278,
          "lng": 5.762481670107278
        }
      },
      "formatted_address": "Ugborikoko Shrine, Warri, 330102, Wado City, Nigeria",
      "google_map_url": "https://maps.google.com?q=5.5411302,5.7638565",
      "google_place_id": "ChIJ96kNPnytQRAR-oaxYdSKHy0"
    }
  },
  {
    "id": "44086",
    "name": "UGBORIKOKO LAYOUT",
    "registration_area_id": "2397",
    "precise_location": null,
    "abbreviation": "014",
    "units": "014",
    "delimitation": "10/22/05/014",
    "remark": "EXISTING PU",
    "ward_id": "2397",
    "ward_name": "UGBORIKOKO",
    "local_government_id": "208",
    "local_government_name": "UVWIE",
    "state_id": "10",
    "state_name": "DELTA",
    "location": {
      "latitude": 5.549430399999999,
      "longitude": 5.7668515,
      "viewport": {
        "northeast": {
          "lat": 5.5567383,
          "lng": 5.777919
        },
        "southwest": {
          "lat": 5.5276808,
          "lng": 5.755912899999999
        }
      },
      "formatted_address": "Ugborikoko, Warri, Nigeria",
      "google_map_url": "https://maps.google.com?q=5.549430399999999,5.7668515",
      "google_place_id": "ChIJe23mh3mtQRAR0lpVgb87MoM"
    }
  },
  {
    "id": "44087",
    "name": "OPP.  C.A.C  CHURCH",
    "registration_area_id": "2397",
    "precise_location": null,
    "abbreviation": "015",
    "units": "015",
    "delimitation": "10/22/05/015",
    "remark": "EXISTING PU",
    "ward_id": "2397",
    "ward_name": "UGBORIKOKO",
    "local_government_id": "208",
    "local_government_name": "UVWIE",
    "state_id": "10",
    "state_name": "DELTA",
    "location": {
      "latitude": 5.569745699999999,
      "longitude": 5.83019,
      "viewport": {
        "northeast": {
          "lat": 5.571097179892722,
          "lng": 5.831619129892722
        },
        "southwest": {
          "lat": 5.568397520107278,
          "lng": 5.828919470107278
        }
      },
      "formatted_address": "HR9J+V3R, 330102, Warri, Nigeria",
      "google_map_url": "https://maps.google.com?q=5.569745699999999,5.83019",
      "google_place_id": "ChIJt5DEXnquQRARowD4uVNG5ZY"
    }
  },
  {
    "id": "44088",
    "name": "BY FR  OBIOE  ST.",
    "registration_area_id": "2397",
    "precise_location": null,
    "abbreviation": "016",
    "units": "016",
    "delimitation": "10/22/05/016",
    "remark": "EXISTING PU",
    "ward_id": "2397",
    "ward_name": "UGBORIKOKO",
    "local_government_id": "208",
    "local_government_name": "UVWIE",
    "state_id": "10",
    "state_name": "DELTA",
    "location": {
      "latitude": 5.570938700000001,
      "longitude": 5.8054066,
      "viewport": {
        "northeast": {
          "lat": 5.572331029892722,
          "lng": 5.806653079892722
        },
        "southwest": {
          "lat": 5.569631370107278,
          "lng": 5.803953420107278
        }
      },
      "formatted_address": "Dsc, Effurun GRA 330102, Warri, Nigeria",
      "google_map_url": "https://maps.google.com?q=5.570938700000001,5.8054066",
      "google_place_id": "ChIJRROjCLStQRARG9AkCO0P4ow"
    }
  },
  {
    "id": "44089",
    "name": "MOSHESHE STREET BY PERFECT KIDDIES SCHOOL",
    "registration_area_id": "2397",
    "precise_location": null,
    "abbreviation": "017",
    "units": "017",
    "delimitation": "10/22/05/017",
    "remark": "NEW PU",
    "ward_id": "2397",
    "ward_name": "UGBORIKOKO",
    "local_government_id": "208",
    "local_government_name": "UVWIE",
    "state_id": "10",
    "state_name": "DELTA",
    "location": {
      "latitude": 5.54803,
      "longitude": 5.7814093,
      "viewport": {
        "northeast": {
          "lat": 5.549354729892722,
          "lng": 5.782701579892722
        },
        "southwest": {
          "lat": 5.546655070107279,
          "lng": 5.780001920107278
        }
      },
      "formatted_address": "21 Mosheshe St, Effurun 330102, Warri, Nigeria",
      "google_map_url": "https://maps.google.com?q=5.54803,5.7814093",
      "google_place_id": "ChIJkw7VTeatQRARuA5D4mdccO4"
    }
  },
  {
    "id": "44090",
    "name": "AIRPORT ROAD BESIDE BLACKIE THOMAS PLAZA",
    "registration_area_id": "2397",
    "precise_location": null,
    "abbreviation": "018",
    "units": "018",
    "delimitation": "10/22/05/018",
    "remark": "NEW PU",
    "ward_id": "2397",
    "ward_name": "UGBORIKOKO",
    "local_government_id": "208",
    "local_government_name": "UVWIE",
    "state_id": "10",
    "state_name": "DELTA",
    "location": {
      "latitude": 5.542787199999999,
      "longitude": 5.7676228,
      "viewport": {
        "northeast": {
          "lat": 5.550713450000051,
          "lng": 5.789123199999999
        },
        "southwest": {
          "lat": 5.53713844999995,
          "lng": 5.744700000000003
        }
      },
      "formatted_address": "Airport Road, Warri, Nigeria",
      "google_map_url": "https://maps.google.com?q=5.542787199999999,5.7676228",
      "google_place_id": "EhxBaXJwb3J0IFJvYWQsIFdhcnJpLCBOaWdlcmlhIi4qLAoUChIJ4QeImWStQRARCjQj3LqBl8oSFAoSCXtt5od5rUEQEdJaVYG_OzKD"
    }
  },
  {
    "id": "44091",
    "name": "UGBORIKOKO SECONDARY SCHOOL",
    "registration_area_id": "2397",
    "precise_location": null,
    "abbreviation": "019",
    "units": "019",
    "delimitation": "10/22/05/019",
    "remark": "NEW PU",
    "ward_id": "2397",
    "ward_name": "UGBORIKOKO",
    "local_government_id": "208",
    "local_government_name": "UVWIE",
    "state_id": "10",
    "state_name": "DELTA",
    "location": {
      "latitude": 5.5419192,
      "longitude": 5.7614512,
      "viewport": {
        "northeast": {
          "lat": 5.543275029892721,
          "lng": 5.762836179892722
        },
        "southwest": {
          "lat": 5.540575370107277,
          "lng": 5.760136520107278
        }
      },
      "formatted_address": "GQR6+QH8, Westend Road, Wado 330102, Wado City, Nigeria",
      "google_map_url": "https://maps.google.com?q=5.5419192,5.7614512",
      "google_place_id": "ChIJL5Jrz3qtQRAR64f4RGAht9w"
    }
  },
  {
    "id": "44092",
    "name": "CUSTOM BARRACK ROAD BY JOE MARINE SCHOOL",
    "registration_area_id": "2397",
    "precise_location": null,
    "abbreviation": "020",
    "units": "020",
    "delimitation": "10/22/05/020",
    "remark": "NEW PU",
    "ward_id": "2397",
    "ward_name": "UGBORIKOKO",
    "local_government_id": "208",
    "local_government_name": "UVWIE",
    "state_id": "10",
    "state_name": "DELTA",
    "location": {
      "latitude": 5.545799199999999,
      "longitude": 5.758635400000001,
      "viewport": {
        "northeast": {
          "lat": 5.547045679892721,
          "lng": 5.760004829892722
        },
        "southwest": {
          "lat": 5.544346020107278,
          "lng": 5.757305170107278
        }
      },
      "formatted_address": "Plot 10 39th Street, DDPA Estate Delta, Effurun, Nigeria",
      "google_map_url": "https://maps.google.com?q=5.545799199999999,5.758635400000001",
      "google_place_id": "ChIJRcWY_QKtQRAR4o40VCCp3JI"
    }
  },
  {
    "id": "44093",
    "name": "GOD'S FINGER PLAZA OPP. ST. ANTHONY CATHOLIC CHURCH",
    "registration_area_id": "2397",
    "precise_location": null,
    "abbreviation": "021",
    "units": "021",
    "delimitation": "10/22/05/021",
    "remark": "NEW PU",
    "ward_id": "2397",
    "ward_name": "UGBORIKOKO",
    "local_government_id": "208",
    "local_government_name": "UVWIE",
    "state_id": "10",
    "state_name": "DELTA",
    "location": {
      "latitude": 5.5471458,
      "longitude": 5.740073,
      "viewport": {
        "northeast": {
          "lat": 5.548377029892722,
          "lng": 5.741426279892722
        },
        "southwest": {
          "lat": 5.545677370107279,
          "lng": 5.738726620107278
        }
      },
      "formatted_address": "GPWR+V24, Ethiope River Close, Edjeba 332104, Warri, Nigeria",
      "google_map_url": "https://maps.google.com?q=5.5471458,5.740073",
      "google_place_id": "ChIJN5sSFgutQRAR5HuYzbL8tB0"
    }
  },
  {
    "id": "44094",
    "name": "ONOGE TOWN HALL",
    "registration_area_id": "2397",
    "precise_location": null,
    "abbreviation": "022",
    "units": "022",
    "delimitation": "10/22/05/022",
    "remark": "NEW PU",
    "ward_id": "2397",
    "ward_name": "UGBORIKOKO",
    "local_government_id": "208",
    "local_government_name": "UVWIE",
    "state_id": "10",
    "state_name": "DELTA",
    "location": {
      "latitude": 5.5677902,
      "longitude": 5.834378399999999,
      "viewport": {
        "northeast": {
          "lat": 5.569153229892722,
          "lng": 5.835710429892722
        },
        "southwest": {
          "lat": 5.566453570107278,
          "lng": 5.833010770107278
        }
      },
      "formatted_address": "HR9M+4PF, 330102, Effurun, Nigeria",
      "google_map_url": "https://maps.google.com?q=5.5677902,5.834378399999999",
      "google_place_id": "ChIJy9tUbGeuQRARGsmKNuiLsEA"
    }
  },
  {
    "id": "44095",
    "name": "EJIRO JUNCTION BY EJIRO SCHOOL",
    "registration_area_id": "2397",
    "precise_location": null,
    "abbreviation": "023",
    "units": "023",
    "delimitation": "10/22/05/023",
    "remark": "NEW PU",
    "ward_id": "2397",
    "ward_name": "UGBORIKOKO",
    "local_government_id": "208",
    "local_government_name": "UVWIE",
    "state_id": "10",
    "state_name": "DELTA",
    "location": {
      "latitude": 5.5318485,
      "longitude": 5.7507928,
      "viewport": {
        "northeast": {
          "lat": 5.533239079892721,
          "lng": 5.752116829892722
        },
        "southwest": {
          "lat": 5.530539420107277,
          "lng": 5.749417170107278
        }
      },
      "formatted_address": "41 Okere Ugborikoko Road, Effurun 332104, Warri, Nigeria",
      "google_map_url": "https://maps.google.com?q=5.5318485,5.7507928",
      "google_place_id": "ChIJOa6uKKCyQRAR57ljBtMICrA"
    }
  },
  {
    "id": "44096",
    "name": "ALABARA STREET BY DIVINE LOVE SCHOOL",
    "registration_area_id": "2397",
    "precise_location": null,
    "abbreviation": "024",
    "units": "024",
    "delimitation": "10/22/05/024",
    "remark": "NEW PU",
    "ward_id": "2397",
    "ward_name": "UGBORIKOKO",
    "local_government_id": "208",
    "local_government_name": "UVWIE",
    "state_id": "10",
    "state_name": "DELTA",
    "location": {
      "latitude": 5.5623678,
      "longitude": 5.7800246,
      "viewport": {
        "northeast": {
          "lat": 5.563726579892722,
          "lng": 5.781444479892722
        },
        "southwest": {
          "lat": 5.561026920107278,
          "lng": 5.778744820107278
        }
      },
      "formatted_address": "HQ6J+W2R, usie, Effurun 330102, Warri, Nigeria",
      "google_map_url": "https://maps.google.com?q=5.5623678,5.7800246",
      "google_place_id": "ChIJg9CIheutQRARBAeGe3lN9cc"
    }
  },
  {
    "id": "44097",
    "name": "OKUEMI HOTEL BY 5TH STREET",
    "registration_area_id": "2397",
    "precise_location": null,
    "abbreviation": "025",
    "units": "025",
    "delimitation": "10/22/05/025",
    "remark": "NEW PU",
    "ward_id": "2397",
    "ward_name": "UGBORIKOKO",
    "local_government_id": "208",
    "local_government_name": "UVWIE",
    "state_id": "10",
    "state_name": "DELTA",
    "location": {
      "latitude": 5.541608099999999,
      "longitude": 5.7610148,
      "viewport": {
        "northeast": {
          "lat": 5.542927029892721,
          "lng": 5.762358929892722
        },
        "southwest": {
          "lat": 5.540227370107277,
          "lng": 5.759659270107278
        }
      },
      "formatted_address": "Airport Road, Warri 332104, Wado City, Nigeria",
      "google_map_url": "https://maps.google.com?q=5.541608099999999,5.7610148",
      "google_place_id": "ChIJM04GTnqtQRARZW01NKW5CoE"
    }
  },
  {
    "id": "44098",
    "name": "UGBORIDJO HEALTH CENTRE",
    "registration_area_id": "2397",
    "precise_location": null,
    "abbreviation": "026",
    "units": "026",
    "delimitation": "10/22/05/026",
    "remark": "NEW PU",
    "ward_id": "2397",
    "ward_name": "UGBORIKOKO",
    "local_government_id": "208",
    "local_government_name": "UVWIE",
    "state_id": "10",
    "state_name": "DELTA",
    "location": {
      "latitude": 5.5349214,
      "longitude": 5.7614059,
      "viewport": {
        "northeast": {
          "lat": 5.53624997989272,
          "lng": 5.762678379892721
        },
        "southwest": {
          "lat": 5.533550320107277,
          "lng": 5.759978720107277
        }
      },
      "formatted_address": "GQM6+XG8, Allen Street, Off LGA, Onokuta St, Wado City, Nigeria",
      "google_map_url": "https://maps.google.com?q=5.5349214,5.7614059",
      "google_place_id": "ChIJY7av7WKtQRARJXhz84PZZtE"
    }
  },
  {
    "id": "44099",
    "name": "RAINBOW CHRISTIAN ASSEMBLY CHURCH AIRPORT ROAD",
    "registration_area_id": "2397",
    "precise_location": null,
    "abbreviation": "027",
    "units": "027",
    "delimitation": "10/22/05/027",
    "remark": "NEW PU",
    "ward_id": "2397",
    "ward_name": "UGBORIKOKO",
    "local_government_id": "208",
    "local_government_name": "UVWIE",
    "state_id": "10",
    "state_name": "DELTA",
    "location": {
      "latitude": 5.5409226,
      "longitude": 5.7583715,
      "viewport": {
        "northeast": {
          "lat": 5.542900779892722,
          "lng": 5.759841629892723
        },
        "southwest": {
          "lat": 5.540201120107278,
          "lng": 5.757141970107279
        }
      },
      "formatted_address": "77 Airport Road, Warri 332212, Warri, Nigeria",
      "google_map_url": "https://maps.google.com?q=5.5409226,5.7583715",
      "google_place_id": "ChIJG2cIXGStQRARK3Ixj6jc4vs"
    }
  },
  {
    "id": "44100",
    "name": "RUTE INTERNATIONAL SCHOOL DDPA",
    "registration_area_id": "2397",
    "precise_location": null,
    "abbreviation": "028",
    "units": "028",
    "delimitation": "10/22/05/028",
    "remark": "NEW PU",
    "ward_id": "2397",
    "ward_name": "UGBORIKOKO",
    "local_government_id": "208",
    "local_government_name": "UVWIE",
    "state_id": "10",
    "state_name": "DELTA",
    "location": {
      "latitude": 5.5450487,
      "longitude": 5.763529999999999,
      "viewport": {
        "northeast": {
          "lat": 5.546402429892722,
          "lng": 5.764902779892722
        },
        "southwest": {
          "lat": 5.543702770107278,
          "lng": 5.762203120107278
        }
      },
      "formatted_address": "plot 174, 24th street DDPAUgborikoko, Effurun, Warri, Nigeria",
      "google_map_url": "https://maps.google.com?q=5.5450487,5.763529999999999",
      "google_place_id": "ChIJvXfegcytQRARuMWqZGUZG3I"
    }
  },
  {
    "id": "44101",
    "name": "BRIGTHON PLACE BY ST. LUKE'S SCHOOL",
    "registration_area_id": "2397",
    "precise_location": null,
    "abbreviation": "029",
    "units": "029",
    "delimitation": "10/22/05/029",
    "remark": "NEW PU",
    "ward_id": "2397",
    "ward_name": "UGBORIKOKO",
    "local_government_id": "208",
    "local_government_name": "UVWIE",
    "state_id": "10",
    "state_name": "DELTA",
    "location": {
      "latitude": 5.5472474,
      "longitude": 5.7707969,
      "viewport": {
        "northeast": {
          "lat": 5.548631679892721,
          "lng": 5.772332829892722
        },
        "southwest": {
          "lat": 5.545932020107277,
          "lng": 5.769633170107278
        }
      },
      "formatted_address": "GQWC+V8V, Warri 330102, Warri, Nigeria",
      "google_map_url": "https://maps.google.com?q=5.5472474,5.7707969",
      "google_place_id": "ChIJ93PWSXatQRARIPtO-ncswxk"
    }
  },
  {
    "id": "44102",
    "name": "TM PALACE HOTEL JUNCTION AIRPORT ROAD",
    "registration_area_id": "2397",
    "precise_location": null,
    "abbreviation": "030",
    "units": "030",
    "delimitation": "10/22/05/030",
    "remark": "NEW PU",
    "ward_id": "2397",
    "ward_name": "UGBORIKOKO",
    "local_government_id": "208",
    "local_government_name": "UVWIE",
    "state_id": "10",
    "state_name": "DELTA",
    "location": {
      "latitude": 5.545234199999999,
      "longitude": 5.755850199999999,
      "viewport": {
        "northeast": {
          "lat": 5.546584029892721,
          "lng": 5.757355929892721
        },
        "southwest": {
          "lat": 5.543884370107278,
          "lng": 5.754656270107278
        }
      },
      "formatted_address": "&nbsp, 10 Airport Road, Effurun, Warri, Nigeria",
      "google_map_url": "https://maps.google.com?q=5.545234199999999,5.755850199999999",
      "google_place_id": "ChIJBwda9CTjQBARICCBz0GXVMw"
    }
  },
  {
    "id": "44103",
    "name": "OUR LADY OF PERPETUAL HEALTH CLINIC EWARE",
    "registration_area_id": "2397",
    "precise_location": null,
    "abbreviation": "031",
    "units": "031",
    "delimitation": "10/22/05/031",
    "remark": "NEW PU",
    "ward_id": "2397",
    "ward_name": "UGBORIKOKO",
    "local_government_id": "208",
    "local_government_name": "UVWIE",
    "state_id": "10",
    "state_name": "DELTA",
    "location": {
      "latitude": 5.5481823,
      "longitude": 5.7602611,
      "viewport": {
        "northeast": {
          "lat": 5.549459579892722,
          "lng": 5.761625029892723
        },
        "southwest": {
          "lat": 5.546759920107278,
          "lng": 5.758925370107279
        }
      },
      "formatted_address": "Bendel Estate, Plot 24, Eware Avenue, Warri, Nigeria",
      "google_map_url": "https://maps.google.com?q=5.5481823,5.7602611",
      "google_place_id": "ChIJx3mn4pCtQRARzgTc0YSfCkY"
    }
  },
  {
    "id": "44104",
    "name": "TREASURE HOTEL BY PA SHANUKPE STREET",
    "registration_area_id": "2397",
    "precise_location": null,
    "abbreviation": "032",
    "units": "032",
    "delimitation": "10/22/05/032",
    "remark": "NEW PU",
    "ward_id": "2397",
    "ward_name": "UGBORIKOKO",
    "local_government_id": "208",
    "local_government_name": "UVWIE",
    "state_id": "10",
    "state_name": "DELTA",
    "location": {
      "latitude": 6.1198294,
      "longitude": 6.1818684,
      "viewport": {
        "northeast": {
          "lat": 6.121107429892722,
          "lng": 6.183388229892722
        },
        "southwest": {
          "lat": 6.118407770107278,
          "lng": 6.180688570107278
        }
      },
      "formatted_address": "14km, Agbor-Warri, Abavo, Nigeria",
      "google_map_url": "https://maps.google.com?q=6.1198294,6.1818684",
      "google_place_id": "ChIJ_____3ZEQRARWy65xosp-BY"
    }
  },
  {
    "id": "44105",
    "name": "AMAJATOJA STREET BY ASSEMBLIES OF GOD CHURCH",
    "registration_area_id": "2397",
    "precise_location": null,
    "abbreviation": "033",
    "units": "033",
    "delimitation": "10/22/05/033",
    "remark": "NEW PU",
    "ward_id": "2397",
    "ward_name": "UGBORIKOKO",
    "local_government_id": "208",
    "local_government_name": "UVWIE",
    "state_id": "10",
    "state_name": "DELTA",
    "location": {
      "latitude": 5.5368875,
      "longitude": 5.7637727,
      "viewport": {
        "northeast": {
          "lat": 5.538264379892722,
          "lng": 5.765171879892723
        },
        "southwest": {
          "lat": 5.535564720107279,
          "lng": 5.762472220107279
        }
      },
      "formatted_address": "GQP7+PC4, Warri 332104, Warri, Nigeria",
      "google_map_url": "https://maps.google.com?q=5.5368875,5.7637727",
      "google_place_id": "ChIJXypr-nytQRAR7mtrH0-x4FY"
    }
  },
  {
    "id": "44106",
    "name": "CHIEF AGBAMU ROAD BY REDEEMED CHURCH",
    "registration_area_id": "2397",
    "precise_location": null,
    "abbreviation": "034",
    "units": "034",
    "delimitation": "10/22/05/034",
    "remark": "NEW PU",
    "ward_id": "2397",
    "ward_name": "UGBORIKOKO",
    "local_government_id": "208",
    "local_government_name": "UVWIE",
    "state_id": "10",
    "state_name": "DELTA",
    "location": {
      "latitude": 5.543735,
      "longitude": 5.758191600000001,
      "viewport": {
        "northeast": {
          "lat": 5.545088679892721,
          "lng": 5.759563779892722
        },
        "southwest": {
          "lat": 5.542389020107278,
          "lng": 5.756864120107278
        }
      },
      "formatted_address": "No. 22, Chief Agbamu Street, Bendel Estate, Off Airport Road, Warri, Nigeria",
      "google_map_url": "https://maps.google.com?q=5.543735,5.758191600000001",
      "google_place_id": "ChIJl7y5j2WtQRAR0bQdyaivwzo"
    }
  },
  {
    "id": "44107",
    "name": "BY VOICE OF FAITH CHURCH KODOSOH LAYOUT",
    "registration_area_id": "2397",
    "precise_location": null,
    "abbreviation": "035",
    "units": "035",
    "delimitation": "10/22/05/035",
    "remark": "NEW PU",
    "ward_id": "2397",
    "ward_name": "UGBORIKOKO",
    "local_government_id": "208",
    "local_government_name": "UVWIE",
    "state_id": "10",
    "state_name": "DELTA",
    "location": {
      "latitude": 5.5426275,
      "longitude": 5.782382,
      "viewport": {
        "northeast": {
          "lat": 5.543953829892723,
          "lng": 5.783716979892722
        },
        "southwest": {
          "lat": 5.541254170107279,
          "lng": 5.781017320107278
        }
      },
      "formatted_address": "GQVJ+2V8, Mbaise Close, Enerhe 330102, Warri, Nigeria",
      "google_map_url": "https://maps.google.com?q=5.5426275,5.782382",
      "google_place_id": "ChIJV35n9Y-tQRAR0q-0BjTwwCY"
    }
  },
  {
    "id": "44108",
    "name": "CHURCH OF GOD MISSION ENIKOGHO STREET",
    "registration_area_id": "2397",
    "precise_location": null,
    "abbreviation": "036",
    "units": "036",
    "delimitation": "10/22/05/036",
    "remark": "NEW PU",
    "ward_id": "2397",
    "ward_name": "UGBORIKOKO",
    "local_government_id": "208",
    "local_government_name": "UVWIE",
    "state_id": "10",
    "state_name": "DELTA",
    "location": {
      "latitude": 5.5615182,
      "longitude": 5.770075299999999,
      "viewport": {
        "northeast": {
          "lat": 5.562877429892722,
          "lng": 5.771582329892722
        },
        "southwest": {
          "lat": 5.560177770107277,
          "lng": 5.768882670107278
        }
      },
      "formatted_address": "HQ6C+J24, Aya Street, Tori 330102, Warri, Nigeria",
      "google_map_url": "https://maps.google.com?q=5.5615182,5.770075299999999",
      "google_place_id": "ChIJERCjpAmtQRAR4KK315mhqEs"
    }
  },
  {
    "id": "44109",
    "name": "BROWN EDIGBE STREET BY OTORO JUNCTION",
    "registration_area_id": "2397",
    "precise_location": null,
    "abbreviation": "037",
    "units": "037",
    "delimitation": "10/22/05/037",
    "remark": "NEW PU",
    "ward_id": "2397",
    "ward_name": "UGBORIKOKO",
    "local_government_id": "208",
    "local_government_name": "UVWIE",
    "state_id": "10",
    "state_name": "DELTA",
    "location": {
      "latitude": 5.5480073,
      "longitude": 5.7629185,
      "viewport": {
        "northeast": {
          "lat": 5.549309729892721,
          "lng": 5.764276929892722
        },
        "southwest": {
          "lat": 5.546610070107278,
          "lng": 5.761577270107278
        }
      },
      "formatted_address": "19th Street, Plot 2, DDPA, Ugborikoko, State, Effurun, Warri, Nigeria",
      "google_map_url": "https://maps.google.com?q=5.5480073,5.7629185",
      "google_place_id": "ChIJ54SBv3GtQRARmj14y18SjkU"
    }
  },
  {
    "id": "44110",
    "name": "BENJONES FILLING STATION UGBORIKOKO",
    "registration_area_id": "2397",
    "precise_location": null,
    "abbreviation": "038",
    "units": "038",
    "delimitation": "10/22/05/038",
    "remark": "NEW PU",
    "ward_id": "2397",
    "ward_name": "UGBORIKOKO",
    "local_government_id": "208",
    "local_government_name": "UVWIE",
    "state_id": "10",
    "state_name": "DELTA",
    "location": {
      "latitude": 5.5638695,
      "longitude": 5.729814000000001,
      "viewport": {
        "northeast": {
          "lat": 5.565256429892721,
          "lng": 5.731159979892722
        },
        "southwest": {
          "lat": 5.562556770107277,
          "lng": 5.728460320107278
        }
      },
      "formatted_address": "HP7H+GWW, Ekpan 332101, Warri, Nigeria",
      "google_map_url": "https://maps.google.com?q=5.5638695,5.729814000000001",
      "google_place_id": "ChIJm3M_SqJTQBARfsm3bc3qrKc"
    }
  },
  {
    "id": "44111",
    "name": "UGBORIKOKO ROAD BY AKARA JUNCTION",
    "registration_area_id": "2397",
    "precise_location": null,
    "abbreviation": "039",
    "units": "039",
    "delimitation": "10/22/05/039",
    "remark": "NEW PU",
    "ward_id": "2397",
    "ward_name": "UGBORIKOKO",
    "local_government_id": "208",
    "local_government_name": "UVWIE",
    "state_id": "10",
    "state_name": "DELTA",
    "location": {
      "latitude": 5.5371014,
      "longitude": 5.7640955,
      "viewport": {
        "northeast": {
          "lat": 5.538448229892722,
          "lng": 5.765441329892722
        },
        "southwest": {
          "lat": 5.535748570107278,
          "lng": 5.762741670107278
        }
      },
      "formatted_address": "No. 4 Akara junction road, Nigeria",
      "google_map_url": "https://maps.google.com?q=5.5371014,5.7640955",
      "google_place_id": "ChIJeQ67QQqtQRARPUR2pTgP_1c"
    }
  },
  {
    "id": "44112",
    "name": "IGHOFOSE ST. BEFOR SOUL HARVESTERS PRIMARY SCHOOL",
    "registration_area_id": "2397",
    "precise_location": null,
    "abbreviation": "040",
    "units": "040",
    "delimitation": "10/22/05/040",
    "remark": "NEW PU",
    "ward_id": "2397",
    "ward_name": "UGBORIKOKO",
    "local_government_id": "208",
    "local_government_name": "UVWIE",
    "state_id": "10",
    "state_name": "DELTA",
    "location": {
      "latitude": 5.539397399999999,
      "longitude": 5.758742199999999,
      "viewport": {
        "northeast": {
          "lat": 5.540526679892722,
          "lng": 5.760096679892722
        },
        "southwest": {
          "lat": 5.537827020107278,
          "lng": 5.757397020107278
        }
      },
      "formatted_address": "11 Alabara St, Warri 332104, Warri, Nigeria",
      "google_map_url": "https://maps.google.com?q=5.539397399999999,5.758742199999999",
      "google_place_id": "ChIJCTW7KoOtQRARObCmZRpil_4"
    }
  },
  {
    "id": "44113",
    "name": "ADJOMO AVENUE BY CHRIST EMBASSY",
    "registration_area_id": "2397",
    "precise_location": null,
    "abbreviation": "041",
    "units": "041",
    "delimitation": "10/22/05/041",
    "remark": "NEW PU",
    "ward_id": "2397",
    "ward_name": "UGBORIKOKO",
    "local_government_id": "208",
    "local_government_name": "UVWIE",
    "state_id": "10",
    "state_name": "DELTA",
    "location": {
      "latitude": 5.540811499999999,
      "longitude": 5.7656524,
      "viewport": {
        "northeast": {
          "lat": 5.542225079892722,
          "lng": 5.766958679892722
        },
        "southwest": {
          "lat": 5.539525420107278,
          "lng": 5.764259020107279
        }
      },
      "formatted_address": "GQR8+87C, Airport Road, Warri 330102, Warri, Nigeria",
      "google_map_url": "https://maps.google.com?q=5.540811499999999,5.7656524",
      "google_place_id": "ChIJrxFYyHutQRARVkvj4zbIU20"
    }
  }
]