[
  {
    "id": "106638",
    "name": "EJOFE - TOWN HALL EJOFE",
    "registration_area_id": "5477",
    "precise_location": null,
    "abbreviation": "001",
    "units": "001",
    "delimitation": "22/06/03/001",
    "remark": "EXISTING PU",
    "ward_id": "5477",
    "ward_name": "IYANO",
    "local_government_id": "474",
    "local_government_name": "IBAJI",
    "state_id": "22",
    "state_name": "KOGI",
    "location": {
      "latitude": 7.8229739,
      "longitude": 6.732164399999999,
      "viewport": {
        "northeast": {
          "lat": 7.824204679892722,
          "lng": 6.733468479892721
        },
        "southwest": {
          "lat": 7.821505020107278,
          "lng": 6.730768820107278
        }
      },
      "formatted_address": "RPFJ+5V, 260101, Lokoja, Nigeria",
      "google_map_url": "https://maps.google.com?q=7.8229739,6.732164399999999",
      "google_place_id": "ChIJB_aCDAddTxARB4oRBEbCjbc"
    }
  },
  {
    "id": "106639",
    "name": "IRU I. - IKWU HALL IRU",
    "registration_area_id": "5477",
    "precise_location": null,
    "abbreviation": "002",
    "units": "002",
    "delimitation": "22/06/03/002",
    "remark": "EXISTING PU",
    "ward_id": "5477",
    "ward_name": "IYANO",
    "local_government_id": "474",
    "local_government_name": "IBAJI",
    "state_id": "22",
    "state_name": "KOGI",
    "location": null
  },
  {
    "id": "106640",
    "name": "IRU II - IRU",
    "registration_area_id": "5477",
    "precise_location": null,
    "abbreviation": "003",
    "units": "003",
    "delimitation": "22/06/03/003",
    "remark": "EXISTING PU",
    "ward_id": "5477",
    "ward_name": "IYANO",
    "local_government_id": "474",
    "local_government_name": "IBAJI",
    "state_id": "22",
    "state_name": "KOGI",
    "location": {
      "latitude": 6.799858599999999,
      "longitude": 6.674504199999999,
      "viewport": {
        "northeast": {
          "lat": 6.858257399999999,
          "lng": 6.722705599999999
        },
        "southwest": {
          "lat": 6.7311183,
          "lng": 6.6107903
        }
      },
      "formatted_address": "Iyano, 271105, Nigeria",
      "google_map_url": "https://maps.google.com?q=6.799858599999999,6.674504199999999",
      "google_place_id": "ChIJM_LogVY5RBARPDpAx-u2EDM"
    }
  },
  {
    "id": "106641",
    "name": "ALUAJA I TOWN HALL ALUAJA",
    "registration_area_id": "5477",
    "precise_location": null,
    "abbreviation": "004",
    "units": "004",
    "delimitation": "22/06/03/004",
    "remark": "EXISTING PU",
    "ward_id": "5477",
    "ward_name": "IYANO",
    "local_government_id": "474",
    "local_government_name": "IBAJI",
    "state_id": "22",
    "state_name": "KOGI",
    "location": null
  },
  {
    "id": "106642",
    "name": "ALUAJA II OKPATAWO CLAN HALL",
    "registration_area_id": "5477",
    "precise_location": null,
    "abbreviation": "005",
    "units": "005",
    "delimitation": "22/06/03/005",
    "remark": "EXISTING PU",
    "ward_id": "5477",
    "ward_name": "IYANO",
    "local_government_id": "474",
    "local_government_name": "IBAJI",
    "state_id": "22",
    "state_name": "KOGI",
    "location": null
  },
  {
    "id": "106643",
    "name": "ITALE I - TOWN HALL",
    "registration_area_id": "5477",
    "precise_location": null,
    "abbreviation": "006",
    "units": "006",
    "delimitation": "22/06/03/006",
    "remark": "EXISTING PU",
    "ward_id": "5477",
    "ward_name": "IYANO",
    "local_government_id": "474",
    "local_government_name": "IBAJI",
    "state_id": "22",
    "state_name": "KOGI",
    "location": {
      "latitude": 7.8329377,
      "longitude": 6.0748817,
      "viewport": {
        "northeast": {
          "lat": 7.834270029892722,
          "lng": 6.076293429892722
        },
        "southwest": {
          "lat": 7.831570370107278,
          "lng": 6.073593770107278
        }
      },
      "formatted_address": "261101, Kabba, Nigeria",
      "google_map_url": "https://maps.google.com?q=7.8329377,6.0748817",
      "google_place_id": "ChIJuw_pTwujSBARjezElec1QyY"
    }
  },
  {
    "id": "106644",
    "name": "ITALE II / ITALE",
    "registration_area_id": "5477",
    "precise_location": null,
    "abbreviation": "007",
    "units": "007",
    "delimitation": "22/06/03/007",
    "remark": "EXISTING PU",
    "ward_id": "5477",
    "ward_name": "IYANO",
    "local_government_id": "474",
    "local_government_name": "IBAJI",
    "state_id": "22",
    "state_name": "KOGI",
    "location": {
      "latitude": 6.799858599999999,
      "longitude": 6.674504199999999,
      "viewport": {
        "northeast": {
          "lat": 6.858257399999999,
          "lng": 6.722705599999999
        },
        "southwest": {
          "lat": 6.7311183,
          "lng": 6.6107903
        }
      },
      "formatted_address": "Iyano, 271105, Nigeria",
      "google_map_url": "https://maps.google.com?q=6.799858599999999,6.674504199999999",
      "google_place_id": "ChIJM_LogVY5RBARPDpAx-u2EDM"
    }
  },
  {
    "id": "106645",
    "name": "ISHI ISHI TOWN HALL",
    "registration_area_id": "5477",
    "precise_location": null,
    "abbreviation": "008",
    "units": "008",
    "delimitation": "22/06/03/008",
    "remark": "EXISTING PU",
    "ward_id": "5477",
    "ward_name": "IYANO",
    "local_government_id": "474",
    "local_government_name": "IBAJI",
    "state_id": "22",
    "state_name": "KOGI",
    "location": {
      "latitude": 6.0313168,
      "longitude": 6.5334107,
      "viewport": {
        "northeast": {
          "lat": 6.032768979892722,
          "lng": 6.534713029892722
        },
        "southwest": {
          "lat": 6.030069320107279,
          "lng": 6.532013370107278
        }
      },
      "formatted_address": "2GJM+G89, 320109, Ishiagu, Nigeria",
      "google_map_url": "https://maps.google.com?q=6.0313168,6.5334107",
      "google_place_id": "ChIJVZ0mzKHnQxART5BKdxmsfd8"
    }
  },
  {
    "id": "106646",
    "name": "IKAKA- IYEKE TOWN HALL",
    "registration_area_id": "5477",
    "precise_location": null,
    "abbreviation": "009",
    "units": "009",
    "delimitation": "22/06/03/009",
    "remark": "EXISTING PU",
    "ward_id": "5477",
    "ward_name": "IYANO",
    "local_government_id": "474",
    "local_government_name": "IBAJI",
    "state_id": "22",
    "state_name": "KOGI",
    "location": {
      "latitude": 7.7999411,
      "longitude": 6.7314004,
      "viewport": {
        "northeast": {
          "lat": 7.801279629892723,
          "lng": 6.732751779892721
        },
        "southwest": {
          "lat": 7.798579970107279,
          "lng": 6.730052120107278
        }
      },
      "formatted_address": "QPXJ+XHR, 260101, Lokoja, Nigeria",
      "google_map_url": "https://maps.google.com?q=7.7999411,6.7314004",
      "google_place_id": "ChIJBwGDThReTxARuFyOyYeeCpk"
    }
  },
  {
    "id": "106647",
    "name": "ABUJAGA - OPEN SPACE",
    "registration_area_id": "5477",
    "precise_location": null,
    "abbreviation": "010",
    "units": "010",
    "delimitation": "22/06/03/010",
    "remark": "EXISTING PU",
    "ward_id": "5477",
    "ward_name": "IYANO",
    "local_government_id": "474",
    "local_government_name": "IBAJI",
    "state_id": "22",
    "state_name": "KOGI",
    "location": {
      "latitude": 7.8023256,
      "longitude": 6.733435,
      "viewport": {
        "northeast": {
          "lat": 7.803590029892721,
          "lng": 6.734788679892723
        },
        "southwest": {
          "lat": 7.800890370107277,
          "lng": 6.732089020107279
        }
      },
      "formatted_address": "Suit 14, Lokongoma Plaza Lokoja, 260101, Lokoja, Nigeria",
      "google_map_url": "https://maps.google.com?q=7.8023256,6.733435",
      "google_place_id": "ChIJ7yjgfhhfTxAR1DAbwm2zN-w"
    }
  },
  {
    "id": "106648",
    "name": "INEMEH TOWN HALL INEMEH",
    "registration_area_id": "5477",
    "precise_location": null,
    "abbreviation": "011",
    "units": "011",
    "delimitation": "22/06/03/011",
    "remark": "EXISTING PU",
    "ward_id": "5477",
    "ward_name": "IYANO",
    "local_government_id": "474",
    "local_government_name": "IBAJI",
    "state_id": "22",
    "state_name": "KOGI",
    "location": {
      "latitude": 7.8329377,
      "longitude": 6.0748817,
      "viewport": {
        "northeast": {
          "lat": 7.834270029892722,
          "lng": 6.076293429892722
        },
        "southwest": {
          "lat": 7.831570370107278,
          "lng": 6.073593770107278
        }
      },
      "formatted_address": "261101, Kabba, Nigeria",
      "google_map_url": "https://maps.google.com?q=7.8329377,6.0748817",
      "google_place_id": "ChIJuw_pTwujSBARjezElec1QyY"
    }
  },
  {
    "id": "106649",
    "name": "AKWURO - OPEN SPACE",
    "registration_area_id": "5477",
    "precise_location": null,
    "abbreviation": "012",
    "units": "012",
    "delimitation": "22/06/03/012",
    "remark": "EXISTING PU",
    "ward_id": "5477",
    "ward_name": "IYANO",
    "local_government_id": "474",
    "local_government_name": "IBAJI",
    "state_id": "22",
    "state_name": "KOGI",
    "location": {
      "latitude": 7.8023256,
      "longitude": 6.733435,
      "viewport": {
        "northeast": {
          "lat": 7.803590029892721,
          "lng": 6.734788679892723
        },
        "southwest": {
          "lat": 7.800890370107277,
          "lng": 6.732089020107279
        }
      },
      "formatted_address": "Suit 14, Lokongoma Plaza Lokoja, 260101, Lokoja, Nigeria",
      "google_map_url": "https://maps.google.com?q=7.8023256,6.733435",
      "google_place_id": "ChIJ7yjgfhhfTxAR1DAbwm2zN-w"
    }
  },
  {
    "id": "106650",
    "name": "IKPEKO/ADANE - OPEN SPACE",
    "registration_area_id": "5477",
    "precise_location": null,
    "abbreviation": "013",
    "units": "013",
    "delimitation": "22/06/03/013",
    "remark": "EXISTING PU",
    "ward_id": "5477",
    "ward_name": "IYANO",
    "local_government_id": "474",
    "local_government_name": "IBAJI",
    "state_id": "22",
    "state_name": "KOGI",
    "location": null
  },
  {
    "id": "106651",
    "name": "AMIDA/IRU - ITAKPA PLAY GROUND",
    "registration_area_id": "5477",
    "precise_location": null,
    "abbreviation": "014",
    "units": "014",
    "delimitation": "22/06/03/014",
    "remark": "EXISTING PU",
    "ward_id": "5477",
    "ward_name": "IYANO",
    "local_government_id": "474",
    "local_government_name": "IBAJI",
    "state_id": "22",
    "state_name": "KOGI",
    "location": null
  },
  {
    "id": "106652",
    "name": "IYAJA, TOWN HALL IKAKA",
    "registration_area_id": "5477",
    "precise_location": null,
    "abbreviation": "015",
    "units": "015",
    "delimitation": "22/06/03/015",
    "remark": "NEW PU",
    "ward_id": "5477",
    "ward_name": "IYANO",
    "local_government_id": "474",
    "local_government_name": "IBAJI",
    "state_id": "22",
    "state_name": "KOGI",
    "location": {
      "latitude": 7.8329377,
      "longitude": 6.0748817,
      "viewport": {
        "northeast": {
          "lat": 7.834270029892722,
          "lng": 6.076293429892722
        },
        "southwest": {
          "lat": 7.831570370107278,
          "lng": 6.073593770107278
        }
      },
      "formatted_address": "261101, Kabba, Nigeria",
      "google_map_url": "https://maps.google.com?q=7.8329377,6.0748817",
      "google_place_id": "ChIJuw_pTwujSBARjezElec1QyY"
    }
  }
]