[
  {
    "id": "99472",
    "name": "INWALA   /  K/GIDAN MUNTARI TELA I",
    "registration_area_id": "5053",
    "precise_location": null,
    "abbreviation": "001",
    "units": "001",
    "delimitation": "20/21/12/001",
    "remark": "EXISTING PU",
    "ward_id": "5053",
    "ward_name": "WAKILI KUDU III",
    "local_government_id": "434",
    "local_government_name": "KATSINA",
    "state_id": "20",
    "state_name": "KATSINA",
    "location": null
  },
  {
    "id": "99473",
    "name": "INWALA  /  K/GIDAN MUNTARI TELA II",
    "registration_area_id": "5053",
    "precise_location": null,
    "abbreviation": "002",
    "units": "002",
    "delimitation": "20/21/12/002",
    "remark": "EXISTING PU",
    "ward_id": "5053",
    "ward_name": "WAKILI KUDU III",
    "local_government_id": "434",
    "local_government_name": "KATSINA",
    "state_id": "20",
    "state_name": "KATSINA",
    "location": {
      "latitude": 12.969911,
      "longitude": 7.620452999999999,
      "viewport": {
        "northeast": {
          "lat": 12.97120722989272,
          "lng": 7.621763429892721
        },
        "southwest": {
          "lat": 12.96850757010728,
          "lng": 7.619063770107277
        }
      },
      "formatted_address": "Plot 109, IBB Way, Katsina, Nigeria",
      "google_map_url": "https://maps.google.com?q=12.969911,7.620452999999999",
      "google_place_id": "ChIJay3tJqgksBER99VDQmy5Cc4"
    }
  },
  {
    "id": "99474",
    "name": "INWALA  /  K/GIDAN ALH. MAIWADA",
    "registration_area_id": "5053",
    "precise_location": null,
    "abbreviation": "003",
    "units": "003",
    "delimitation": "20/21/12/003",
    "remark": "EXISTING PU",
    "ward_id": "5053",
    "ward_name": "WAKILI KUDU III",
    "local_government_id": "434",
    "local_government_name": "KATSINA",
    "state_id": "20",
    "state_name": "KATSINA",
    "location": {
      "latitude": 13.003545,
      "longitude": 7.582923999999999,
      "viewport": {
        "northeast": {
          "lat": 13.00489717989272,
          "lng": 7.584209279892724
        },
        "southwest": {
          "lat": 13.00219752010728,
          "lng": 7.58150962010728
        }
      },
      "formatted_address": "2H3M+C57, Along Gidan Kwakwa Road, Dutsen-Safe Low Coast, Katsina, Nigeria",
      "google_map_url": "https://maps.google.com?q=13.003545,7.582923999999999",
      "google_place_id": "ChIJu3FuiDg9sBERQvWZkXn8PBU"
    }
  },
  {
    "id": "99475",
    "name": "INWALA   / K/GIDANMILA",
    "registration_area_id": "5053",
    "precise_location": null,
    "abbreviation": "004",
    "units": "004",
    "delimitation": "20/21/12/004",
    "remark": "EXISTING PU",
    "ward_id": "5053",
    "ward_name": "WAKILI KUDU III",
    "local_government_id": "434",
    "local_government_name": "KATSINA",
    "state_id": "20",
    "state_name": "KATSINA",
    "location": {
      "latitude": 12.9854295,
      "longitude": 7.605797,
      "viewport": {
        "northeast": {
          "lat": 12.98677162989272,
          "lng": 7.607183529892721
        },
        "southwest": {
          "lat": 12.98407197010728,
          "lng": 7.604483870107277
        }
      },
      "formatted_address": "XJP4+58F, Sabuwar Kasuwa Road, 820101, Katsina, Nigeria",
      "google_map_url": "https://maps.google.com?q=12.9854295,7.605797",
      "google_place_id": "ChIJHUiaLFY9sBERqJBmNBOtUkE"
    }
  },
  {
    "id": "99476",
    "name": "INWALA  YAN - ALEWA I",
    "registration_area_id": "5053",
    "precise_location": null,
    "abbreviation": "005",
    "units": "005",
    "delimitation": "20/21/12/005",
    "remark": "EXISTING PU",
    "ward_id": "5053",
    "ward_name": "WAKILI KUDU III",
    "local_government_id": "434",
    "local_government_name": "KATSINA",
    "state_id": "20",
    "state_name": "KATSINA",
    "location": null
  },
  {
    "id": "99477",
    "name": "INWALA  YAN - ALEWA II",
    "registration_area_id": "5053",
    "precise_location": null,
    "abbreviation": "006",
    "units": "006",
    "delimitation": "20/21/12/006",
    "remark": "EXISTING PU",
    "ward_id": "5053",
    "ward_name": "WAKILI KUDU III",
    "local_government_id": "434",
    "local_government_name": "KATSINA",
    "state_id": "20",
    "state_name": "KATSINA",
    "location": null
  },
  {
    "id": "99478",
    "name": "SABUWAR UNGUWA S/UNG PRI.SCHOOL",
    "registration_area_id": "5053",
    "precise_location": null,
    "abbreviation": "007",
    "units": "007",
    "delimitation": "20/21/12/007",
    "remark": "EXISTING PU",
    "ward_id": "5053",
    "ward_name": "WAKILI KUDU III",
    "local_government_id": "434",
    "local_government_name": "KATSINA",
    "state_id": "20",
    "state_name": "KATSINA",
    "location": {
      "latitude": 12.9815608,
      "longitude": 7.622266499999999,
      "viewport": {
        "northeast": {
          "lat": 12.98290287989272,
          "lng": 7.62356807989272
        },
        "southwest": {
          "lat": 12.98020322010728,
          "lng": 7.620868420107276
        }
      },
      "formatted_address": "Amado kurfi road, 820101, Katsina, Nigeria",
      "google_map_url": "https://maps.google.com?q=12.9815608,7.622266499999999",
      "google_place_id": "ChIJOyJFpy4jsBER0M-Fu_Pt2Lo"
    }
  },
  {
    "id": "99479",
    "name": "SABUWAR UNGUWA K/GIDAN A. ABDUL-RAHMAN",
    "registration_area_id": "5053",
    "precise_location": null,
    "abbreviation": "008",
    "units": "008",
    "delimitation": "20/21/12/008",
    "remark": "EXISTING PU",
    "ward_id": "5053",
    "ward_name": "WAKILI KUDU III",
    "local_government_id": "434",
    "local_government_name": "KATSINA",
    "state_id": "20",
    "state_name": "KATSINA",
    "location": null
  },
  {
    "id": "99480",
    "name": "SABUWAR UNGUWA KWAUREN DOROWA",
    "registration_area_id": "5053",
    "precise_location": null,
    "abbreviation": "009",
    "units": "009",
    "delimitation": "20/21/12/009",
    "remark": "EXISTING PU",
    "ward_id": "5053",
    "ward_name": "WAKILI KUDU III",
    "local_government_id": "434",
    "local_government_name": "KATSINA",
    "state_id": "20",
    "state_name": "KATSINA",
    "location": {
      "latitude": 13.0268348,
      "longitude": 7.5923463,
      "viewport": {
        "northeast": {
          "lat": 13.02877007989272,
          "lng": 7.593142279892722
        },
        "southwest": {
          "lat": 13.02607042010728,
          "lng": 7.590442620107277
        }
      },
      "formatted_address": "2HGR+PWQ, 820101, Katsina, Nigeria",
      "google_map_url": "https://maps.google.com?q=13.0268348,7.5923463",
      "google_place_id": "ChIJHbz64EM9sBER3pw9n8Djnco"
    }
  },
  {
    "id": "99481",
    "name": "KOFAR KAURA K/GIDAN ABDUL-MALIK",
    "registration_area_id": "5053",
    "precise_location": null,
    "abbreviation": "010",
    "units": "010",
    "delimitation": "20/21/12/010",
    "remark": "EXISTING PU",
    "ward_id": "5053",
    "ward_name": "WAKILI KUDU III",
    "local_government_id": "434",
    "local_government_name": "KATSINA",
    "state_id": "20",
    "state_name": "KATSINA",
    "location": null
  },
  {
    "id": "99482",
    "name": "KOFAR KAURA K/GIDAN KOFAR SAMA",
    "registration_area_id": "5053",
    "precise_location": null,
    "abbreviation": "011",
    "units": "011",
    "delimitation": "20/21/12/011",
    "remark": "EXISTING PU",
    "ward_id": "5053",
    "ward_name": "WAKILI KUDU III",
    "local_government_id": "434",
    "local_government_name": "KATSINA",
    "state_id": "20",
    "state_name": "KATSINA",
    "location": {
      "latitude": 12.9632321,
      "longitude": 7.605682499999999,
      "viewport": {
        "northeast": {
          "lat": 12.96458097989272,
          "lng": 7.607006029892721
        },
        "southwest": {
          "lat": 12.96188132010728,
          "lng": 7.604306370107278
        }
      },
      "formatted_address": "Tudun Matawalle, 820101, Katsina, Nigeria",
      "google_map_url": "https://maps.google.com?q=12.9632321,7.605682499999999",
      "google_place_id": "ChIJj3Z18Eo7sBERP1OXRZX390A"
    }
  },
  {
    "id": "99483",
    "name": "TAYOYI K/GIDAN A.SAMA ROBA",
    "registration_area_id": "5053",
    "precise_location": null,
    "abbreviation": "012",
    "units": "012",
    "delimitation": "20/21/12/012",
    "remark": "EXISTING PU",
    "ward_id": "5053",
    "ward_name": "WAKILI KUDU III",
    "local_government_id": "434",
    "local_government_name": "KATSINA",
    "state_id": "20",
    "state_name": "KATSINA",
    "location": {
      "latitude": 13.003545,
      "longitude": 7.582923999999999,
      "viewport": {
        "northeast": {
          "lat": 13.00489717989272,
          "lng": 7.584209279892724
        },
        "southwest": {
          "lat": 13.00219752010728,
          "lng": 7.58150962010728
        }
      },
      "formatted_address": "2H3M+C57, Along Gidan Kwakwa Road, Dutsen-Safe Low Coast, Katsina, Nigeria",
      "google_map_url": "https://maps.google.com?q=13.003545,7.582923999999999",
      "google_place_id": "ChIJu3FuiDg9sBERQvWZkXn8PBU"
    }
  },
  {
    "id": "99484",
    "name": "SABUWAR MAHAUTA OPEN SPACE",
    "registration_area_id": "5053",
    "precise_location": null,
    "abbreviation": "013",
    "units": "013",
    "delimitation": "20/21/12/013",
    "remark": "EXISTING PU",
    "ward_id": "5053",
    "ward_name": "WAKILI KUDU III",
    "local_government_id": "434",
    "local_government_name": "KATSINA",
    "state_id": "20",
    "state_name": "KATSINA",
    "location": {
      "latitude": 12.9854295,
      "longitude": 7.605797,
      "viewport": {
        "northeast": {
          "lat": 12.98677162989272,
          "lng": 7.607183529892721
        },
        "southwest": {
          "lat": 12.98407197010728,
          "lng": 7.604483870107277
        }
      },
      "formatted_address": "XJP4+58F, Sabuwar Kasuwa Road, 820101, Katsina, Nigeria",
      "google_map_url": "https://maps.google.com?q=12.9854295,7.605797",
      "google_place_id": "ChIJHUiaLFY9sBERqJBmNBOtUkE"
    }
  },
  {
    "id": "99485",
    "name": "KOFAR / KAURA - K/GIDAN ALH. DANJA",
    "registration_area_id": "5053",
    "precise_location": null,
    "abbreviation": "014",
    "units": "014",
    "delimitation": "20/21/12/014",
    "remark": "EXISTING PU",
    "ward_id": "5053",
    "ward_name": "WAKILI KUDU III",
    "local_government_id": "434",
    "local_government_name": "KATSINA",
    "state_id": "20",
    "state_name": "KATSINA",
    "location": {
      "latitude": 12.9632321,
      "longitude": 7.605682499999999,
      "viewport": {
        "northeast": {
          "lat": 12.96458097989272,
          "lng": 7.607006029892721
        },
        "southwest": {
          "lat": 12.96188132010728,
          "lng": 7.604306370107278
        }
      },
      "formatted_address": "Tudun Matawalle, 820101, Katsina, Nigeria",
      "google_map_url": "https://maps.google.com?q=12.9632321,7.605682499999999",
      "google_place_id": "ChIJj3Z18Eo7sBERP1OXRZX390A"
    }
  },
  {
    "id": "99486",
    "name": "BAYAN ATC - K/G ASP. ABDULRAHMAN I",
    "registration_area_id": "5053",
    "precise_location": null,
    "abbreviation": "015",
    "units": "015",
    "delimitation": "20/21/12/015",
    "remark": "EXISTING PU",
    "ward_id": "5053",
    "ward_name": "WAKILI KUDU III",
    "local_government_id": "434",
    "local_government_name": "KATSINA",
    "state_id": "20",
    "state_name": "KATSINA",
    "location": null
  },
  {
    "id": "99487",
    "name": "BAYAN ATC - K/G ASP. ABDULRAHMAN II",
    "registration_area_id": "5053",
    "precise_location": null,
    "abbreviation": "016",
    "units": "016",
    "delimitation": "20/21/12/016",
    "remark": "EXISTING PU",
    "ward_id": "5053",
    "ward_name": "WAKILI KUDU III",
    "local_government_id": "434",
    "local_government_name": "KATSINA",
    "state_id": "20",
    "state_name": "KATSINA",
    "location": null
  },
  {
    "id": "99488",
    "name": "NAKOWA BREAD  /  NA-KOWA BREAD  GINDIN DOROWA I",
    "registration_area_id": "5053",
    "precise_location": null,
    "abbreviation": "017",
    "units": "017",
    "delimitation": "20/21/12/017",
    "remark": "EXISTING PU",
    "ward_id": "5053",
    "ward_name": "WAKILI KUDU III",
    "local_government_id": "434",
    "local_government_name": "KATSINA",
    "state_id": "20",
    "state_name": "KATSINA",
    "location": {
      "latitude": 12.9706998,
      "longitude": 7.6190802,
      "viewport": {
        "northeast": {
          "lat": 12.97202432989272,
          "lng": 7.620410779892723
        },
        "southwest": {
          "lat": 12.96932467010728,
          "lng": 7.61771112010728
        }
      },
      "formatted_address": "89 IBB Way, 820101, Katsina, Nigeria",
      "google_map_url": "https://maps.google.com?q=12.9706998,7.6190802",
      "google_place_id": "ChIJ3QblLlYjsBERHbmjqzPDwDc"
    }
  },
  {
    "id": "99489",
    "name": "NAKOWA BREAD   / NA-KOWA BREAD GINDIN DOROWA II",
    "registration_area_id": "5053",
    "precise_location": null,
    "abbreviation": "018",
    "units": "018",
    "delimitation": "20/21/12/018",
    "remark": "EXISTING PU",
    "ward_id": "5053",
    "ward_name": "WAKILI KUDU III",
    "local_government_id": "434",
    "local_government_name": "KATSINA",
    "state_id": "20",
    "state_name": "KATSINA",
    "location": {
      "latitude": 12.9706998,
      "longitude": 7.6190802,
      "viewport": {
        "northeast": {
          "lat": 12.97202432989272,
          "lng": 7.620410779892723
        },
        "southwest": {
          "lat": 12.96932467010728,
          "lng": 7.61771112010728
        }
      },
      "formatted_address": "89 IBB Way, 820101, Katsina, Nigeria",
      "google_map_url": "https://maps.google.com?q=12.9706998,7.6190802",
      "google_place_id": "ChIJ3QblLlYjsBERHbmjqzPDwDc"
    }
  },
  {
    "id": "99490",
    "name": "SHARARRAR PIPE   / DAN BEDI I",
    "registration_area_id": "5053",
    "precise_location": null,
    "abbreviation": "019",
    "units": "019",
    "delimitation": "20/21/12/019",
    "remark": "EXISTING PU",
    "ward_id": "5053",
    "ward_name": "WAKILI KUDU III",
    "local_government_id": "434",
    "local_government_name": "KATSINA",
    "state_id": "20",
    "state_name": "KATSINA",
    "location": null
  },
  {
    "id": "99491",
    "name": "SHARARRAR PIPE   /  DAN BEDI II",
    "registration_area_id": "5053",
    "precise_location": null,
    "abbreviation": "020",
    "units": "020",
    "delimitation": "20/21/12/020",
    "remark": "EXISTING PU",
    "ward_id": "5053",
    "ward_name": "WAKILI KUDU III",
    "local_government_id": "434",
    "local_government_name": "KATSINA",
    "state_id": "20",
    "state_name": "KATSINA",
    "location": null
  },
  {
    "id": "99492",
    "name": "GIDAN DAWA - GIDAN DAWA",
    "registration_area_id": "5053",
    "precise_location": null,
    "abbreviation": "021",
    "units": "021",
    "delimitation": "20/21/12/021",
    "remark": "EXISTING PU",
    "ward_id": "5053",
    "ward_name": "WAKILI KUDU III",
    "local_government_id": "434",
    "local_government_name": "KATSINA",
    "state_id": "20",
    "state_name": "KATSINA",
    "location": {
      "latitude": 12.9658304,
      "longitude": 7.635903399999998,
      "viewport": {
        "northeast": {
          "lat": 12.96726142989272,
          "lng": 7.637231479892722
        },
        "southwest": {
          "lat": 12.96456177010728,
          "lng": 7.634531820107278
        }
      },
      "formatted_address": "XJ8P+89J gidan dawa, 820101, Katsina, Nigeria",
      "google_map_url": "https://maps.google.com?q=12.9658304,7.635903399999998",
      "google_place_id": "ChIJDUOd-zUlsBERPPKQtSca3Y8"
    }
  },
  {
    "id": "99493",
    "name": "A.T.C - A.T.C",
    "registration_area_id": "5053",
    "precise_location": null,
    "abbreviation": "022",
    "units": "022",
    "delimitation": "20/21/12/022",
    "remark": "EXISTING PU",
    "ward_id": "5053",
    "ward_name": "WAKILI KUDU III",
    "local_government_id": "434",
    "local_government_name": "KATSINA",
    "state_id": "20",
    "state_name": "KATSINA",
    "location": {
      "latitude": 12.9854295,
      "longitude": 7.605797,
      "viewport": {
        "northeast": {
          "lat": 12.98677162989272,
          "lng": 7.607183529892721
        },
        "southwest": {
          "lat": 12.98407197010728,
          "lng": 7.604483870107277
        }
      },
      "formatted_address": "XJP4+58F, Sabuwar Kasuwa Road, 820101, Katsina, Nigeria",
      "google_map_url": "https://maps.google.com?q=12.9854295,7.605797",
      "google_place_id": "ChIJHUiaLFY9sBERqJBmNBOtUkE"
    }
  },
  {
    "id": "99494",
    "name": "SABUWAR UNGUWA - MAIKUDI HOTELS I",
    "registration_area_id": "5053",
    "precise_location": null,
    "abbreviation": "023",
    "units": "023",
    "delimitation": "20/21/12/023",
    "remark": "EXISTING PU",
    "ward_id": "5053",
    "ward_name": "WAKILI KUDU III",
    "local_government_id": "434",
    "local_government_name": "KATSINA",
    "state_id": "20",
    "state_name": "KATSINA",
    "location": {
      "latitude": 12.9960297,
      "longitude": 7.618549900000001,
      "viewport": {
        "northeast": {
          "lat": 12.99741092989272,
          "lng": 7.619899379892723
        },
        "southwest": {
          "lat": 12.99471127010728,
          "lng": 7.617199720107279
        }
      },
      "formatted_address": "Nagogo Road, 820101, Katsina, Nigeria",
      "google_map_url": "https://maps.google.com?q=12.9960297,7.618549900000001",
      "google_place_id": "ChIJ23kJ9jYjsBER8xVPQxP3Zk4"
    }
  },
  {
    "id": "99495",
    "name": "SABUWAR UNGUWA - MAIKUDI HOTELS II",
    "registration_area_id": "5053",
    "precise_location": null,
    "abbreviation": "024",
    "units": "024",
    "delimitation": "20/21/12/024",
    "remark": "EXISTING PU",
    "ward_id": "5053",
    "ward_name": "WAKILI KUDU III",
    "local_government_id": "434",
    "local_government_name": "KATSINA",
    "state_id": "20",
    "state_name": "KATSINA",
    "location": {
      "latitude": 12.9960297,
      "longitude": 7.618549900000001,
      "viewport": {
        "northeast": {
          "lat": 12.99741092989272,
          "lng": 7.619899379892723
        },
        "southwest": {
          "lat": 12.99471127010728,
          "lng": 7.617199720107279
        }
      },
      "formatted_address": "Nagogo Road, 820101, Katsina, Nigeria",
      "google_map_url": "https://maps.google.com?q=12.9960297,7.618549900000001",
      "google_place_id": "ChIJ23kJ9jYjsBER8xVPQxP3Zk4"
    }
  },
  {
    "id": "99496",
    "name": "KSRC ESTATE - KSRC HOUSING ESTATE",
    "registration_area_id": "5053",
    "precise_location": null,
    "abbreviation": "025",
    "units": "025",
    "delimitation": "20/21/12/025",
    "remark": "EXISTING PU",
    "ward_id": "5053",
    "ward_name": "WAKILI KUDU III",
    "local_government_id": "434",
    "local_government_name": "KATSINA",
    "state_id": "20",
    "state_name": "KATSINA",
    "location": {
      "latitude": 12.9854295,
      "longitude": 7.605797,
      "viewport": {
        "northeast": {
          "lat": 12.98677162989272,
          "lng": 7.607183529892721
        },
        "southwest": {
          "lat": 12.98407197010728,
          "lng": 7.604483870107277
        }
      },
      "formatted_address": "XJP4+58F, Sabuwar Kasuwa Road, 820101, Katsina, Nigeria",
      "google_map_url": "https://maps.google.com?q=12.9854295,7.605797",
      "google_place_id": "ChIJHUiaLFY9sBERqJBmNBOtUkE"
    }
  },
  {
    "id": "99497",
    "name": "SABON GARI WTC - S/GARI POLICE STATION",
    "registration_area_id": "5053",
    "precise_location": null,
    "abbreviation": "026",
    "units": "026",
    "delimitation": "20/21/12/026",
    "remark": "EXISTING PU",
    "ward_id": "5053",
    "ward_name": "WAKILI KUDU III",
    "local_government_id": "434",
    "local_government_name": "KATSINA",
    "state_id": "20",
    "state_name": "KATSINA",
    "location": {
      "latitude": 12.9746132,
      "longitude": 7.6262974,
      "viewport": {
        "northeast": {
          "lat": 12.97599402989272,
          "lng": 7.627769329892722
        },
        "southwest": {
          "lat": 12.97329437010728,
          "lng": 7.625069670107278
        }
      },
      "formatted_address": "XJFG+RFQ, 820101, Katsina, Nigeria",
      "google_map_url": "https://maps.google.com?q=12.9746132,7.6262974",
      "google_place_id": "ChIJsXc8alkjsBERhb-9vV8SPmI"
    }
  },
  {
    "id": "99498",
    "name": "SHARARRAR PIPE K/G ALH. YAHAYA",
    "registration_area_id": "5053",
    "precise_location": null,
    "abbreviation": "027",
    "units": "027",
    "delimitation": "20/21/12/027",
    "remark": "EXISTING PU",
    "ward_id": "5053",
    "ward_name": "WAKILI KUDU III",
    "local_government_id": "434",
    "local_government_name": "KATSINA",
    "state_id": "20",
    "state_name": "KATSINA",
    "location": null
  },
  {
    "id": "99499",
    "name": "INWALA - K/GIDAN GOGALO",
    "registration_area_id": "5053",
    "precise_location": null,
    "abbreviation": "028",
    "units": "028",
    "delimitation": "20/21/12/028",
    "remark": "EXISTING PU",
    "ward_id": "5053",
    "ward_name": "WAKILI KUDU III",
    "local_government_id": "434",
    "local_government_name": "KATSINA",
    "state_id": "20",
    "state_name": "KATSINA",
    "location": null
  },
  {
    "id": "99500",
    "name": "INWALA K/G ABU DARMA OPEN SPACE",
    "registration_area_id": "5053",
    "precise_location": null,
    "abbreviation": "029",
    "units": "029",
    "delimitation": "20/21/12/029",
    "remark": "NEW PU",
    "ward_id": "5053",
    "ward_name": "WAKILI KUDU III",
    "local_government_id": "434",
    "local_government_name": "KATSINA",
    "state_id": "20",
    "state_name": "KATSINA",
    "location": null
  },
  {
    "id": "99501",
    "name": "SABUWAR UNGUWA SHAGO BIYAR OPEN SPACE",
    "registration_area_id": "5053",
    "precise_location": null,
    "abbreviation": "030",
    "units": "030",
    "delimitation": "20/21/12/030",
    "remark": "NEW PU",
    "ward_id": "5053",
    "ward_name": "WAKILI KUDU III",
    "local_government_id": "434",
    "local_government_name": "KATSINA",
    "state_id": "20",
    "state_name": "KATSINA",
    "location": {
      "latitude": 12.9676632,
      "longitude": 7.6087108,
      "viewport": {
        "northeast": {
          "lat": 12.96902697989272,
          "lng": 7.610139429892723
        },
        "southwest": {
          "lat": 12.96632732010728,
          "lng": 7.607439770107279
        }
      },
      "formatted_address": "Sabuwar unguwa, 820211, Katsina, Nigeria",
      "google_map_url": "https://maps.google.com?q=12.9676632,7.6087108",
      "google_place_id": "ChIJETICk0k7sBERyYn8gJwBQJ4"
    }
  },
  {
    "id": "99502",
    "name": "SABUWAR UNGUWA DISPENSARY",
    "registration_area_id": "5053",
    "precise_location": null,
    "abbreviation": "031",
    "units": "031",
    "delimitation": "20/21/12/031",
    "remark": "NEW PU",
    "ward_id": "5053",
    "ward_name": "WAKILI KUDU III",
    "local_government_id": "434",
    "local_government_name": "KATSINA",
    "state_id": "20",
    "state_name": "KATSINA",
    "location": {
      "latitude": 12.9689741,
      "longitude": 7.6079407,
      "viewport": {
        "northeast": {
          "lat": 12.97034612989272,
          "lng": 7.609434779892723
        },
        "southwest": {
          "lat": 12.96764647010728,
          "lng": 7.606735120107279
        }
      },
      "formatted_address": "Sabuwar unguwa, Katsina, Nigeria",
      "google_map_url": "https://maps.google.com?q=12.9689741,7.6079407",
      "google_place_id": "ChIJ-f4wYZE7sBERtu3LiXYszNE"
    }
  },
  {
    "id": "99503",
    "name": "SABUWAR UNGUWA FILIN KANADA PRI. SCH.",
    "registration_area_id": "5053",
    "precise_location": null,
    "abbreviation": "032",
    "units": "032",
    "delimitation": "20/21/12/032",
    "remark": "NEW PU",
    "ward_id": "5053",
    "ward_name": "WAKILI KUDU III",
    "local_government_id": "434",
    "local_government_name": "KATSINA",
    "state_id": "20",
    "state_name": "KATSINA",
    "location": {
      "latitude": 12.9810977,
      "longitude": 7.5953271,
      "viewport": {
        "northeast": {
          "lat": 12.98223692989272,
          "lng": 7.596731679892722
        },
        "southwest": {
          "lat": 12.97953727010728,
          "lng": 7.594032020107278
        }
      },
      "formatted_address": "Rafin Dadi Primary School, 820101, Katsina, Nigeria",
      "google_map_url": "https://maps.google.com?q=12.9810977,7.5953271",
      "google_place_id": "ChIJl39X42U9sBERwLVUZwMo4lk"
    }
  },
  {
    "id": "99504",
    "name": "KWAUREN DOROWA II",
    "registration_area_id": "5053",
    "precise_location": null,
    "abbreviation": "033",
    "units": "033",
    "delimitation": "20/21/12/033",
    "remark": "NEW PU",
    "ward_id": "5053",
    "ward_name": "WAKILI KUDU III",
    "local_government_id": "434",
    "local_government_name": "KATSINA",
    "state_id": "20",
    "state_name": "KATSINA",
    "location": {
      "latitude": 12.963192,
      "longitude": 7.6046803,
      "viewport": {
        "northeast": {
          "lat": 12.96462157989272,
          "lng": 7.60602532989272
        },
        "southwest": {
          "lat": 12.96192192010728,
          "lng": 7.603325670107276
        }
      },
      "formatted_address": "Wali jodoma street Kwabren dorowa , yan kifi katsina Katsina local goverment, Katsina, Nigeria",
      "google_map_url": "https://maps.google.com?q=12.963192,7.6046803",
      "google_place_id": "ChIJT4e3A3I7sBERLlpJjrDUr3o"
    }
  },
  {
    "id": "99505",
    "name": "GDSS KOFAR KAURA SABUWAR UNGUWAR",
    "registration_area_id": "5053",
    "precise_location": null,
    "abbreviation": "034",
    "units": "034",
    "delimitation": "20/21/12/034",
    "remark": "NEW PU",
    "ward_id": "5053",
    "ward_name": "WAKILI KUDU III",
    "local_government_id": "434",
    "local_government_name": "KATSINA",
    "state_id": "20",
    "state_name": "KATSINA",
    "location": {
      "latitude": 12.9632321,
      "longitude": 7.605682499999999,
      "viewport": {
        "northeast": {
          "lat": 12.96458097989272,
          "lng": 7.607006029892721
        },
        "southwest": {
          "lat": 12.96188132010728,
          "lng": 7.604306370107278
        }
      },
      "formatted_address": "Tudun Matawalle, 820101, Katsina, Nigeria",
      "google_map_url": "https://maps.google.com?q=12.9632321,7.605682499999999",
      "google_place_id": "ChIJj3Z18Eo7sBERP1OXRZX390A"
    }
  },
  {
    "id": "99506",
    "name": "SABUWAR UNGUWA KANTIN JARI OPEN SPACE",
    "registration_area_id": "5053",
    "precise_location": null,
    "abbreviation": "035",
    "units": "035",
    "delimitation": "20/21/12/035",
    "remark": "NEW PU",
    "ward_id": "5053",
    "ward_name": "WAKILI KUDU III",
    "local_government_id": "434",
    "local_government_name": "KATSINA",
    "state_id": "20",
    "state_name": "KATSINA",
    "location": {
      "latitude": 12.9698659,
      "longitude": 7.607837000000001,
      "viewport": {
        "northeast": {
          "lat": 12.97127927989272,
          "lng": 7.60917147989272
        },
        "southwest": {
          "lat": 12.96857962010728,
          "lng": 7.606471820107276
        }
      },
      "formatted_address": "XJ95+X44, Unnamed Road, 820101, Katsina, Nigeria",
      "google_map_url": "https://maps.google.com?q=12.9698659,7.607837000000001",
      "google_place_id": "ChIJhwzoN5s7sBER-MwgwoQ1mMk"
    }
  },
  {
    "id": "99507",
    "name": "TAYOYI K/G AMADU BABARBARE OPEN SPACE",
    "registration_area_id": "5053",
    "precise_location": null,
    "abbreviation": "036",
    "units": "036",
    "delimitation": "20/21/12/036",
    "remark": "NEW PU",
    "ward_id": "5053",
    "ward_name": "WAKILI KUDU III",
    "local_government_id": "434",
    "local_government_name": "KATSINA",
    "state_id": "20",
    "state_name": "KATSINA",
    "location": null
  },
  {
    "id": "99508",
    "name": "ROUNDABOUT NA MASALLACIN MANGAL",
    "registration_area_id": "5053",
    "precise_location": null,
    "abbreviation": "037",
    "units": "037",
    "delimitation": "20/21/12/037",
    "remark": "NEW PU",
    "ward_id": "5053",
    "ward_name": "WAKILI KUDU III",
    "local_government_id": "434",
    "local_government_name": "KATSINA",
    "state_id": "20",
    "state_name": "KATSINA",
    "location": {
      "latitude": 12.9738707,
      "longitude": 7.604725699999999,
      "viewport": {
        "northeast": {
          "lat": 12.97524552989272,
          "lng": 7.60616742989272
        },
        "southwest": {
          "lat": 12.97254587010728,
          "lng": 7.603467770107276
        }
      },
      "formatted_address": "Kudu 3, 820101 sabuwar unguwar kofar, kaura, Katsina, Nigeria",
      "google_map_url": "https://maps.google.com?q=12.9738707,7.604725699999999",
      "google_place_id": "ChIJxW3WK249sBERZyga1pWulqE"
    }
  },
  {
    "id": "99509",
    "name": "SEN. IBRAHIM IDA PRI. SCH. ABBATIOR",
    "registration_area_id": "5053",
    "precise_location": null,
    "abbreviation": "038",
    "units": "038",
    "delimitation": "20/21/12/038",
    "remark": "NEW PU",
    "ward_id": "5053",
    "ward_name": "WAKILI KUDU III",
    "local_government_id": "434",
    "local_government_name": "KATSINA",
    "state_id": "20",
    "state_name": "KATSINA",
    "location": {
      "latitude": 12.9720503,
      "longitude": 7.5949826,
      "viewport": {
        "northeast": {
          "lat": 12.97334407989272,
          "lng": 7.596137529892721
        },
        "southwest": {
          "lat": 12.97064442010728,
          "lng": 7.593437870107278
        }
      },
      "formatted_address": "XHCV+RXH, Unnamed Road, 820101, Katsina, Nigeria",
      "google_map_url": "https://maps.google.com?q=12.9720503,7.5949826",
      "google_place_id": "ChIJa_VitKA8sBER52ZZkcSsS2w"
    }
  },
  {
    "id": "99510",
    "name": "GIDAN RUWAN KUSA DA GIDAN AUWALU BUBA",
    "registration_area_id": "5053",
    "precise_location": null,
    "abbreviation": "039",
    "units": "039",
    "delimitation": "20/21/12/039",
    "remark": "NEW PU",
    "ward_id": "5053",
    "ward_name": "WAKILI KUDU III",
    "local_government_id": "434",
    "local_government_name": "KATSINA",
    "state_id": "20",
    "state_name": "KATSINA",
    "location": null
  },
  {
    "id": "99511",
    "name": "GIDAN RUWAN SHAGARI LOWCOST",
    "registration_area_id": "5053",
    "precise_location": null,
    "abbreviation": "040",
    "units": "040",
    "delimitation": "20/21/12/040",
    "remark": "NEW PU",
    "ward_id": "5053",
    "ward_name": "WAKILI KUDU III",
    "local_government_id": "434",
    "local_government_name": "KATSINA",
    "state_id": "20",
    "state_name": "KATSINA",
    "location": {
      "latitude": 12.966417,
      "longitude": 7.581140599999999,
      "viewport": {
        "northeast": {
          "lat": 12.96779462989272,
          "lng": 7.582498429892723
        },
        "southwest": {
          "lat": 12.96509497010728,
          "lng": 7.57979877010728
        }
      },
      "formatted_address": "XH8J+JC4, 820101, Katsina, Nigeria",
      "google_map_url": "https://maps.google.com?q=12.966417,7.581140599999999",
      "google_place_id": "ChIJAyyucWM7sBERTVj33s6bEUE"
    }
  },
  {
    "id": "99512",
    "name": "GINDIN TANKI K/G MAL. YAHAYA MAI RAKE SOKOTO RIMA",
    "registration_area_id": "5053",
    "precise_location": null,
    "abbreviation": "041",
    "units": "041",
    "delimitation": "20/21/12/041",
    "remark": "NEW PU",
    "ward_id": "5053",
    "ward_name": "WAKILI KUDU III",
    "local_government_id": "434",
    "local_government_name": "KATSINA",
    "state_id": "20",
    "state_name": "KATSINA",
    "location": null
  },
  {
    "id": "99513",
    "name": "ROUNDABOUT RAHAMAWA",
    "registration_area_id": "5053",
    "precise_location": null,
    "abbreviation": "042",
    "units": "042",
    "delimitation": "20/21/12/042",
    "remark": "NEW PU",
    "ward_id": "5053",
    "ward_name": "WAKILI KUDU III",
    "local_government_id": "434",
    "local_government_name": "KATSINA",
    "state_id": "20",
    "state_name": "KATSINA",
    "location": {
      "latitude": 12.9854295,
      "longitude": 7.605797,
      "viewport": {
        "northeast": {
          "lat": 12.98677162989272,
          "lng": 7.607183529892721
        },
        "southwest": {
          "lat": 12.98407197010728,
          "lng": 7.604483870107277
        }
      },
      "formatted_address": "XJP4+58F, Sabuwar Kasuwa Road, 820101, Katsina, Nigeria",
      "google_map_url": "https://maps.google.com?q=12.9854295,7.605797",
      "google_place_id": "ChIJHUiaLFY9sBERqJBmNBOtUkE"
    }
  },
  {
    "id": "99514",
    "name": "SABUWAR UNGUWA BENEN TSAURI",
    "registration_area_id": "5053",
    "precise_location": null,
    "abbreviation": "043",
    "units": "043",
    "delimitation": "20/21/12/043",
    "remark": "NEW PU",
    "ward_id": "5053",
    "ward_name": "WAKILI KUDU III",
    "local_government_id": "434",
    "local_government_name": "KATSINA",
    "state_id": "20",
    "state_name": "KATSINA",
    "location": {
      "latitude": 12.9771627,
      "longitude": 7.638197799999999,
      "viewport": {
        "northeast": {
          "lat": 12.97805492989272,
          "lng": 7.63987762989272
        },
        "southwest": {
          "lat": 12.97535527010728,
          "lng": 7.637177970107277
        }
      },
      "formatted_address": "XJGQ+V78, 820101, Katsina, Nigeria",
      "google_map_url": "https://maps.google.com?q=12.9771627,7.638197799999999",
      "google_place_id": "ChIJEcs1mGYjsBERLlylGjIVr-M"
    }
  },
  {
    "id": "99515",
    "name": "JANBANGO PRI. SCH. JANBANGO",
    "registration_area_id": "5053",
    "precise_location": null,
    "abbreviation": "044",
    "units": "044",
    "delimitation": "20/21/12/044",
    "remark": "NEW PU",
    "ward_id": "5053",
    "ward_name": "WAKILI KUDU III",
    "local_government_id": "434",
    "local_government_name": "KATSINA",
    "state_id": "20",
    "state_name": "KATSINA",
    "location": {
      "latitude": 12.9815608,
      "longitude": 7.622266499999999,
      "viewport": {
        "northeast": {
          "lat": 12.98290287989272,
          "lng": 7.62356807989272
        },
        "southwest": {
          "lat": 12.98020322010728,
          "lng": 7.620868420107276
        }
      },
      "formatted_address": "XJJC+JWC, 820101, Katsina, Nigeria",
      "google_map_url": "https://maps.google.com?q=12.9815608,7.622266499999999",
      "google_place_id": "ChIJyyfYRtMjsBER5uM2_vL0rSI"
    }
  },
  {
    "id": "99516",
    "name": "K/G ABS NEAR ABDULLAHI BIN MAS'UD JUMA'A MOSQUE",
    "registration_area_id": "5053",
    "precise_location": null,
    "abbreviation": "045",
    "units": "045",
    "delimitation": "20/21/12/045",
    "remark": "NEW PU",
    "ward_id": "5053",
    "ward_name": "WAKILI KUDU III",
    "local_government_id": "434",
    "local_government_name": "KATSINA",
    "state_id": "20",
    "state_name": "KATSINA",
    "location": {
      "latitude": 12.981565,
      "longitude": 7.5822038,
      "viewport": {
        "northeast": {
          "lat": 12.98293692989272,
          "lng": 7.58354387989272
        },
        "southwest": {
          "lat": 12.98023727010728,
          "lng": 7.580844220107276
        }
      },
      "formatted_address": "Filin polo road, 820101, Katsina, Nigeria",
      "google_map_url": "https://maps.google.com?q=12.981565,7.5822038",
      "google_place_id": "ChIJp58Eev49sBERT7Ggp3sna9E"
    }
  },
  {
    "id": "99517",
    "name": "K/GIDAN RABIU POLICE BEHIND SOKOTO RIMA",
    "registration_area_id": "5053",
    "precise_location": null,
    "abbreviation": "046",
    "units": "046",
    "delimitation": "20/21/12/046",
    "remark": "NEW PU",
    "ward_id": "5053",
    "ward_name": "WAKILI KUDU III",
    "local_government_id": "434",
    "local_government_name": "KATSINA",
    "state_id": "20",
    "state_name": "KATSINA",
    "location": null
  },
  {
    "id": "99518",
    "name": "DAN MASANI BALA SAULAWA PRI. SCH. GIDAN DAWA",
    "registration_area_id": "5053",
    "precise_location": null,
    "abbreviation": "047",
    "units": "047",
    "delimitation": "20/21/12/047",
    "remark": "NEW PU",
    "ward_id": "5053",
    "ward_name": "WAKILI KUDU III",
    "local_government_id": "434",
    "local_government_name": "KATSINA",
    "state_id": "20",
    "state_name": "KATSINA",
    "location": {
      "latitude": 12.9704499,
      "longitude": 7.637884199999999,
      "viewport": {
        "northeast": {
          "lat": 12.97177747989272,
          "lng": 7.639269279892722
        },
        "southwest": {
          "lat": 12.96907782010728,
          "lng": 7.636569620107278
        }
      },
      "formatted_address": "XJCQ+55J, Murtala Muhammad Road, 820101, Katsina, Nigeria",
      "google_map_url": "https://maps.google.com?q=12.9704499,7.637884199999999",
      "google_place_id": "ChIJ1_4z2wEjsBER7_iayUp5B40"
    }
  },
  {
    "id": "99519",
    "name": "DAN MASANI BALA SAULAWA PRI. SCH. GIDAN DAWA",
    "registration_area_id": "5053",
    "precise_location": null,
    "abbreviation": "048",
    "units": "048",
    "delimitation": "20/21/12/048",
    "remark": "NEW PU",
    "ward_id": "5053",
    "ward_name": "WAKILI KUDU III",
    "local_government_id": "434",
    "local_government_name": "KATSINA",
    "state_id": "20",
    "state_name": "KATSINA",
    "location": {
      "latitude": 12.9704499,
      "longitude": 7.637884199999999,
      "viewport": {
        "northeast": {
          "lat": 12.97177747989272,
          "lng": 7.639269279892722
        },
        "southwest": {
          "lat": 12.96907782010728,
          "lng": 7.636569620107278
        }
      },
      "formatted_address": "XJCQ+55J, Murtala Muhammad Road, 820101, Katsina, Nigeria",
      "google_map_url": "https://maps.google.com?q=12.9704499,7.637884199999999",
      "google_place_id": "ChIJ1_4z2wEjsBER7_iayUp5B40"
    }
  },
  {
    "id": "99520",
    "name": "RUMFAR DILLALAI TUDUN MATAWALLE, S/UNG",
    "registration_area_id": "5053",
    "precise_location": null,
    "abbreviation": "049",
    "units": "049",
    "delimitation": "20/21/12/049",
    "remark": "NEW PU",
    "ward_id": "5053",
    "ward_name": "WAKILI KUDU III",
    "local_government_id": "434",
    "local_government_name": "KATSINA",
    "state_id": "20",
    "state_name": "KATSINA",
    "location": {
      "latitude": 12.9691255,
      "longitude": 7.600593999999999,
      "viewport": {
        "northeast": {
          "lat": 12.97048032989272,
          "lng": 7.601964679892721
        },
        "southwest": {
          "lat": 12.96778067010728,
          "lng": 7.599265020107278
        }
      },
      "formatted_address": "XJ92+M72, Hope Intanational School, Katsina, Nigeria",
      "google_map_url": "https://maps.google.com?q=12.9691255,7.600593999999999",
      "google_place_id": "ChIJP1mKilc7sBERYmZjsSLGFm4"
    }
  },
  {
    "id": "99521",
    "name": "INWALA K/G ALI ALAAM",
    "registration_area_id": "5053",
    "precise_location": null,
    "abbreviation": "050",
    "units": "050",
    "delimitation": "20/21/12/050",
    "remark": "NEW PU",
    "ward_id": "5053",
    "ward_name": "WAKILI KUDU III",
    "local_government_id": "434",
    "local_government_name": "KATSINA",
    "state_id": "20",
    "state_name": "KATSINA",
    "location": null
  },
  {
    "id": "99522",
    "name": "NEAR SHEIKH JAFAR MAMUDA ADAMS ISL. ABBATOIR",
    "registration_area_id": "5053",
    "precise_location": null,
    "abbreviation": "051",
    "units": "051",
    "delimitation": "20/21/12/051",
    "remark": "NEW PU",
    "ward_id": "5053",
    "ward_name": "WAKILI KUDU III",
    "local_government_id": "434",
    "local_government_name": "KATSINA",
    "state_id": "20",
    "state_name": "KATSINA",
    "location": {
      "latitude": 13.003545,
      "longitude": 7.582923999999999,
      "viewport": {
        "northeast": {
          "lat": 13.00489717989272,
          "lng": 7.584209279892724
        },
        "southwest": {
          "lat": 13.00219752010728,
          "lng": 7.58150962010728
        }
      },
      "formatted_address": "2H3M+C57, Along Gidan Kwakwa Road, Dutsen-Safe Low Coast, Katsina, Nigeria",
      "google_map_url": "https://maps.google.com?q=13.003545,7.582923999999999",
      "google_place_id": "ChIJu3FuiDg9sBERQvWZkXn8PBU"
    }
  },
  {
    "id": "99523",
    "name": "AISHATU MEM. SCH. LAYOUT",
    "registration_area_id": "5053",
    "precise_location": null,
    "abbreviation": "052",
    "units": "052",
    "delimitation": "20/21/12/052",
    "remark": "NEW PU",
    "ward_id": "5053",
    "ward_name": "WAKILI KUDU III",
    "local_government_id": "434",
    "local_government_name": "KATSINA",
    "state_id": "20",
    "state_name": "KATSINA",
    "location": {
      "latitude": 12.9738146,
      "longitude": 7.622521,
      "viewport": {
        "northeast": {
          "lat": 12.97514117989272,
          "lng": 7.62372727989272
        },
        "southwest": {
          "lat": 12.97244152010728,
          "lng": 7.621027620107276
        }
      },
      "formatted_address": "29 Musawa Road, Kofar Kaura layout 820101, Katsina, Nigeria",
      "google_map_url": "https://maps.google.com?q=12.9738146,7.622521",
      "google_place_id": "ChIJb8Pr-JYjsBERYeGnrXndpkQ"
    }
  },
  {
    "id": "99524",
    "name": "WWTC K/MARUSA LAYOUT",
    "registration_area_id": "5053",
    "precise_location": null,
    "abbreviation": "053",
    "units": "053",
    "delimitation": "20/21/12/053",
    "remark": "NEW PU",
    "ward_id": "5053",
    "ward_name": "WAKILI KUDU III",
    "local_government_id": "434",
    "local_government_name": "KATSINA",
    "state_id": "20",
    "state_name": "KATSINA",
    "location": {
      "latitude": 12.9875856,
      "longitude": 7.610190299999999,
      "viewport": {
        "northeast": {
          "lat": 12.98897892989272,
          "lng": 7.611551779892721
        },
        "southwest": {
          "lat": 12.98627927010727,
          "lng": 7.608852120107277
        }
      },
      "formatted_address": "XJQ6+23P, Abdullahi Sarki Muktar Road, 820101, Katsina, Nigeria",
      "google_map_url": "https://maps.google.com?q=12.9875856,7.610190299999999",
      "google_place_id": "ChIJGWR7oLQ8sBERsncnDtWXtvY"
    }
  }
]