[
  {
    "id": "2584",
    "name": "NDI OWAN / UME COMPS - ANYAFUMBA HALL",
    "registration_area_id": "108",
    "precise_location": null,
    "abbreviation": "001",
    "units": "001",
    "delimitation": "01/10/09/001",
    "remark": "EXISTING PU",
    "ward_id": "108",
    "ward_name": "OKAMU OHAFIA",
    "local_government_id": "10",
    "local_government_name": "OHAFIA",
    "state_id": "1",
    "state_name": "ABIA",
    "location": {
      "latitude": 5.539159199999999,
      "longitude": 7.842067099999999,
      "viewport": {
        "northeast": {
          "lat": 5.540555179892721,
          "lng": 7.84341627989272
        },
        "southwest": {
          "lat": 5.537855520107277,
          "lng": 7.840716620107276
        }
      },
      "formatted_address": "Awoke, Mission Roundabout, 442115, Ndi-Uduma, Nigeria",
      "google_map_url": "https://maps.google.com?q=5.539159199999999,7.842067099999999",
      "google_place_id": "ChIJl8PT-LotXRAR9NLsAzKAfF8"
    }
  },
  {
    "id": "2585",
    "name": "NDI IDIKA OKORO COMPOUND - IDIKA  OKORO HALL",
    "registration_area_id": "108",
    "precise_location": null,
    "abbreviation": "002",
    "units": "002",
    "delimitation": "01/10/09/002",
    "remark": "EXISTING PU",
    "ward_id": "108",
    "ward_name": "OKAMU OHAFIA",
    "local_government_id": "10",
    "local_government_name": "OHAFIA",
    "state_id": "1",
    "state_name": "ABIA",
    "location": {
      "latitude": 5.476822299999999,
      "longitude": 7.9154724,
      "viewport": {
        "northeast": {
          "lat": 5.478187129892722,
          "lng": 7.916847079892722
        },
        "southwest": {
          "lat": 5.475487470107278,
          "lng": 7.914147420107278
        }
      },
      "formatted_address": "FWG8+P5H, Okpo Community School,, Ohafia-Arochukwu Rd, Ohafia, Nigeria",
      "google_map_url": "https://maps.google.com?q=5.476822299999999,7.9154724",
      "google_place_id": "ChIJcTqUS60xXRARDQIc6Y9C0pM"
    }
  },
  {
    "id": "2586",
    "name": "OKAMU SEC. COMM. SCH  - OKAMU SEC.  SCH",
    "registration_area_id": "108",
    "precise_location": null,
    "abbreviation": "003",
    "units": "003",
    "delimitation": "01/10/09/003",
    "remark": "EXISTING PU",
    "ward_id": "108",
    "ward_name": "OKAMU OHAFIA",
    "local_government_id": "10",
    "local_government_name": "OHAFIA",
    "state_id": "1",
    "state_name": "ABIA",
    "location": {
      "latitude": 5.6228909,
      "longitude": 7.835334399999999,
      "viewport": {
        "northeast": {
          "lat": 5.624181179892721,
          "lng": 7.836601179892722
        },
        "southwest": {
          "lat": 5.621481520107277,
          "lng": 7.833901520107278
        }
      },
      "formatted_address": "JRFP+544, 442112, Ohafia, Nigeria",
      "google_map_url": "https://maps.google.com?q=5.6228909,7.835334399999999",
      "google_place_id": "ChIJxcGgx6UrXRAR3S5NgIedVoc"
    }
  },
  {
    "id": "2587",
    "name": "OMAGHUZO LAYOUT - EMEHUNA HALL",
    "registration_area_id": "108",
    "precise_location": null,
    "abbreviation": "004",
    "units": "004",
    "delimitation": "01/10/09/004",
    "remark": "EXISTING PU",
    "ward_id": "108",
    "ward_name": "OKAMU OHAFIA",
    "local_government_id": "10",
    "local_government_name": "OHAFIA",
    "state_id": "1",
    "state_name": "ABIA",
    "location": {
      "latitude": 5.476822299999999,
      "longitude": 7.9154724,
      "viewport": {
        "northeast": {
          "lat": 5.478187129892722,
          "lng": 7.916847079892722
        },
        "southwest": {
          "lat": 5.475487470107278,
          "lng": 7.914147420107278
        }
      },
      "formatted_address": "FWG8+P5H, Okpo Community School,, Ohafia-Arochukwu Rd, Ohafia, Nigeria",
      "google_map_url": "https://maps.google.com?q=5.476822299999999,7.9154724",
      "google_place_id": "ChIJcTqUS60xXRARDQIc6Y9C0pM"
    }
  },
  {
    "id": "2588",
    "name": "OKON CENT. SEC. - OKON CENT. SEC.",
    "registration_area_id": "108",
    "precise_location": null,
    "abbreviation": "005",
    "units": "005",
    "delimitation": "01/10/09/005",
    "remark": "EXISTING PU",
    "ward_id": "108",
    "ward_name": "OKAMU OHAFIA",
    "local_government_id": "10",
    "local_government_name": "OHAFIA",
    "state_id": "1",
    "state_name": "ABIA",
    "location": {
      "latitude": 5.6578232,
      "longitude": 7.891209900000001,
      "viewport": {
        "northeast": {
          "lat": 5.6690283,
          "lng": 7.8969383
        },
        "southwest": {
          "lat": 5.6510919,
          "lng": 7.8821754
        }
      },
      "formatted_address": "442109, Okon, Nigeria",
      "google_map_url": "https://maps.google.com?q=5.6578232,7.891209900000001",
      "google_place_id": "ChIJb-q85uspXRAR-HsyTtePloY"
    }
  },
  {
    "id": "2589",
    "name": "ALINJI / OBA NDI UMA / ISI OKU  - ALINJI SQUARE",
    "registration_area_id": "108",
    "precise_location": null,
    "abbreviation": "006",
    "units": "006",
    "delimitation": "01/10/09/006",
    "remark": "EXISTING PU",
    "ward_id": "108",
    "ward_name": "OKAMU OHAFIA",
    "local_government_id": "10",
    "local_government_name": "OHAFIA",
    "state_id": "1",
    "state_name": "ABIA",
    "location": {
      "latitude": 5.6980965,
      "longitude": 7.806885100000001,
      "viewport": {
        "northeast": {
          "lat": 5.7318401,
          "lng": 7.8529471
        },
        "southwest": {
          "lat": 5.608791999999999,
          "lng": 7.756649599999999
        }
      },
      "formatted_address": "Isiama Ohafia, Nigeria",
      "google_map_url": "https://maps.google.com?q=5.6980965,7.806885100000001",
      "google_place_id": "ChIJFUBoT6IqXRARLTqicRVh8ew"
    }
  },
  {
    "id": "2590",
    "name": "NDI UKA / EMEA / UKPAZU  - NDI UKA VILLAGE  SQUARE",
    "registration_area_id": "108",
    "precise_location": null,
    "abbreviation": "007",
    "units": "007",
    "delimitation": "01/10/09/007",
    "remark": "EXISTING PU",
    "ward_id": "108",
    "ward_name": "OKAMU OHAFIA",
    "local_government_id": "10",
    "local_government_name": "OHAFIA",
    "state_id": "1",
    "state_name": "ABIA",
    "location": {
      "latitude": 5.571859,
      "longitude": 7.8767074,
      "viewport": {
        "northeast": {
          "lat": 5.573167179892721,
          "lng": 7.878052729892722
        },
        "southwest": {
          "lat": 5.570467520107277,
          "lng": 7.875353070107278
        }
      },
      "formatted_address": "HVCG+PMW, 442114, Ohafia, Nigeria",
      "google_map_url": "https://maps.google.com?q=5.571859,7.8767074",
      "google_place_id": "ChIJLdAcWZ8uXRAR0YC8HzXEvGg"
    }
  },
  {
    "id": "2591",
    "name": "NDI UKE VILLAGE - NDI UKE VILLAGE SQUARE",
    "registration_area_id": "108",
    "precise_location": null,
    "abbreviation": "008",
    "units": "008",
    "delimitation": "01/10/09/008",
    "remark": "EXISTING PU",
    "ward_id": "108",
    "ward_name": "OKAMU OHAFIA",
    "local_government_id": "10",
    "local_government_name": "OHAFIA",
    "state_id": "1",
    "state_name": "ABIA",
    "location": {
      "latitude": 5.571859,
      "longitude": 7.8767074,
      "viewport": {
        "northeast": {
          "lat": 5.573167179892721,
          "lng": 7.878052729892722
        },
        "southwest": {
          "lat": 5.570467520107277,
          "lng": 7.875353070107278
        }
      },
      "formatted_address": "HVCG+PMW, 442114, Ohafia, Nigeria",
      "google_map_url": "https://maps.google.com?q=5.571859,7.8767074",
      "google_place_id": "ChIJLdAcWZ8uXRAR0YC8HzXEvGg"
    }
  },
  {
    "id": "2592",
    "name": "OKAMU OHAFIA",
    "registration_area_id": "108",
    "precise_location": null,
    "abbreviation": "009",
    "units": "009",
    "delimitation": "01/10/09/009",
    "remark": "EXISTING PU",
    "ward_id": "108",
    "ward_name": "OKAMU OHAFIA",
    "local_government_id": "10",
    "local_government_name": "OHAFIA",
    "state_id": "1",
    "state_name": "ABIA",
    "location": {
      "latitude": 5.6432006,
      "longitude": 7.839855099999999,
      "viewport": {
        "northeast": {
          "lat": 5.644788,
          "lng": 7.841843099999999
        },
        "southwest": {
          "lat": 5.641689899999999,
          "lng": 7.837039000000001
        }
      },
      "formatted_address": "Ohafia, Nigeria",
      "google_map_url": "https://maps.google.com?q=5.6432006,7.839855099999999",
      "google_place_id": "ChIJgVDjvwUrXRARoidRcVyWJTM"
    }
  },
  {
    "id": "2593",
    "name": "NDI MBILA COMPOUND - MBILA COMPOUND HALL",
    "registration_area_id": "108",
    "precise_location": null,
    "abbreviation": "010",
    "units": "010",
    "delimitation": "01/10/09/010",
    "remark": "EXISTING PU",
    "ward_id": "108",
    "ward_name": "OKAMU OHAFIA",
    "local_government_id": "10",
    "local_government_name": "OHAFIA",
    "state_id": "1",
    "state_name": "ABIA",
    "location": {
      "latitude": 5.711814299999999,
      "longitude": 7.736288099999999,
      "viewport": {
        "northeast": {
          "lat": 5.713167729892722,
          "lng": 7.737789679892722
        },
        "southwest": {
          "lat": 5.710468070107278,
          "lng": 7.735090020107278
        }
      },
      "formatted_address": "NDI ONWUKA COMPOUND ALA NDI ORIRI OHAFIA LOCAL GOV#ERNMENT, Ohafia, Nigeria",
      "google_map_url": "https://maps.google.com?q=5.711814299999999,7.736288099999999",
      "google_place_id": "ChIJi0oBmasrQxAR5hXxyZ8Jhrk"
    }
  },
  {
    "id": "2594",
    "name": "NDI NCHEGHE VILLAGE - NCHEGHE COMPOUND HALL",
    "registration_area_id": "108",
    "precise_location": null,
    "abbreviation": "011",
    "units": "011",
    "delimitation": "01/10/09/011",
    "remark": "EXISTING PU",
    "ward_id": "108",
    "ward_name": "OKAMU OHAFIA",
    "local_government_id": "10",
    "local_government_name": "OHAFIA",
    "state_id": "1",
    "state_name": "ABIA",
    "location": {
      "latitude": 5.571859,
      "longitude": 7.8767074,
      "viewport": {
        "northeast": {
          "lat": 5.573167179892721,
          "lng": 7.878052729892722
        },
        "southwest": {
          "lat": 5.570467520107277,
          "lng": 7.875353070107278
        }
      },
      "formatted_address": "HVCG+PMW, 442114, Ohafia, Nigeria",
      "google_map_url": "https://maps.google.com?q=5.571859,7.8767074",
      "google_place_id": "ChIJLdAcWZ8uXRAR0YC8HzXEvGg"
    }
  },
  {
    "id": "2595",
    "name": "NDI EZICHI COMPOUND - EZICHI COMPOUND HALL",
    "registration_area_id": "108",
    "precise_location": null,
    "abbreviation": "012",
    "units": "012",
    "delimitation": "01/10/09/012",
    "remark": "EXISTING PU",
    "ward_id": "108",
    "ward_name": "OKAMU OHAFIA",
    "local_government_id": "10",
    "local_government_name": "OHAFIA",
    "state_id": "1",
    "state_name": "ABIA",
    "location": {
      "latitude": 5.571859,
      "longitude": 7.8767074,
      "viewport": {
        "northeast": {
          "lat": 5.573167179892721,
          "lng": 7.878052729892722
        },
        "southwest": {
          "lat": 5.570467520107277,
          "lng": 7.875353070107278
        }
      },
      "formatted_address": "HVCG+PMW, 442114, Ohafia, Nigeria",
      "google_map_url": "https://maps.google.com?q=5.571859,7.8767074",
      "google_place_id": "ChIJLdAcWZ8uXRAR0YC8HzXEvGg"
    }
  },
  {
    "id": "2596",
    "name": "NDI AWA AMANGWU COMPOUND - NDI AWA HALL",
    "registration_area_id": "108",
    "precise_location": null,
    "abbreviation": "013",
    "units": "013",
    "delimitation": "01/10/09/013",
    "remark": "EXISTING PU",
    "ward_id": "108",
    "ward_name": "OKAMU OHAFIA",
    "local_government_id": "10",
    "local_government_name": "OHAFIA",
    "state_id": "1",
    "state_name": "ABIA",
    "location": {
      "latitude": 5.571859,
      "longitude": 7.8767074,
      "viewport": {
        "northeast": {
          "lat": 5.573167179892721,
          "lng": 7.878052729892722
        },
        "southwest": {
          "lat": 5.570467520107277,
          "lng": 7.875353070107278
        }
      },
      "formatted_address": "HVCG+PMW, 442114, Ohafia, Nigeria",
      "google_map_url": "https://maps.google.com?q=5.571859,7.8767074",
      "google_place_id": "ChIJLdAcWZ8uXRAR0YC8HzXEvGg"
    }
  },
  {
    "id": "2597",
    "name": "NDI TORTI - NDI TORTI HALL",
    "registration_area_id": "108",
    "precise_location": null,
    "abbreviation": "014",
    "units": "014",
    "delimitation": "01/10/09/014",
    "remark": "EXISTING PU",
    "ward_id": "108",
    "ward_name": "OKAMU OHAFIA",
    "local_government_id": "10",
    "local_government_name": "OHAFIA",
    "state_id": "1",
    "state_name": "ABIA",
    "location": {
      "latitude": 5.571859,
      "longitude": 7.8767074,
      "viewport": {
        "northeast": {
          "lat": 5.573167179892721,
          "lng": 7.878052729892722
        },
        "southwest": {
          "lat": 5.570467520107277,
          "lng": 7.875353070107278
        }
      },
      "formatted_address": "HVCG+PMW, 442114, Ohafia, Nigeria",
      "google_map_url": "https://maps.google.com?q=5.571859,7.8767074",
      "google_place_id": "ChIJLdAcWZ8uXRAR0YC8HzXEvGg"
    }
  },
  {
    "id": "2598",
    "name": "AMBELE CENT. SCH. II - AMBELE CENT. SCH.",
    "registration_area_id": "108",
    "precise_location": null,
    "abbreviation": "015",
    "units": "015",
    "delimitation": "01/10/09/015",
    "remark": "EXISTING PU",
    "ward_id": "108",
    "ward_name": "OKAMU OHAFIA",
    "local_government_id": "10",
    "local_government_name": "OHAFIA",
    "state_id": "1",
    "state_name": "ABIA",
    "location": {
      "latitude": 5.6450168,
      "longitude": 7.8303964,
      "viewport": {
        "northeast": {
          "lat": 5.646366079892722,
          "lng": 7.831820329892722
        },
        "southwest": {
          "lat": 5.643666420107278,
          "lng": 7.829120670107278
        }
      },
      "formatted_address": "5°38'42.8\"N 7°49'49.4\"E, Nigeria",
      "google_map_url": "https://maps.google.com?q=5.6450168,7.8303964",
      "google_place_id": "ChIJXedPAaArXRARgKG5SuRJaow"
    }
  },
  {
    "id": "2599",
    "name": "NDIOKPO / EZIUKWU -  UDI OKPO HALL",
    "registration_area_id": "108",
    "precise_location": null,
    "abbreviation": "016",
    "units": "016",
    "delimitation": "01/10/09/016",
    "remark": "EXISTING PU",
    "ward_id": "108",
    "ward_name": "OKAMU OHAFIA",
    "local_government_id": "10",
    "local_government_name": "OHAFIA",
    "state_id": "1",
    "state_name": "ABIA",
    "location": {
      "latitude": 5.476822299999999,
      "longitude": 7.9154724,
      "viewport": {
        "northeast": {
          "lat": 5.478187129892722,
          "lng": 7.916847079892722
        },
        "southwest": {
          "lat": 5.475487470107278,
          "lng": 7.914147420107278
        }
      },
      "formatted_address": "FWG8+P5H, Okpo Community School,, Ohafia-Arochukwu Rd, Ohafia, Nigeria",
      "google_map_url": "https://maps.google.com?q=5.476822299999999,7.9154724",
      "google_place_id": "ChIJcTqUS60xXRARDQIc6Y9C0pM"
    }
  },
  {
    "id": "2600",
    "name": "NDI UKO / EKEA / MBAULU COMPOUNDS -    NDI UKO HALL",
    "registration_area_id": "108",
    "precise_location": null,
    "abbreviation": "017",
    "units": "017",
    "delimitation": "01/10/09/017",
    "remark": "EXISTING PU",
    "ward_id": "108",
    "ward_name": "OKAMU OHAFIA",
    "local_government_id": "10",
    "local_government_name": "OHAFIA",
    "state_id": "1",
    "state_name": "ABIA",
    "location": {
      "latitude": 5.476822299999999,
      "longitude": 7.9154724,
      "viewport": {
        "northeast": {
          "lat": 5.478187129892722,
          "lng": 7.916847079892722
        },
        "southwest": {
          "lat": 5.475487470107278,
          "lng": 7.914147420107278
        }
      },
      "formatted_address": "FWG8+P5H, Okpo Community School,, Ohafia-Arochukwu Rd, Ohafia, Nigeria",
      "google_map_url": "https://maps.google.com?q=5.476822299999999,7.9154724",
      "google_place_id": "ChIJcTqUS60xXRARDQIc6Y9C0pM"
    }
  },
  {
    "id": "2601",
    "name": "NDI EDEM COMPOUND - EDEM COMPOUND HALL",
    "registration_area_id": "108",
    "precise_location": null,
    "abbreviation": "018",
    "units": "018",
    "delimitation": "01/10/09/018",
    "remark": "EXISTING PU",
    "ward_id": "108",
    "ward_name": "OKAMU OHAFIA",
    "local_government_id": "10",
    "local_government_name": "OHAFIA",
    "state_id": "1",
    "state_name": "ABIA",
    "location": {
      "latitude": 5.5710962,
      "longitude": 7.829295899999999,
      "viewport": {
        "northeast": {
          "lat": 5.572345279892723,
          "lng": 7.830825979892722
        },
        "southwest": {
          "lat": 5.569645620107279,
          "lng": 7.828126320107278
        }
      },
      "formatted_address": "HRCH+CPM, 442115, Ohafia, Nigeria",
      "google_map_url": "https://maps.google.com?q=5.5710962,7.829295899999999",
      "google_place_id": "ChIJe7P2jV8sXRARQV_Ez20awrY"
    }
  },
  {
    "id": "2602",
    "name": "UTUGA UTUGA - UMUANDO VILLAGE SQUARE",
    "registration_area_id": "108",
    "precise_location": null,
    "abbreviation": "019",
    "units": "019",
    "delimitation": "01/10/09/019",
    "remark": "EXISTING PU",
    "ward_id": "108",
    "ward_name": "OKAMU OHAFIA",
    "local_government_id": "10",
    "local_government_name": "OHAFIA",
    "state_id": "1",
    "state_name": "ABIA",
    "location": {
      "latitude": 5.6210168,
      "longitude": 7.849913799999999,
      "viewport": {
        "northeast": {
          "lat": 5.622378079892721,
          "lng": 7.851239979892723
        },
        "southwest": {
          "lat": 5.619678420107277,
          "lng": 7.848540320107278
        }
      },
      "formatted_address": "JRCX+CX3, 442113, Ohafia, Nigeria",
      "google_map_url": "https://maps.google.com?q=5.6210168,7.849913799999999",
      "google_place_id": "ChIJpRexm7grXRARjcJEg1WSNsA"
    }
  },
  {
    "id": "2603",
    "name": "AMAOBA - AMAOBA VILLAGE HALL",
    "registration_area_id": "108",
    "precise_location": null,
    "abbreviation": "020",
    "units": "020",
    "delimitation": "01/10/09/020",
    "remark": "EXISTING PU",
    "ward_id": "108",
    "ward_name": "OKAMU OHAFIA",
    "local_government_id": "10",
    "local_government_name": "OHAFIA",
    "state_id": "1",
    "state_name": "ABIA",
    "location": {
      "latitude": 5.5967216,
      "longitude": 7.7484524,
      "viewport": {
        "northeast": {
          "lat": 5.598082479892723,
          "lng": 7.749767679892721
        },
        "southwest": {
          "lat": 5.595382820107279,
          "lng": 7.747068020107277
        }
      },
      "formatted_address": "HPWX+M99, Umuahia - Ohafia Rd, 442107, Amelu Abam, Nigeria",
      "google_map_url": "https://maps.google.com?q=5.5967216,7.7484524",
      "google_place_id": "ChIJISwqSILUQhARkO70iopx7a0"
    }
  },
  {
    "id": "2604",
    "name": "NDI CHIMA COMPOUND -  NDI CHIMA HALL",
    "registration_area_id": "108",
    "precise_location": null,
    "abbreviation": "021",
    "units": "021",
    "delimitation": "01/10/09/021",
    "remark": "EXISTING PU",
    "ward_id": "108",
    "ward_name": "OKAMU OHAFIA",
    "local_government_id": "10",
    "local_government_name": "OHAFIA",
    "state_id": "1",
    "state_name": "ABIA",
    "location": null
  },
  {
    "id": "2605",
    "name": "NDI ECHE COMPOUND - ECHE COMPOUND HALL",
    "registration_area_id": "108",
    "precise_location": null,
    "abbreviation": "022",
    "units": "022",
    "delimitation": "01/10/09/022",
    "remark": "EXISTING PU",
    "ward_id": "108",
    "ward_name": "OKAMU OHAFIA",
    "local_government_id": "10",
    "local_government_name": "OHAFIA",
    "state_id": "1",
    "state_name": "ABIA",
    "location": {
      "latitude": 5.5710962,
      "longitude": 7.829295899999999,
      "viewport": {
        "northeast": {
          "lat": 5.572345279892723,
          "lng": 7.830825979892722
        },
        "southwest": {
          "lat": 5.569645620107279,
          "lng": 7.828126320107278
        }
      },
      "formatted_address": "HRCH+CPM, 442115, Ohafia, Nigeria",
      "google_map_url": "https://maps.google.com?q=5.5710962,7.829295899999999",
      "google_place_id": "ChIJe7P2jV8sXRARQV_Ez20awrY"
    }
  },
  {
    "id": "2606",
    "name": "NDI EBIN COMPOUND - NDI EBIN HALL",
    "registration_area_id": "108",
    "precise_location": null,
    "abbreviation": "023",
    "units": "023",
    "delimitation": "01/10/09/023",
    "remark": "EXISTING PU",
    "ward_id": "108",
    "ward_name": "OKAMU OHAFIA",
    "local_government_id": "10",
    "local_government_name": "OHAFIA",
    "state_id": "1",
    "state_name": "ABIA",
    "location": {
      "latitude": 5.476822299999999,
      "longitude": 7.9154724,
      "viewport": {
        "northeast": {
          "lat": 5.478187129892722,
          "lng": 7.916847079892722
        },
        "southwest": {
          "lat": 5.475487470107278,
          "lng": 7.914147420107278
        }
      },
      "formatted_address": "FWG8+P5H, Okpo Community School,, Ohafia-Arochukwu Rd, Ohafia, Nigeria",
      "google_map_url": "https://maps.google.com?q=5.476822299999999,7.9154724",
      "google_place_id": "ChIJcTqUS60xXRARDQIc6Y9C0pM"
    }
  },
  {
    "id": "2607",
    "name": "OKAMU SEC. COM. SCHOOL II",
    "registration_area_id": "108",
    "precise_location": null,
    "abbreviation": "024",
    "units": "024",
    "delimitation": "01/10/09/024",
    "remark": "NEW PU",
    "ward_id": "108",
    "ward_name": "OKAMU OHAFIA",
    "local_government_id": "10",
    "local_government_name": "OHAFIA",
    "state_id": "1",
    "state_name": "ABIA",
    "location": {
      "latitude": 5.603733999999999,
      "longitude": 7.817882,
      "viewport": {
        "northeast": {
          "lat": 5.604931529892721,
          "lng": 7.819226179892721
        },
        "southwest": {
          "lat": 5.602231870107278,
          "lng": 7.816526520107277
        }
      },
      "formatted_address": "JR39+F5R, 442112, Ohafia, Nigeria",
      "google_map_url": "https://maps.google.com?q=5.603733999999999,7.817882",
      "google_place_id": "ChIJAUrArHorXRARBx6ehUy8XH8"
    }
  },
  {
    "id": "2608",
    "name": "NDI ANAYAJA COMPOUND  HALL",
    "registration_area_id": "108",
    "precise_location": null,
    "abbreviation": "025",
    "units": "025",
    "delimitation": "01/10/09/025",
    "remark": "NEW PU",
    "ward_id": "108",
    "ward_name": "OKAMU OHAFIA",
    "local_government_id": "10",
    "local_government_name": "OHAFIA",
    "state_id": "1",
    "state_name": "ABIA",
    "location": {
      "latitude": 5.571859,
      "longitude": 7.8767074,
      "viewport": {
        "northeast": {
          "lat": 5.573167179892721,
          "lng": 7.878052729892722
        },
        "southwest": {
          "lat": 5.570467520107277,
          "lng": 7.875353070107278
        }
      },
      "formatted_address": "HVCG+PMW, 442114, Ohafia, Nigeria",
      "google_map_url": "https://maps.google.com?q=5.571859,7.8767074",
      "google_place_id": "ChIJLdAcWZ8uXRAR0YC8HzXEvGg"
    }
  },
  {
    "id": "2609",
    "name": "NDI MBE COMPOUND HALL",
    "registration_area_id": "108",
    "precise_location": null,
    "abbreviation": "026",
    "units": "026",
    "delimitation": "01/10/09/026",
    "remark": "NEW PU",
    "ward_id": "108",
    "ward_name": "OKAMU OHAFIA",
    "local_government_id": "10",
    "local_government_name": "OHAFIA",
    "state_id": "1",
    "state_name": "ABIA",
    "location": {
      "latitude": 5.5710962,
      "longitude": 7.829295899999999,
      "viewport": {
        "northeast": {
          "lat": 5.572345279892723,
          "lng": 7.830825979892722
        },
        "southwest": {
          "lat": 5.569645620107279,
          "lng": 7.828126320107278
        }
      },
      "formatted_address": "HRCH+CPM, 442115, Ohafia, Nigeria",
      "google_map_url": "https://maps.google.com?q=5.5710962,7.829295899999999",
      "google_place_id": "ChIJe7P2jV8sXRARQV_Ez20awrY"
    }
  },
  {
    "id": "2610",
    "name": "NDI OKA COMP. HALL",
    "registration_area_id": "108",
    "precise_location": null,
    "abbreviation": "027",
    "units": "027",
    "delimitation": "01/10/09/027",
    "remark": "NEW PU",
    "ward_id": "108",
    "ward_name": "OKAMU OHAFIA",
    "local_government_id": "10",
    "local_government_name": "OHAFIA",
    "state_id": "1",
    "state_name": "ABIA",
    "location": {
      "latitude": 5.571859,
      "longitude": 7.8767074,
      "viewport": {
        "northeast": {
          "lat": 5.573167179892721,
          "lng": 7.878052729892722
        },
        "southwest": {
          "lat": 5.570467520107277,
          "lng": 7.875353070107278
        }
      },
      "formatted_address": "HVCG+PMW, 442114, Ohafia, Nigeria",
      "google_map_url": "https://maps.google.com?q=5.571859,7.8767074",
      "google_place_id": "ChIJLdAcWZ8uXRAR0YC8HzXEvGg"
    }
  }
]