[
  {
    "id": "70718",
    "name": "KAFIN BABUSHE PRI. SCH. KAFIN BABUSHE I",
    "registration_area_id": "3895",
    "precise_location": null,
    "abbreviation": "001",
    "units": "001",
    "delimitation": "17/23/03/001",
    "remark": "EXISTING PU",
    "ward_id": "3895",
    "ward_name": "KAFIN BABUSHE",
    "local_government_id": "342",
    "local_government_name": "RINGIM",
    "state_id": "17",
    "state_name": "JIGAWA",
    "location": {
      "latitude": 12.2782111,
      "longitude": 9.0018424,
      "viewport": {
        "northeast": {
          "lat": 12.3226564,
          "lng": 9.0503619
        },
        "southwest": {
          "lat": 12.1961556,
          "lng": 8.958385999999999
        }
      },
      "formatted_address": "Kafin Babushe, 733102, Nigeria",
      "google_map_url": "https://maps.google.com?q=12.2782111,9.0018424",
      "google_place_id": "ChIJtT479CS4rhER3nze9ZIOOKM"
    }
  },
  {
    "id": "70719",
    "name": "KAFIN BABUSHE PRI. SCH. KAFIN BABUSHE II",
    "registration_area_id": "3895",
    "precise_location": null,
    "abbreviation": "002",
    "units": "002",
    "delimitation": "17/23/03/002",
    "remark": "EXISTING PU",
    "ward_id": "3895",
    "ward_name": "KAFIN BABUSHE",
    "local_government_id": "342",
    "local_government_name": "RINGIM",
    "state_id": "17",
    "state_name": "JIGAWA",
    "location": {
      "latitude": 12.2782111,
      "longitude": 9.0018424,
      "viewport": {
        "northeast": {
          "lat": 12.3226564,
          "lng": 9.0503619
        },
        "southwest": {
          "lat": 12.1961556,
          "lng": 8.958385999999999
        }
      },
      "formatted_address": "Kafin Babushe, 733102, Nigeria",
      "google_map_url": "https://maps.google.com?q=12.2782111,9.0018424",
      "google_place_id": "ChIJtT479CS4rhER3nze9ZIOOKM"
    }
  },
  {
    "id": "70720",
    "name": "K/MAI'UNGUWA/DEBAKAI",
    "registration_area_id": "3895",
    "precise_location": null,
    "abbreviation": "003",
    "units": "003",
    "delimitation": "17/23/03/003",
    "remark": "EXISTING PU",
    "ward_id": "3895",
    "ward_name": "KAFIN BABUSHE",
    "local_government_id": "342",
    "local_government_name": "RINGIM",
    "state_id": "17",
    "state_name": "JIGAWA",
    "location": null
  },
  {
    "id": "70721",
    "name": "KOFAR MAI'UNGUWA/DUNAWA",
    "registration_area_id": "3895",
    "precise_location": null,
    "abbreviation": "004",
    "units": "004",
    "delimitation": "17/23/03/004",
    "remark": "EXISTING PU",
    "ward_id": "3895",
    "ward_name": "KAFIN BABUSHE",
    "local_government_id": "342",
    "local_government_name": "RINGIM",
    "state_id": "17",
    "state_name": "JIGAWA",
    "location": null
  },
  {
    "id": "70722",
    "name": "DAUSHE PRI. SCH. DAUSHE II",
    "registration_area_id": "3895",
    "precise_location": null,
    "abbreviation": "005",
    "units": "005",
    "delimitation": "17/23/03/005",
    "remark": "EXISTING PU",
    "ward_id": "3895",
    "ward_name": "KAFIN BABUSHE",
    "local_government_id": "342",
    "local_government_name": "RINGIM",
    "state_id": "17",
    "state_name": "JIGAWA",
    "location": {
      "latitude": 12.2350005,
      "longitude": 9.0363208,
      "viewport": {
        "northeast": {
          "lat": 12.23632647989272,
          "lng": 9.03766742989272
        },
        "southwest": {
          "lat": 12.23362682010728,
          "lng": 9.034967770107276
        }
      },
      "formatted_address": "62PP+2G8, 733102, Sankara, Nigeria",
      "google_map_url": "https://maps.google.com?q=12.2350005,9.0363208",
      "google_place_id": "ChIJO0iF3Qy3rhERA7az4iJflrQ"
    }
  },
  {
    "id": "70723",
    "name": "KOFAR MAI UNGUWA/GIDAN LAGE I",
    "registration_area_id": "3895",
    "precise_location": null,
    "abbreviation": "006",
    "units": "006",
    "delimitation": "17/23/03/006",
    "remark": "EXISTING PU",
    "ward_id": "3895",
    "ward_name": "KAFIN BABUSHE",
    "local_government_id": "342",
    "local_government_name": "RINGIM",
    "state_id": "17",
    "state_name": "JIGAWA",
    "location": null
  },
  {
    "id": "70724",
    "name": "KOFAR MAI UNGUWA/GIDAN LAGE II",
    "registration_area_id": "3895",
    "precise_location": null,
    "abbreviation": "007",
    "units": "007",
    "delimitation": "17/23/03/007",
    "remark": "EXISTING PU",
    "ward_id": "3895",
    "ward_name": "KAFIN BABUSHE",
    "local_government_id": "342",
    "local_government_name": "RINGIM",
    "state_id": "17",
    "state_name": "JIGAWA",
    "location": null
  },
  {
    "id": "70725",
    "name": "BEGUWA PRI. SCH.  BEGUWA I",
    "registration_area_id": "3895",
    "precise_location": null,
    "abbreviation": "008",
    "units": "008",
    "delimitation": "17/23/03/008",
    "remark": "EXISTING PU",
    "ward_id": "3895",
    "ward_name": "KAFIN BABUSHE",
    "local_government_id": "342",
    "local_government_name": "RINGIM",
    "state_id": "17",
    "state_name": "JIGAWA",
    "location": {
      "latitude": 12.2377899,
      "longitude": 8.695032,
      "viewport": {
        "northeast": {
          "lat": 12.23913992989272,
          "lng": 8.69638357989272
        },
        "southwest": {
          "lat": 12.23644027010728,
          "lng": 8.693683920107276
        }
      },
      "formatted_address": "7F4C6MQV+3XX Beguwa Beguwa wasai Kano Gurjiya, Nigeria",
      "google_map_url": "https://maps.google.com?q=12.2377899,8.695032",
      "google_place_id": "ChIJOUpedW-TrhERi_FC5C6rEZk"
    }
  },
  {
    "id": "70726",
    "name": "BEGUWA PRI. SCH.  BEGUWA  II",
    "registration_area_id": "3895",
    "precise_location": null,
    "abbreviation": "009",
    "units": "009",
    "delimitation": "17/23/03/009",
    "remark": "EXISTING PU",
    "ward_id": "3895",
    "ward_name": "KAFIN BABUSHE",
    "local_government_id": "342",
    "local_government_name": "RINGIM",
    "state_id": "17",
    "state_name": "JIGAWA",
    "location": {
      "latitude": 12.2377899,
      "longitude": 8.695032,
      "viewport": {
        "northeast": {
          "lat": 12.23913992989272,
          "lng": 8.69638357989272
        },
        "southwest": {
          "lat": 12.23644027010728,
          "lng": 8.693683920107276
        }
      },
      "formatted_address": "7F4C6MQV+3XX Beguwa Beguwa wasai Kano Gurjiya, Nigeria",
      "google_map_url": "https://maps.google.com?q=12.2377899,8.695032",
      "google_place_id": "ChIJOUpedW-TrhERi_FC5C6rEZk"
    }
  },
  {
    "id": "70727",
    "name": "KWAIKWAYU PRI. SCH. KWAIKWAYU",
    "registration_area_id": "3895",
    "precise_location": null,
    "abbreviation": "010",
    "units": "010",
    "delimitation": "17/23/03/010",
    "remark": "EXISTING PU",
    "ward_id": "3895",
    "ward_name": "KAFIN BABUSHE",
    "local_government_id": "342",
    "local_government_name": "RINGIM",
    "state_id": "17",
    "state_name": "JIGAWA",
    "location": {
      "latitude": 12.0084358,
      "longitude": 8.5461821,
      "viewport": {
        "northeast": {
          "lat": 12.00978322989272,
          "lng": 8.54753682989272
        },
        "southwest": {
          "lat": 12.00708357010728,
          "lng": 8.544837170107277
        }
      },
      "formatted_address": "64 Hadejia Rd, Fagge 700213, Kano, Nigeria",
      "google_map_url": "https://maps.google.com?q=12.0084358,8.5461821",
      "google_place_id": "ChIJP83xpHTIrhERGj2995gWqe8"
    }
  },
  {
    "id": "70728",
    "name": "KAFIN BABUSHE HOSPITAL",
    "registration_area_id": "3895",
    "precise_location": null,
    "abbreviation": "011",
    "units": "011",
    "delimitation": "17/23/03/011",
    "remark": "NEW PU",
    "ward_id": "3895",
    "ward_name": "KAFIN BABUSHE",
    "local_government_id": "342",
    "local_government_name": "RINGIM",
    "state_id": "17",
    "state_name": "JIGAWA",
    "location": {
      "latitude": 12.0941152,
      "longitude": 9.2383275,
      "viewport": {
        "northeast": {
          "lat": 12.09530227989272,
          "lng": 9.23981195
        },
        "southwest": {
          "lat": 12.09260262010728,
          "lng": 9.233874150000002
        }
      },
      "formatted_address": "36VQ+J8W, 733102, Shafar, Nigeria",
      "google_map_url": "https://maps.google.com?q=12.0941152,9.2383275",
      "google_place_id": "ChIJT2X-ulpTqRER0tVSgCMBS2Y"
    }
  },
  {
    "id": "70729",
    "name": "DAUSHE PRI. SCH. DAUSHE II",
    "registration_area_id": "3895",
    "precise_location": null,
    "abbreviation": "012",
    "units": "012",
    "delimitation": "17/23/03/012",
    "remark": "NEW PU",
    "ward_id": "3895",
    "ward_name": "KAFIN BABUSHE",
    "local_government_id": "342",
    "local_government_name": "RINGIM",
    "state_id": "17",
    "state_name": "JIGAWA",
    "location": {
      "latitude": 12.2350005,
      "longitude": 9.0363208,
      "viewport": {
        "northeast": {
          "lat": 12.23632647989272,
          "lng": 9.03766742989272
        },
        "southwest": {
          "lat": 12.23362682010728,
          "lng": 9.034967770107276
        }
      },
      "formatted_address": "62PP+2G8, 733102, Sankara, Nigeria",
      "google_map_url": "https://maps.google.com?q=12.2350005,9.0363208",
      "google_place_id": "ChIJO0iF3Qy3rhERA7az4iJflrQ"
    }
  },
  {
    "id": "70730",
    "name": "BEGUWA HOSPITAL",
    "registration_area_id": "3895",
    "precise_location": null,
    "abbreviation": "013",
    "units": "013",
    "delimitation": "17/23/03/013",
    "remark": "NEW PU",
    "ward_id": "3895",
    "ward_name": "KAFIN BABUSHE",
    "local_government_id": "342",
    "local_government_name": "RINGIM",
    "state_id": "17",
    "state_name": "JIGAWA",
    "location": null
  }
]