[
  {
    "id": "347210",
    "name": "LALEIPA AREA , OUR SAVIOUR PRY SCH ODIGBO SOUTH",
    "registration_area_id": "17640",
    "precise_location": null,
    "abbreviation": "001",
    "units": "001",
    "delimitation": "28/13/08/001",
    "remark": "EXISTING PU",
    "ward_id": "17640",
    "ward_name": "ODIGBO",
    "local_government_id": "594",
    "local_government_name": "ODIGBO",
    "state_id": "28",
    "state_name": "ONDO",
    "location": {
      "latitude": 6.7924523,
      "longitude": 4.8669028,
      "viewport": {
        "northeast": {
          "lat": 6.793788529892722,
          "lng": 4.868100129892722
        },
        "southwest": {
          "lat": 6.791088870107278,
          "lng": 4.865400470107279
        }
      },
      "formatted_address": "QVR8+XQJ, Along New Town Junction, Odigbo, Nigeria",
      "google_map_url": "https://maps.google.com?q=6.7924523,4.8669028",
      "google_place_id": "ChIJWeiS5AWXOBARcaByt7c1W90"
    }
  },
  {
    "id": "347211",
    "name": "LALEIPA AREA , OUR SAVIOUR PRY SCH ODIGBO NORTH",
    "registration_area_id": "17640",
    "precise_location": null,
    "abbreviation": "002",
    "units": "002",
    "delimitation": "28/13/08/002",
    "remark": "EXISTING PU",
    "ward_id": "17640",
    "ward_name": "ODIGBO",
    "local_government_id": "594",
    "local_government_name": "ODIGBO",
    "state_id": "28",
    "state_name": "ONDO",
    "location": null
  },
  {
    "id": "347212",
    "name": "TOWN HALL AREA ODIGBO, TOWN HALL ODIGBO",
    "registration_area_id": "17640",
    "precise_location": null,
    "abbreviation": "003",
    "units": "003",
    "delimitation": "28/13/08/003",
    "remark": "EXISTING PU",
    "ward_id": "17640",
    "ward_name": "ODIGBO",
    "local_government_id": "594",
    "local_government_name": "ODIGBO",
    "state_id": "28",
    "state_name": "ONDO",
    "location": {
      "latitude": 6.794659299999999,
      "longitude": 4.8676221,
      "viewport": {
        "northeast": {
          "lat": 6.806928999999999,
          "lng": 4.8879321
        },
        "southwest": {
          "lat": 6.7730859,
          "lng": 4.8592069
        }
      },
      "formatted_address": "350107, Odigbo, Nigeria",
      "google_map_url": "https://maps.google.com?q=6.794659299999999,4.8676221",
      "google_place_id": "ChIJN6P3Bj-XOBARbY9d4KOU4Zg"
    }
  },
  {
    "id": "347213",
    "name": "L.A PRY SCH ODIGBO, L.A PRY SCH ODIGBO",
    "registration_area_id": "17640",
    "precise_location": null,
    "abbreviation": "004",
    "units": "004",
    "delimitation": "28/13/08/004",
    "remark": "EXISTING PU",
    "ward_id": "17640",
    "ward_name": "ODIGBO",
    "local_government_id": "594",
    "local_government_name": "ODIGBO",
    "state_id": "28",
    "state_name": "ONDO",
    "location": {
      "latitude": 6.7888324,
      "longitude": 4.8789793,
      "viewport": {
        "northeast": {
          "lat": 6.790275429892722,
          "lng": 4.880279429892721
        },
        "southwest": {
          "lat": 6.787575770107278,
          "lng": 4.877579770107277
        }
      },
      "formatted_address": "QVQH+GJ2, 350107, Odigbo, Nigeria",
      "google_map_url": "https://maps.google.com?q=6.7888324,4.8789793",
      "google_place_id": "ChIJdeCW5mmXOBARWSRt53QDK_0"
    }
  },
  {
    "id": "347214",
    "name": "ST THOMAS PRY SCH ODIGBO, ST THOMAS PRY SCH ODIGBO NORTH",
    "registration_area_id": "17640",
    "precise_location": null,
    "abbreviation": "005",
    "units": "005",
    "delimitation": "28/13/08/005",
    "remark": "EXISTING PU",
    "ward_id": "17640",
    "ward_name": "ODIGBO",
    "local_government_id": "594",
    "local_government_name": "ODIGBO",
    "state_id": "28",
    "state_name": "ONDO",
    "location": {
      "latitude": 7.098405,
      "longitude": 4.8296417,
      "viewport": {
        "northeast": {
          "lat": 7.099627429892721,
          "lng": 4.830979729892722
        },
        "southwest": {
          "lat": 7.096927770107277,
          "lng": 4.828280070107278
        }
      },
      "formatted_address": "3RXH+9V6, 351103, Ondo, Nigeria",
      "google_map_url": "https://maps.google.com?q=7.098405,4.8296417",
      "google_place_id": "ChIJZblutG5jOBARwtSLvyMJCN8"
    }
  },
  {
    "id": "347215",
    "name": "ST THOMAS PRY SCH ODIGBO, ST THOMAS PRY SCH ODIGBO SOUTH",
    "registration_area_id": "17640",
    "precise_location": null,
    "abbreviation": "006",
    "units": "006",
    "delimitation": "28/13/08/006",
    "remark": "EXISTING PU",
    "ward_id": "17640",
    "ward_name": "ODIGBO",
    "local_government_id": "594",
    "local_government_name": "ODIGBO",
    "state_id": "28",
    "state_name": "ONDO",
    "location": {
      "latitude": 7.098405,
      "longitude": 4.8296417,
      "viewport": {
        "northeast": {
          "lat": 7.099627429892721,
          "lng": 4.830979729892722
        },
        "southwest": {
          "lat": 7.096927770107277,
          "lng": 4.828280070107278
        }
      },
      "formatted_address": "3RXH+9V6, 351103, Ondo, Nigeria",
      "google_map_url": "https://maps.google.com?q=7.098405,4.8296417",
      "google_place_id": "ChIJZblutG5jOBARwtSLvyMJCN8"
    }
  },
  {
    "id": "347216",
    "name": "ISERO GRAM SCH AREA, ISERO GRAM SCH ODIGBO NORTH",
    "registration_area_id": "17640",
    "precise_location": null,
    "abbreviation": "007",
    "units": "007",
    "delimitation": "28/13/08/007",
    "remark": "EXISTING PU",
    "ward_id": "17640",
    "ward_name": "ODIGBO",
    "local_government_id": "594",
    "local_government_name": "ODIGBO",
    "state_id": "28",
    "state_name": "ONDO",
    "location": {
      "latitude": 6.8000887,
      "longitude": 4.8683797,
      "viewport": {
        "northeast": {
          "lat": 6.801441979892722,
          "lng": 4.869738579892721
        },
        "southwest": {
          "lat": 6.798742320107278,
          "lng": 4.867038920107277
        }
      },
      "formatted_address": "RV29+29J, 350107, Odigbo, Nigeria",
      "google_map_url": "https://maps.google.com?q=6.8000887,4.8683797",
      "google_place_id": "ChIJdx_YgDeXOBARRkbTe1pn87k"
    }
  },
  {
    "id": "347217",
    "name": "ISERO GRAM SCH AREA, ISERO GRAM SCH ODIGBO SOUTH",
    "registration_area_id": "17640",
    "precise_location": null,
    "abbreviation": "008",
    "units": "008",
    "delimitation": "28/13/08/008",
    "remark": "EXISTING PU",
    "ward_id": "17640",
    "ward_name": "ODIGBO",
    "local_government_id": "594",
    "local_government_name": "ODIGBO",
    "state_id": "28",
    "state_name": "ONDO",
    "location": {
      "latitude": 6.8000887,
      "longitude": 4.8683797,
      "viewport": {
        "northeast": {
          "lat": 6.801441979892722,
          "lng": 4.869738579892721
        },
        "southwest": {
          "lat": 6.798742320107278,
          "lng": 4.867038920107277
        }
      },
      "formatted_address": "RV29+29J, 350107, Odigbo, Nigeria",
      "google_map_url": "https://maps.google.com?q=6.8000887,4.8683797",
      "google_place_id": "ChIJdx_YgDeXOBARRkbTe1pn87k"
    }
  },
  {
    "id": "347218",
    "name": "OMINLA COMP ODIGBO, OMINLA COMP ODIGBO",
    "registration_area_id": "17640",
    "precise_location": null,
    "abbreviation": "009",
    "units": "009",
    "delimitation": "28/13/08/009",
    "remark": "EXISTING PU",
    "ward_id": "17640",
    "ward_name": "ODIGBO",
    "local_government_id": "594",
    "local_government_name": "ODIGBO",
    "state_id": "28",
    "state_name": "ONDO",
    "location": {
      "latitude": 6.751830399999999,
      "longitude": 4.8777903,
      "viewport": {
        "northeast": {
          "lat": 6.753154879892722,
          "lng": 4.879174179892721
        },
        "southwest": {
          "lat": 6.750455220107278,
          "lng": 4.876474520107277
        }
      },
      "formatted_address": "350107, Ore, Nigeria",
      "google_map_url": "https://maps.google.com?q=6.751830399999999,4.8777903",
      "google_place_id": "ChIJAQAAAJSXOBARFcLOKAqn9f4"
    }
  },
  {
    "id": "347219",
    "name": "MARKET AREA ODIGBO, IN FRONT OF MARKET , ODIGBO",
    "registration_area_id": "17640",
    "precise_location": null,
    "abbreviation": "010",
    "units": "010",
    "delimitation": "28/13/08/010",
    "remark": "EXISTING PU",
    "ward_id": "17640",
    "ward_name": "ODIGBO",
    "local_government_id": "594",
    "local_government_name": "ODIGBO",
    "state_id": "28",
    "state_name": "ONDO",
    "location": {
      "latitude": 6.7952467,
      "longitude": 4.8718964,
      "viewport": {
        "northeast": {
          "lat": 6.796537029892722,
          "lng": 4.873100129892721
        },
        "southwest": {
          "lat": 6.793837370107278,
          "lng": 4.870400470107278
        }
      },
      "formatted_address": "QVWC+3QR, 350107, Odigbo, Nigeria",
      "google_map_url": "https://maps.google.com?q=6.7952467,4.8718964",
      "google_place_id": "ChIJcaGksDiXOBAR6B8RFDjgdVI"
    }
  },
  {
    "id": "347220",
    "name": "AS YOU LIKE IT STREET NEW TOWN, ODIGBO, NEAR AS YOU LIKE IT JUNCTION NEW TOWN",
    "registration_area_id": "17640",
    "precise_location": null,
    "abbreviation": "011",
    "units": "011",
    "delimitation": "28/13/08/011",
    "remark": "EXISTING PU",
    "ward_id": "17640",
    "ward_name": "ODIGBO",
    "local_government_id": "594",
    "local_government_name": "ODIGBO",
    "state_id": "28",
    "state_name": "ONDO",
    "location": {
      "latitude": 6.7947092,
      "longitude": 4.8721467,
      "viewport": {
        "northeast": {
          "lat": 6.796090429892722,
          "lng": 4.873461579892721
        },
        "southwest": {
          "lat": 6.793390770107278,
          "lng": 4.870761920107277
        }
      },
      "formatted_address": "Local Government, No. 3/5 Akinyemi Kehinde crescent, new town Odigbo, Ondo State Odigbo, Ore-Ondo Rd, Ondo, Nigeria",
      "google_map_url": "https://maps.google.com?q=6.7947092,4.8721467",
      "google_place_id": "ChIJHS_jRXuXOBARcIjsndp7V0E"
    }
  },
  {
    "id": "347221",
    "name": "ODIGBO CENTRE AREA, ALONG MOFERERE ST ODIGBO",
    "registration_area_id": "17640",
    "precise_location": null,
    "abbreviation": "012",
    "units": "012",
    "delimitation": "28/13/08/012",
    "remark": "EXISTING PU",
    "ward_id": "17640",
    "ward_name": "ODIGBO",
    "local_government_id": "594",
    "local_government_name": "ODIGBO",
    "state_id": "28",
    "state_name": "ONDO",
    "location": {
      "latitude": 6.751830399999999,
      "longitude": 4.8777903,
      "viewport": {
        "northeast": {
          "lat": 6.753154879892722,
          "lng": 4.879174179892721
        },
        "southwest": {
          "lat": 6.750455220107278,
          "lng": 4.876474520107277
        }
      },
      "formatted_address": "350107, Ore, Nigeria",
      "google_map_url": "https://maps.google.com?q=6.751830399999999,4.8777903",
      "google_place_id": "ChIJAQAAAJSXOBARFcLOKAqn9f4"
    }
  },
  {
    "id": "347222",
    "name": "LEMOMU AREA OMIFON VILLAGE, ASARUDEEN GRAM SCH NORTH",
    "registration_area_id": "17640",
    "precise_location": null,
    "abbreviation": "013",
    "units": "013",
    "delimitation": "28/13/08/013",
    "remark": "EXISTING PU",
    "ward_id": "17640",
    "ward_name": "ODIGBO",
    "local_government_id": "594",
    "local_government_name": "ODIGBO",
    "state_id": "28",
    "state_name": "ONDO",
    "location": {
      "latitude": 6.751830399999999,
      "longitude": 4.8777903,
      "viewport": {
        "northeast": {
          "lat": 6.753154879892722,
          "lng": 4.879174179892721
        },
        "southwest": {
          "lat": 6.750455220107278,
          "lng": 4.876474520107277
        }
      },
      "formatted_address": "350107, Ore, Nigeria",
      "google_map_url": "https://maps.google.com?q=6.751830399999999,4.8777903",
      "google_place_id": "ChIJAQAAAJSXOBARFcLOKAqn9f4"
    }
  },
  {
    "id": "347223",
    "name": "LEMOMU AREA OMIFON VILLAGE, ASARUDEEN GRAM SCH SOUTH",
    "registration_area_id": "17640",
    "precise_location": null,
    "abbreviation": "014",
    "units": "014",
    "delimitation": "28/13/08/014",
    "remark": "EXISTING PU",
    "ward_id": "17640",
    "ward_name": "ODIGBO",
    "local_government_id": "594",
    "local_government_name": "ODIGBO",
    "state_id": "28",
    "state_name": "ONDO",
    "location": {
      "latitude": 6.751830399999999,
      "longitude": 4.8777903,
      "viewport": {
        "northeast": {
          "lat": 6.753154879892722,
          "lng": 4.879174179892721
        },
        "southwest": {
          "lat": 6.750455220107278,
          "lng": 4.876474520107277
        }
      },
      "formatted_address": "350107, Ore, Nigeria",
      "google_map_url": "https://maps.google.com?q=6.751830399999999,4.8777903",
      "google_place_id": "ChIJAQAAAJSXOBARFcLOKAqn9f4"
    }
  },
  {
    "id": "347224",
    "name": "ST ANDREWS PRY SCH, OMIFON, ST ANDREWS PRY SCH, OMIFON NORTH",
    "registration_area_id": "17640",
    "precise_location": null,
    "abbreviation": "015",
    "units": "015",
    "delimitation": "28/13/08/015",
    "remark": "EXISTING PU",
    "ward_id": "17640",
    "ward_name": "ODIGBO",
    "local_government_id": "594",
    "local_government_name": "ODIGBO",
    "state_id": "28",
    "state_name": "ONDO",
    "location": {
      "latitude": 6.829418899999999,
      "longitude": 4.8604516,
      "viewport": {
        "northeast": {
          "lat": 6.830790679892723,
          "lng": 4.861743079892722
        },
        "southwest": {
          "lat": 6.828091020107279,
          "lng": 4.859043420107279
        }
      },
      "formatted_address": "Ore-Ondo Rd, 350107, Ominla, Nigeria",
      "google_map_url": "https://maps.google.com?q=6.829418899999999,4.8604516",
      "google_place_id": "ChIJMxoFpNSROBAR1ZdUXbtMPKs"
    }
  },
  {
    "id": "347225",
    "name": "ST ANDREWS PRY SCH, OMIFON, ST ANDREWS PRY SCH, OMIFON SOUTH",
    "registration_area_id": "17640",
    "precise_location": null,
    "abbreviation": "016",
    "units": "016",
    "delimitation": "28/13/08/016",
    "remark": "EXISTING PU",
    "ward_id": "17640",
    "ward_name": "ODIGBO",
    "local_government_id": "594",
    "local_government_name": "ODIGBO",
    "state_id": "28",
    "state_name": "ONDO",
    "location": {
      "latitude": 6.829418899999999,
      "longitude": 4.8604516,
      "viewport": {
        "northeast": {
          "lat": 6.830790679892723,
          "lng": 4.861743079892722
        },
        "southwest": {
          "lat": 6.828091020107279,
          "lng": 4.859043420107279
        }
      },
      "formatted_address": "Ore-Ondo Rd, 350107, Ominla, Nigeria",
      "google_map_url": "https://maps.google.com?q=6.829418899999999,4.8604516",
      "google_place_id": "ChIJMxoFpNSROBAR1ZdUXbtMPKs"
    }
  },
  {
    "id": "347226",
    "name": "ILUTITUN VILLAGE, CENTRE OF ILUTITUN VILLAGE",
    "registration_area_id": "17640",
    "precise_location": null,
    "abbreviation": "017",
    "units": "017",
    "delimitation": "28/13/08/017",
    "remark": "EXISTING PU",
    "ward_id": "17640",
    "ward_name": "ODIGBO",
    "local_government_id": "594",
    "local_government_name": "ODIGBO",
    "state_id": "28",
    "state_name": "ONDO",
    "location": {
      "latitude": 6.6270408,
      "longitude": 4.5469705,
      "viewport": {
        "northeast": {
          "lat": 6.730133899999999,
          "lng": 4.679061799999999
        },
        "southwest": {
          "lat": 6.4713099,
          "lng": 4.5099974
        }
      },
      "formatted_address": "Ilutitun II, Nigeria",
      "google_map_url": "https://maps.google.com?q=6.6270408,4.5469705",
      "google_place_id": "ChIJVwDgQv3EOBAR7fGvsbnKvgA"
    }
  },
  {
    "id": "347227",
    "name": "ORITA OJO/ALAGBE VILLAGE. COMM PRY SCH ORITA OJO",
    "registration_area_id": "17640",
    "precise_location": null,
    "abbreviation": "018",
    "units": "018",
    "delimitation": "28/13/08/018",
    "remark": "EXISTING PU",
    "ward_id": "17640",
    "ward_name": "ODIGBO",
    "local_government_id": "594",
    "local_government_name": "ODIGBO",
    "state_id": "28",
    "state_name": "ONDO",
    "location": {
      "latitude": 6.7888324,
      "longitude": 4.8789793,
      "viewport": {
        "northeast": {
          "lat": 6.790275429892722,
          "lng": 4.880279429892721
        },
        "southwest": {
          "lat": 6.787575770107278,
          "lng": 4.877579770107277
        }
      },
      "formatted_address": "QVQH+GJ2, 350107, Odigbo, Nigeria",
      "google_map_url": "https://maps.google.com?q=6.7888324,4.8789793",
      "google_place_id": "ChIJdeCW5mmXOBARWSRt53QDK_0"
    }
  },
  {
    "id": "347228",
    "name": "MOTOR PARK ORITA OJO, MOTOR PARK ORITA OJO",
    "registration_area_id": "17640",
    "precise_location": null,
    "abbreviation": "019",
    "units": "019",
    "delimitation": "28/13/08/019",
    "remark": "EXISTING PU",
    "ward_id": "17640",
    "ward_name": "ODIGBO",
    "local_government_id": "594",
    "local_government_name": "ODIGBO",
    "state_id": "28",
    "state_name": "ONDO",
    "location": {
      "latitude": 7.1788485,
      "longitude": 4.8681448,
      "viewport": {
        "northeast": {
          "lat": 7.18019597989272,
          "lng": 4.869510229892723
        },
        "southwest": {
          "lat": 7.177496320107276,
          "lng": 4.866810570107279
        }
      },
      "formatted_address": "5VH9+G7J, Ondo Road, 351110, Ile Oluji, Nigeria",
      "google_map_url": "https://maps.google.com?q=7.1788485,4.8681448",
      "google_place_id": "ChIJ3cMkjetkOBAR1_A5fe3AESM"
    }
  },
  {
    "id": "347229",
    "name": "BOLORUNDORO AREA ADAJA VILLAGE, MATERNITY CENTRE ADAJA",
    "registration_area_id": "17640",
    "precise_location": null,
    "abbreviation": "020",
    "units": "020",
    "delimitation": "28/13/08/020",
    "remark": "EXISTING PU",
    "ward_id": "17640",
    "ward_name": "ODIGBO",
    "local_government_id": "594",
    "local_government_name": "ODIGBO",
    "state_id": "28",
    "state_name": "ONDO",
    "location": null
  },
  {
    "id": "347230",
    "name": "BOLORUNDORO AREA ADAJA VILLAGE, OKE-OGA COMP ADAJA",
    "registration_area_id": "17640",
    "precise_location": null,
    "abbreviation": "021",
    "units": "021",
    "delimitation": "28/13/08/021",
    "remark": "EXISTING PU",
    "ward_id": "17640",
    "ward_name": "ODIGBO",
    "local_government_id": "594",
    "local_government_name": "ODIGBO",
    "state_id": "28",
    "state_name": "ONDO",
    "location": null
  },
  {
    "id": "347231",
    "name": "MARKET AREA ODIGBO, ST JOHNS PRY SCH ADAJA",
    "registration_area_id": "17640",
    "precise_location": null,
    "abbreviation": "022",
    "units": "022",
    "delimitation": "28/13/08/022",
    "remark": "EXISTING PU",
    "ward_id": "17640",
    "ward_name": "ODIGBO",
    "local_government_id": "594",
    "local_government_name": "ODIGBO",
    "state_id": "28",
    "state_name": "ONDO",
    "location": {
      "latitude": 6.7924523,
      "longitude": 4.8669028,
      "viewport": {
        "northeast": {
          "lat": 6.793788529892722,
          "lng": 4.868100129892722
        },
        "southwest": {
          "lat": 6.791088870107278,
          "lng": 4.865400470107279
        }
      },
      "formatted_address": "QVR8+XQJ, Along New Town Junction, Odigbo, Nigeria",
      "google_map_url": "https://maps.google.com?q=6.7924523,4.8669028",
      "google_place_id": "ChIJWeiS5AWXOBARcaByt7c1W90"
    }
  },
  {
    "id": "347232",
    "name": "LEWURE COMP, ADAJA; CENTRE OF LEWURE COMP, ADAJA",
    "registration_area_id": "17640",
    "precise_location": null,
    "abbreviation": "023",
    "units": "023",
    "delimitation": "28/13/08/023",
    "remark": "EXISTING PU",
    "ward_id": "17640",
    "ward_name": "ODIGBO",
    "local_government_id": "594",
    "local_government_name": "ODIGBO",
    "state_id": "28",
    "state_name": "ONDO",
    "location": {
      "latitude": 6.796894900000001,
      "longitude": 4.8749584,
      "viewport": {
        "northeast": {
          "lat": 6.798184329892721,
          "lng": 4.876209279892723
        },
        "southwest": {
          "lat": 6.795484670107277,
          "lng": 4.873509620107279
        }
      },
      "formatted_address": "INEC STREET, 350107, Odigbo, Nigeria",
      "google_map_url": "https://maps.google.com?q=6.796894900000001,4.8749584",
      "google_place_id": "ChIJf5ae6HOXOBARWXzlYH87Itw"
    }
  },
  {
    "id": "347233",
    "name": "YARABOMO/OWOBAMBO VILLAGE, CENTRE OF YARABOMO VILLAGE",
    "registration_area_id": "17640",
    "precise_location": null,
    "abbreviation": "024",
    "units": "024",
    "delimitation": "28/13/08/024",
    "remark": "EXISTING PU",
    "ward_id": "17640",
    "ward_name": "ODIGBO",
    "local_government_id": "594",
    "local_government_name": "ODIGBO",
    "state_id": "28",
    "state_name": "ONDO",
    "location": {
      "latitude": 6.751830399999999,
      "longitude": 4.8777903,
      "viewport": {
        "northeast": {
          "lat": 6.753154879892722,
          "lng": 4.879174179892721
        },
        "southwest": {
          "lat": 6.750455220107278,
          "lng": 4.876474520107277
        }
      },
      "formatted_address": "350107, Ore, Nigeria",
      "google_map_url": "https://maps.google.com?q=6.751830399999999,4.8777903",
      "google_place_id": "ChIJAQAAAJSXOBARFcLOKAqn9f4"
    }
  },
  {
    "id": "347234",
    "name": "AKINFOLARIN VILLAGE, ST PETERS SCH AKINFOLARIN SOUTH",
    "registration_area_id": "17640",
    "precise_location": null,
    "abbreviation": "025",
    "units": "025",
    "delimitation": "28/13/08/025",
    "remark": "EXISTING PU",
    "ward_id": "17640",
    "ward_name": "ODIGBO",
    "local_government_id": "594",
    "local_government_name": "ODIGBO",
    "state_id": "28",
    "state_name": "ONDO",
    "location": {
      "latitude": 7.3734026,
      "longitude": 5.7257102,
      "viewport": {
        "northeast": {
          "lat": 7.374987579892721,
          "lng": 5.726983079892722
        },
        "southwest": {
          "lat": 7.372287920107278,
          "lng": 5.724283420107279
        }
      },
      "formatted_address": "9PFG+974, 342106, Oba Akoko, Nigeria",
      "google_map_url": "https://maps.google.com?q=7.3734026,5.7257102",
      "google_place_id": "ChIJwYbW6zO1RxARNYfZMlxAuVU"
    }
  },
  {
    "id": "347235",
    "name": "AKINFOLARIN VILLAGE, ST PETERS SCH AKINFOLARIN NORTH",
    "registration_area_id": "17640",
    "precise_location": null,
    "abbreviation": "026",
    "units": "026",
    "delimitation": "28/13/08/026",
    "remark": "EXISTING PU",
    "ward_id": "17640",
    "ward_name": "ODIGBO",
    "local_government_id": "594",
    "local_government_name": "ODIGBO",
    "state_id": "28",
    "state_name": "ONDO",
    "location": {
      "latitude": 7.3734026,
      "longitude": 5.7257102,
      "viewport": {
        "northeast": {
          "lat": 7.374987579892721,
          "lng": 5.726983079892722
        },
        "southwest": {
          "lat": 7.372287920107278,
          "lng": 5.724283420107279
        }
      },
      "formatted_address": "9PFG+974, 342106, Oba Akoko, Nigeria",
      "google_map_url": "https://maps.google.com?q=7.3734026,5.7257102",
      "google_place_id": "ChIJwYbW6zO1RxARNYfZMlxAuVU"
    }
  },
  {
    "id": "347236",
    "name": "ODOLE AKINFOLARIN, CENTRE OF ODOLE AKINFOLARIN VILLAGE",
    "registration_area_id": "17640",
    "precise_location": null,
    "abbreviation": "027",
    "units": "027",
    "delimitation": "28/13/08/027",
    "remark": "EXISTING PU",
    "ward_id": "17640",
    "ward_name": "ODIGBO",
    "local_government_id": "594",
    "local_government_name": "ODIGBO",
    "state_id": "28",
    "state_name": "ONDO",
    "location": null
  },
  {
    "id": "347237",
    "name": "AYETORO/AGO OSE/FASIPE/AGO IBADAN, CENTRE OF AGO-OSE VILLAGE",
    "registration_area_id": "17640",
    "precise_location": null,
    "abbreviation": "028",
    "units": "028",
    "delimitation": "28/13/08/028",
    "remark": "EXISTING PU",
    "ward_id": "17640",
    "ward_name": "ODIGBO",
    "local_government_id": "594",
    "local_government_name": "ODIGBO",
    "state_id": "28",
    "state_name": "ONDO",
    "location": {
      "latitude": 6.751830399999999,
      "longitude": 4.8777903,
      "viewport": {
        "northeast": {
          "lat": 6.753154879892722,
          "lng": 4.879174179892721
        },
        "southwest": {
          "lat": 6.750455220107278,
          "lng": 4.876474520107277
        }
      },
      "formatted_address": "350107, Ore, Nigeria",
      "google_map_url": "https://maps.google.com?q=6.751830399999999,4.8777903",
      "google_place_id": "ChIJAQAAAJSXOBARFcLOKAqn9f4"
    }
  },
  {
    "id": "347238",
    "name": "TEMIADARA ONIDODO VILLAGE AND APERIN, CENTRE OF APERIN VILLAGE",
    "registration_area_id": "17640",
    "precise_location": null,
    "abbreviation": "029",
    "units": "029",
    "delimitation": "28/13/08/029",
    "remark": "EXISTING PU",
    "ward_id": "17640",
    "ward_name": "ODIGBO",
    "local_government_id": "594",
    "local_government_name": "ODIGBO",
    "state_id": "28",
    "state_name": "ONDO",
    "location": {
      "latitude": 6.751830399999999,
      "longitude": 4.8777903,
      "viewport": {
        "northeast": {
          "lat": 6.753154879892722,
          "lng": 4.879174179892721
        },
        "southwest": {
          "lat": 6.750455220107278,
          "lng": 4.876474520107277
        }
      },
      "formatted_address": "350107, Ore, Nigeria",
      "google_map_url": "https://maps.google.com?q=6.751830399999999,4.8777903",
      "google_place_id": "ChIJAQAAAJSXOBARFcLOKAqn9f4"
    }
  },
  {
    "id": "347239",
    "name": "ODIGBO HIGH SCHOOL I",
    "registration_area_id": "17640",
    "precise_location": null,
    "abbreviation": "030",
    "units": "030",
    "delimitation": "28/13/08/030",
    "remark": "NEW PU",
    "ward_id": "17640",
    "ward_name": "ODIGBO",
    "local_government_id": "594",
    "local_government_name": "ODIGBO",
    "state_id": "28",
    "state_name": "ONDO",
    "location": {
      "latitude": 6.7991953,
      "longitude": 4.86928,
      "viewport": {
        "northeast": {
          "lat": 6.800562879892722,
          "lng": 4.870630729892722
        },
        "southwest": {
          "lat": 6.797863220107279,
          "lng": 4.867931070107279
        }
      },
      "formatted_address": "QVX9+MQR, 350107, Odigbo, Nigeria",
      "google_map_url": "https://maps.google.com?q=6.7991953,4.86928",
      "google_place_id": "ChIJm1HcxDmXOBARgw7gPpMjm60"
    }
  },
  {
    "id": "347240",
    "name": "ODIGBO HIGH SCHOOL II",
    "registration_area_id": "17640",
    "precise_location": null,
    "abbreviation": "031",
    "units": "031",
    "delimitation": "28/13/08/031",
    "remark": "NEW PU",
    "ward_id": "17640",
    "ward_name": "ODIGBO",
    "local_government_id": "594",
    "local_government_name": "ODIGBO",
    "state_id": "28",
    "state_name": "ONDO",
    "location": {
      "latitude": 6.7991953,
      "longitude": 4.86928,
      "viewport": {
        "northeast": {
          "lat": 6.800562879892722,
          "lng": 4.870630729892722
        },
        "southwest": {
          "lat": 6.797863220107279,
          "lng": 4.867931070107279
        }
      },
      "formatted_address": "QVX9+MQR, 350107, Odigbo, Nigeria",
      "google_map_url": "https://maps.google.com?q=6.7991953,4.86928",
      "google_place_id": "ChIJm1HcxDmXOBARgw7gPpMjm60"
    }
  },
  {
    "id": "347241",
    "name": "OLD ODIGBO COMMUNITY HALL",
    "registration_area_id": "17640",
    "precise_location": null,
    "abbreviation": "032",
    "units": "032",
    "delimitation": "28/13/08/032",
    "remark": "NEW PU",
    "ward_id": "17640",
    "ward_name": "ODIGBO",
    "local_government_id": "594",
    "local_government_name": "ODIGBO",
    "state_id": "28",
    "state_name": "ONDO",
    "location": {
      "latitude": 6.7992607,
      "longitude": 4.8654933,
      "viewport": {
        "northeast": {
          "lat": 6.800726229892721,
          "lng": 4.867056629892722
        },
        "southwest": {
          "lat": 6.798026570107277,
          "lng": 4.864356970107278
        }
      },
      "formatted_address": "QVX8+P55, 350107, Odigbo, Nigeria",
      "google_map_url": "https://maps.google.com?q=6.7992607,4.8654933",
      "google_place_id": "ChIJgW3hIwGXOBARvDGvqEwvJX4"
    }
  },
  {
    "id": "347242",
    "name": "HEALTH CENTER, STATION AREA, ODIGBO",
    "registration_area_id": "17640",
    "precise_location": null,
    "abbreviation": "033",
    "units": "033",
    "delimitation": "28/13/08/033",
    "remark": "NEW PU",
    "ward_id": "17640",
    "ward_name": "ODIGBO",
    "local_government_id": "594",
    "local_government_name": "ODIGBO",
    "state_id": "28",
    "state_name": "ONDO",
    "location": {
      "latitude": 6.789349199999999,
      "longitude": 4.8726117,
      "viewport": {
        "northeast": {
          "lat": 6.790645529892721,
          "lng": 4.874003629892722
        },
        "southwest": {
          "lat": 6.787945870107277,
          "lng": 4.871303970107278
        }
      },
      "formatted_address": "QVQF+M2Q, 350107, Odigbo, Nigeria",
      "google_map_url": "https://maps.google.com?q=6.789349199999999,4.8726117",
      "google_place_id": "ChIJ__eaVRWXOBARR9Wktaf1Rl4"
    }
  },
  {
    "id": "347243",
    "name": "NEW SABO MARKET, ODIGBO",
    "registration_area_id": "17640",
    "precise_location": null,
    "abbreviation": "034",
    "units": "034",
    "delimitation": "28/13/08/034",
    "remark": "NEW PU",
    "ward_id": "17640",
    "ward_name": "ODIGBO",
    "local_government_id": "594",
    "local_government_name": "ODIGBO",
    "state_id": "28",
    "state_name": "ONDO",
    "location": {
      "latitude": 6.7952467,
      "longitude": 4.8718964,
      "viewport": {
        "northeast": {
          "lat": 6.796537029892722,
          "lng": 4.873100129892721
        },
        "southwest": {
          "lat": 6.793837370107278,
          "lng": 4.870400470107278
        }
      },
      "formatted_address": "QVWC+3QR, 350107, Odigbo, Nigeria",
      "google_map_url": "https://maps.google.com?q=6.7952467,4.8718964",
      "google_place_id": "ChIJcaGksDiXOBAR6B8RFDjgdVI"
    }
  },
  {
    "id": "347244",
    "name": "ISERO GRAM. SCHL, ODIGBO NORTH II",
    "registration_area_id": "17640",
    "precise_location": null,
    "abbreviation": "035",
    "units": "035",
    "delimitation": "28/13/08/035",
    "remark": "NEW PU",
    "ward_id": "17640",
    "ward_name": "ODIGBO",
    "local_government_id": "594",
    "local_government_name": "ODIGBO",
    "state_id": "28",
    "state_name": "ONDO",
    "location": {
      "latitude": 6.8000887,
      "longitude": 4.8683797,
      "viewport": {
        "northeast": {
          "lat": 6.801441979892722,
          "lng": 4.869738579892721
        },
        "southwest": {
          "lat": 6.798742320107278,
          "lng": 4.867038920107277
        }
      },
      "formatted_address": "RV29+29J, 350107, Odigbo, Nigeria",
      "google_map_url": "https://maps.google.com?q=6.8000887,4.8683797",
      "google_place_id": "ChIJdx_YgDeXOBARRkbTe1pn87k"
    }
  },
  {
    "id": "347245",
    "name": "NEW TOWN ROAD BY C & S CHURCH JUNCTION,",
    "registration_area_id": "17640",
    "precise_location": null,
    "abbreviation": "036",
    "units": "036",
    "delimitation": "28/13/08/036",
    "remark": "NEW PU",
    "ward_id": "17640",
    "ward_name": "ODIGBO",
    "local_government_id": "594",
    "local_government_name": "ODIGBO",
    "state_id": "28",
    "state_name": "ONDO",
    "location": {
      "latitude": 36.841377,
      "longitude": -76.18987700000001,
      "viewport": {
        "northeast": {
          "lat": 36.84268177989272,
          "lng": -76.18849387010728
        },
        "southwest": {
          "lat": 36.83998212010728,
          "lng": -76.19119352989273
        }
      },
      "formatted_address": "Norfolk, VA 23502, United States",
      "google_map_url": "https://maps.google.com?q=36.841377,-76.18987700000001",
      "google_place_id": "ChIJQy6xxA-WuokRR1pzsG5YEWQ"
    }
  },
  {
    "id": "347246",
    "name": "OPEN SPACE ADJACENT TERMINAL HOTEL ROAD, NEW TOWN, ODIGBO",
    "registration_area_id": "17640",
    "precise_location": null,
    "abbreviation": "037",
    "units": "037",
    "delimitation": "28/13/08/037",
    "remark": "NEW PU",
    "ward_id": "17640",
    "ward_name": "ODIGBO",
    "local_government_id": "594",
    "local_government_name": "ODIGBO",
    "state_id": "28",
    "state_name": "ONDO",
    "location": {
      "latitude": 6.7963013,
      "longitude": 4.8711213,
      "viewport": {
        "northeast": {
          "lat": 6.797663429892722,
          "lng": 4.872498679892723
        },
        "southwest": {
          "lat": 6.794963770107278,
          "lng": 4.869799020107279
        }
      },
      "formatted_address": "1, Oluwole Street, Ore, Nigeria",
      "google_map_url": "https://maps.google.com?q=6.7963013,4.8711213",
      "google_place_id": "ChIJMfK07jiXOBAR5UF8TXPDyx8"
    }
  },
  {
    "id": "347247",
    "name": "OPEN SPACE BY OLORUNSOGO STREET, ODIGBO CENTRE AREA",
    "registration_area_id": "17640",
    "precise_location": null,
    "abbreviation": "038",
    "units": "038",
    "delimitation": "28/13/08/038",
    "remark": "NEW PU",
    "ward_id": "17640",
    "ward_name": "ODIGBO",
    "local_government_id": "594",
    "local_government_name": "ODIGBO",
    "state_id": "28",
    "state_name": "ONDO",
    "location": {
      "latitude": 6.751830399999999,
      "longitude": 4.8777903,
      "viewport": {
        "northeast": {
          "lat": 6.753154879892722,
          "lng": 4.879174179892721
        },
        "southwest": {
          "lat": 6.750455220107278,
          "lng": 4.876474520107277
        }
      },
      "formatted_address": "350107, Ore, Nigeria",
      "google_map_url": "https://maps.google.com?q=6.751830399999999,4.8777903",
      "google_place_id": "ChIJAQAAAJSXOBARFcLOKAqn9f4"
    }
  },
  {
    "id": "347248",
    "name": "BY BUS STOP OPP. OLOJA'S HOUSE, OMIFON",
    "registration_area_id": "17640",
    "precise_location": null,
    "abbreviation": "039",
    "units": "039",
    "delimitation": "28/13/08/039",
    "remark": "NEW PU",
    "ward_id": "17640",
    "ward_name": "ODIGBO",
    "local_government_id": "594",
    "local_government_name": "ODIGBO",
    "state_id": "28",
    "state_name": "ONDO",
    "location": {
      "latitude": 6.751830399999999,
      "longitude": 4.8777903,
      "viewport": {
        "northeast": {
          "lat": 6.753154879892722,
          "lng": 4.879174179892721
        },
        "southwest": {
          "lat": 6.750455220107278,
          "lng": 4.876474520107277
        }
      },
      "formatted_address": "350107, Ore, Nigeria",
      "google_map_url": "https://maps.google.com?q=6.751830399999999,4.8777903",
      "google_place_id": "ChIJAQAAAJSXOBARFcLOKAqn9f4"
    }
  },
  {
    "id": "347249",
    "name": "OPEN SPACE UNDER TREE OPP. SAMWAGBA SCH. OMIFON",
    "registration_area_id": "17640",
    "precise_location": null,
    "abbreviation": "040",
    "units": "040",
    "delimitation": "28/13/08/040",
    "remark": "NEW PU",
    "ward_id": "17640",
    "ward_name": "ODIGBO",
    "local_government_id": "594",
    "local_government_name": "ODIGBO",
    "state_id": "28",
    "state_name": "ONDO",
    "location": {
      "latitude": 6.7301211,
      "longitude": 4.8786342,
      "viewport": {
        "northeast": {
          "lat": 6.731477579892721,
          "lng": 4.879986579892722
        },
        "southwest": {
          "lat": 6.728777920107277,
          "lng": 4.877286920107278
        }
      },
      "formatted_address": "6°43'48. 4°52'43., 4\"N Akpakpava Rd, Benin City, Nigeria",
      "google_map_url": "https://maps.google.com?q=6.7301211,4.8786342",
      "google_place_id": "ChIJ5WSk8OOXOBARxMaUlWKAM3E"
    }
  },
  {
    "id": "347250",
    "name": "OPEN SPACE BY UNDER TREE ADJACENT ADEYINKA PRY. SCHL. OMIFON",
    "registration_area_id": "17640",
    "precise_location": null,
    "abbreviation": "041",
    "units": "041",
    "delimitation": "28/13/08/041",
    "remark": "NEW PU",
    "ward_id": "17640",
    "ward_name": "ODIGBO",
    "local_government_id": "594",
    "local_government_name": "ODIGBO",
    "state_id": "28",
    "state_name": "ONDO",
    "location": null
  },
  {
    "id": "347251",
    "name": "OPEN SPACE ADJACENT TRANSFORMER OFF HERITAGE ACADEMY SCHL. JUNCTION, ALAGBEDE",
    "registration_area_id": "17640",
    "precise_location": null,
    "abbreviation": "042",
    "units": "042",
    "delimitation": "28/13/08/042",
    "remark": "NEW PU",
    "ward_id": "17640",
    "ward_name": "ODIGBO",
    "local_government_id": "594",
    "local_government_name": "ODIGBO",
    "state_id": "28",
    "state_name": "ONDO",
    "location": {
      "latitude": 6.492709199999999,
      "longitude": 4.7911005,
      "viewport": {
        "northeast": {
          "lat": 6.494066579892722,
          "lng": 4.792450329892722
        },
        "southwest": {
          "lat": 6.491366920107278,
          "lng": 4.789750670107278
        }
      },
      "formatted_address": "FQVR+3CQ, Off Ikoya Road, Opposite Army Barrack, Okitipupa, Nigeria",
      "google_map_url": "https://maps.google.com?q=6.492709199999999,4.7911005",
      "google_place_id": "ChIJlRCdFMC2OBAROqfgzIj9jb4"
    }
  },
  {
    "id": "347252",
    "name": "OPEN SPACE UNDER CASHEW TREE ADJACENT CAC JUNCTION,  ALONG ALAGBEDE ROAD, ALAGBEDE",
    "registration_area_id": "17640",
    "precise_location": null,
    "abbreviation": "043",
    "units": "043",
    "delimitation": "28/13/08/043",
    "remark": "NEW PU",
    "ward_id": "17640",
    "ward_name": "ODIGBO",
    "local_government_id": "594",
    "local_government_name": "ODIGBO",
    "state_id": "28",
    "state_name": "ONDO",
    "location": null
  },
  {
    "id": "347253",
    "name": "OPEN SPACE OPP. CUSTOMARY COURT, ORITA-OJO",
    "registration_area_id": "17640",
    "precise_location": null,
    "abbreviation": "044",
    "units": "044",
    "delimitation": "28/13/08/044",
    "remark": "NEW PU",
    "ward_id": "17640",
    "ward_name": "ODIGBO",
    "local_government_id": "594",
    "local_government_name": "ODIGBO",
    "state_id": "28",
    "state_name": "ONDO",
    "location": null
  },
  {
    "id": "347254",
    "name": "OPEN SPACE BY OYF BUS STOP, ORITA-OJO",
    "registration_area_id": "17640",
    "precise_location": null,
    "abbreviation": "045",
    "units": "045",
    "delimitation": "28/13/08/045",
    "remark": "NEW PU",
    "ward_id": "17640",
    "ward_name": "ODIGBO",
    "local_government_id": "594",
    "local_government_name": "ODIGBO",
    "state_id": "28",
    "state_name": "ONDO",
    "location": {
      "latitude": 7.2334096,
      "longitude": 5.1991966,
      "viewport": {
        "northeast": {
          "lat": 7.234766079892722,
          "lng": 5.200567129892723
        },
        "southwest": {
          "lat": 7.232066420107278,
          "lng": 5.197867470107278
        }
      },
      "formatted_address": "340283, Akure, Nigeria",
      "google_map_url": "https://maps.google.com?q=7.2334096,5.1991966",
      "google_place_id": "ChIJnwntSWKFRxAROyap06UH-jg"
    }
  },
  {
    "id": "347255",
    "name": "AT. FED. MIN. OF WORKS QUARTERS GATE OPP. GIDANDAYO FILLING STATION, ORITA",
    "registration_area_id": "17640",
    "precise_location": null,
    "abbreviation": "046",
    "units": "046",
    "delimitation": "28/13/08/046",
    "remark": "NEW PU",
    "ward_id": "17640",
    "ward_name": "ODIGBO",
    "local_government_id": "594",
    "local_government_name": "ODIGBO",
    "state_id": "28",
    "state_name": "ONDO",
    "location": {
      "latitude": 6.788277,
      "longitude": 4.873025999999999,
      "viewport": {
        "northeast": {
          "lat": 6.789629079892722,
          "lng": 4.874441979892722
        },
        "southwest": {
          "lat": 6.786929420107279,
          "lng": 4.871742320107278
        }
      },
      "formatted_address": "QVQF+866, Ore-Ondo Rd, 350107, Odigbo, Nigeria",
      "google_map_url": "https://maps.google.com?q=6.788277,4.873025999999999",
      "google_place_id": "ChIJyawYs2qXOBARQDX5BMuWQnM"
    }
  },
  {
    "id": "347256",
    "name": "OPP. SPACE OPP MARKET, OWOBAMBO VILLAGE",
    "registration_area_id": "17640",
    "precise_location": null,
    "abbreviation": "047",
    "units": "047",
    "delimitation": "28/13/08/047",
    "remark": "NEW PU",
    "ward_id": "17640",
    "ward_name": "ODIGBO",
    "local_government_id": "594",
    "local_government_name": "ODIGBO",
    "state_id": "28",
    "state_name": "ONDO",
    "location": {
      "latitude": 6.751830399999999,
      "longitude": 4.8777903,
      "viewport": {
        "northeast": {
          "lat": 6.753154879892722,
          "lng": 4.879174179892721
        },
        "southwest": {
          "lat": 6.750455220107278,
          "lng": 4.876474520107277
        }
      },
      "formatted_address": "350107, Ore, Nigeria",
      "google_map_url": "https://maps.google.com?q=6.751830399999999,4.8777903",
      "google_place_id": "ChIJAQAAAJSXOBARFcLOKAqn9f4"
    }
  },
  {
    "id": "347257",
    "name": "IWOFUN BY MARKET AREA AKINFOLARIN VILLAGE",
    "registration_area_id": "17640",
    "precise_location": null,
    "abbreviation": "048",
    "units": "048",
    "delimitation": "28/13/08/048",
    "remark": "NEW PU",
    "ward_id": "17640",
    "ward_name": "ODIGBO",
    "local_government_id": "594",
    "local_government_name": "ODIGBO",
    "state_id": "28",
    "state_name": "ONDO",
    "location": {
      "latitude": 6.7952467,
      "longitude": 4.8718964,
      "viewport": {
        "northeast": {
          "lat": 6.796537029892722,
          "lng": 4.873100129892721
        },
        "southwest": {
          "lat": 6.793837370107278,
          "lng": 4.870400470107278
        }
      },
      "formatted_address": "QVWC+3QR, 350107, Odigbo, Nigeria",
      "google_map_url": "https://maps.google.com?q=6.7952467,4.8718964",
      "google_place_id": "ChIJcaGksDiXOBAR6B8RFDjgdVI"
    }
  },
  {
    "id": "347258",
    "name": "OPEN SPACE IN FRONT OF TEMIDIRE ZION CHURCH, OKE-ODO, AKINFOLARIN",
    "registration_area_id": "17640",
    "precise_location": null,
    "abbreviation": "049",
    "units": "049",
    "delimitation": "28/13/08/049",
    "remark": "NEW PU",
    "ward_id": "17640",
    "ward_name": "ODIGBO",
    "local_government_id": "594",
    "local_government_name": "ODIGBO",
    "state_id": "28",
    "state_name": "ONDO",
    "location": {
      "latitude": 6.794646699999999,
      "longitude": 4.8677039,
      "viewport": {
        "northeast": {
          "lat": 6.796033079892722,
          "lng": 4.869055729892722
        },
        "southwest": {
          "lat": 6.793333420107278,
          "lng": 4.866356070107278
        }
      },
      "formatted_address": "QVV9+V34, 350107, Odigbo, Nigeria",
      "google_map_url": "https://maps.google.com?q=6.794646699999999,4.8677039",
      "google_place_id": "ChIJ4U1ON_SXOBARzUY7BuI-V5c"
    }
  },
  {
    "id": "347259",
    "name": "COMMUNITY PRY SCHOOL, AGO-IBADAN",
    "registration_area_id": "17640",
    "precise_location": null,
    "abbreviation": "050",
    "units": "050",
    "delimitation": "28/13/08/050",
    "remark": "NEW PU",
    "ward_id": "17640",
    "ward_name": "ODIGBO",
    "local_government_id": "594",
    "local_government_name": "ODIGBO",
    "state_id": "28",
    "state_name": "ONDO",
    "location": {
      "latitude": 6.788973899999999,
      "longitude": 4.8791574,
      "viewport": {
        "northeast": {
          "lat": 6.790386029892722,
          "lng": 4.880601379892722
        },
        "southwest": {
          "lat": 6.787686370107278,
          "lng": 4.877901720107278
        }
      },
      "formatted_address": "QVQH+HMM, 350107, Odigbo, Nigeria",
      "google_map_url": "https://maps.google.com?q=6.788973899999999,4.8791574",
      "google_place_id": "ChIJR5_m4GmXOBARnz2Sr5uggWM"
    }
  }
]