[
  {
    "id": "81295",
    "name": "UNG. CHIROMA/ PRI. SCH. GARU",
    "registration_area_id": "4260",
    "precise_location": null,
    "abbreviation": "001",
    "units": "001",
    "delimitation": "18/16/04/001",
    "remark": "EXISTING PU",
    "ward_id": "4260",
    "ward_name": "GARU",
    "local_government_id": "362",
    "local_government_name": "KUDAN",
    "state_id": "18",
    "state_name": "KADUNA",
    "location": {
      "latitude": 11.2559677,
      "longitude": 7.7069221,
      "viewport": {
        "northeast": {
          "lat": 11.25726537989272,
          "lng": 7.708318029892721
        },
        "southwest": {
          "lat": 11.25456572010728,
          "lng": 7.705618370107277
        }
      },
      "formatted_address": "7F397P44+CP8 Ung Chiroma Primary School, 812104, Kaduna, Nigeria",
      "google_map_url": "https://maps.google.com?q=11.2559677,7.7069221",
      "google_place_id": "ChIJI8QKmA9-shERTJe8NZ_hnJY"
    }
  },
  {
    "id": "81296",
    "name": "UNG. WAZIRI/ KGM WAZIRI",
    "registration_area_id": "4260",
    "precise_location": null,
    "abbreviation": "002",
    "units": "002",
    "delimitation": "18/16/04/002",
    "remark": "EXISTING PU",
    "ward_id": "4260",
    "ward_name": "GARU",
    "local_government_id": "362",
    "local_government_name": "KUDAN",
    "state_id": "18",
    "state_name": "KADUNA",
    "location": {
      "latitude": 11.2747215,
      "longitude": 7.653954700000001,
      "viewport": {
        "northeast": {
          "lat": 11.27628127989272,
          "lng": 7.655179629892721
        },
        "southwest": {
          "lat": 11.27358162010728,
          "lng": 7.652479970107277
        }
      },
      "formatted_address": "7MF3+VHP, 812104, Hunkuyi, Nigeria",
      "google_map_url": "https://maps.google.com?q=11.2747215,7.653954700000001",
      "google_place_id": "ChIJe7yyxQl9shER5Dz8KCRn3HI"
    }
  },
  {
    "id": "81297",
    "name": "UNG. MADAKI/ KGM MADAKI",
    "registration_area_id": "4260",
    "precise_location": null,
    "abbreviation": "003",
    "units": "003",
    "delimitation": "18/16/04/003",
    "remark": "EXISTING PU",
    "ward_id": "4260",
    "ward_name": "GARU",
    "local_government_id": "362",
    "local_government_name": "KUDAN",
    "state_id": "18",
    "state_name": "KADUNA",
    "location": {
      "latitude": 11.2747215,
      "longitude": 7.653954700000001,
      "viewport": {
        "northeast": {
          "lat": 11.27628127989272,
          "lng": 7.655179629892721
        },
        "southwest": {
          "lat": 11.27358162010728,
          "lng": 7.652479970107277
        }
      },
      "formatted_address": "7MF3+VHP, 812104, Hunkuyi, Nigeria",
      "google_map_url": "https://maps.google.com?q=11.2747215,7.653954700000001",
      "google_place_id": "ChIJe7yyxQl9shER5Dz8KCRn3HI"
    }
  },
  {
    "id": "81298",
    "name": "GARU II/ KGM GARU",
    "registration_area_id": "4260",
    "precise_location": null,
    "abbreviation": "004",
    "units": "004",
    "delimitation": "18/16/04/004",
    "remark": "EXISTING PU",
    "ward_id": "4260",
    "ward_name": "GARU",
    "local_government_id": "362",
    "local_government_name": "KUDAN",
    "state_id": "18",
    "state_name": "KADUNA",
    "location": {
      "latitude": 11.2747215,
      "longitude": 7.653954700000001,
      "viewport": {
        "northeast": {
          "lat": 11.27628127989272,
          "lng": 7.655179629892721
        },
        "southwest": {
          "lat": 11.27358162010728,
          "lng": 7.652479970107277
        }
      },
      "formatted_address": "7MF3+VHP, 812104, Hunkuyi, Nigeria",
      "google_map_url": "https://maps.google.com?q=11.2747215,7.653954700000001",
      "google_place_id": "ChIJe7yyxQl9shER5Dz8KCRn3HI"
    }
  },
  {
    "id": "81299",
    "name": "LAFIYA GARI I/ PRI. SCH. LAFIYA",
    "registration_area_id": "4260",
    "precise_location": null,
    "abbreviation": "005",
    "units": "005",
    "delimitation": "18/16/04/005",
    "remark": "EXISTING PU",
    "ward_id": "4260",
    "ward_name": "GARU",
    "local_government_id": "362",
    "local_government_name": "KUDAN",
    "state_id": "18",
    "state_name": "KADUNA",
    "location": {
      "latitude": 11.2476828,
      "longitude": 7.7478455,
      "viewport": {
        "northeast": {
          "lat": 11.24896837989272,
          "lng": 7.749156979892721
        },
        "southwest": {
          "lat": 11.24626872010728,
          "lng": 7.746457320107277
        }
      },
      "formatted_address": "7F396PXX+24C, Lafiya Rd, 800282, Kaduna, Nigeria",
      "google_map_url": "https://maps.google.com?q=11.2476828,7.7478455",
      "google_place_id": "ChIJ2YXWXrF_shERTojgCJl--Vo"
    }
  },
  {
    "id": "81300",
    "name": "UNG. DANBIRNI/ KGM DANBIRNI",
    "registration_area_id": "4260",
    "precise_location": null,
    "abbreviation": "006",
    "units": "006",
    "delimitation": "18/16/04/006",
    "remark": "EXISTING PU",
    "ward_id": "4260",
    "ward_name": "GARU",
    "local_government_id": "362",
    "local_government_name": "KUDAN",
    "state_id": "18",
    "state_name": "KADUNA",
    "location": {
      "latitude": 11.2747215,
      "longitude": 7.653954700000001,
      "viewport": {
        "northeast": {
          "lat": 11.27628127989272,
          "lng": 7.655179629892721
        },
        "southwest": {
          "lat": 11.27358162010728,
          "lng": 7.652479970107277
        }
      },
      "formatted_address": "7MF3+VHP, 812104, Hunkuyi, Nigeria",
      "google_map_url": "https://maps.google.com?q=11.2747215,7.653954700000001",
      "google_place_id": "ChIJe7yyxQl9shER5Dz8KCRn3HI"
    }
  },
  {
    "id": "81301",
    "name": "LAFIYA GARI II/ PRI. SCH. LAFIYA",
    "registration_area_id": "4260",
    "precise_location": null,
    "abbreviation": "007",
    "units": "007",
    "delimitation": "18/16/04/007",
    "remark": "EXISTING PU",
    "ward_id": "4260",
    "ward_name": "GARU",
    "local_government_id": "362",
    "local_government_name": "KUDAN",
    "state_id": "18",
    "state_name": "KADUNA",
    "location": {
      "latitude": 11.2476828,
      "longitude": 7.7478455,
      "viewport": {
        "northeast": {
          "lat": 11.24896837989272,
          "lng": 7.749156979892721
        },
        "southwest": {
          "lat": 11.24626872010728,
          "lng": 7.746457320107277
        }
      },
      "formatted_address": "7F396PXX+24C, Lafiya Rd, 800282, Kaduna, Nigeria",
      "google_map_url": "https://maps.google.com?q=11.2476828,7.7478455",
      "google_place_id": "ChIJ2YXWXrF_shERTojgCJl--Vo"
    }
  },
  {
    "id": "81302",
    "name": "UNG. MALAMAI/ KGM MALAMAI",
    "registration_area_id": "4260",
    "precise_location": null,
    "abbreviation": "008",
    "units": "008",
    "delimitation": "18/16/04/008",
    "remark": "EXISTING PU",
    "ward_id": "4260",
    "ward_name": "GARU",
    "local_government_id": "362",
    "local_government_name": "KUDAN",
    "state_id": "18",
    "state_name": "KADUNA",
    "location": {
      "latitude": 11.2747215,
      "longitude": 7.653954700000001,
      "viewport": {
        "northeast": {
          "lat": 11.27628127989272,
          "lng": 7.655179629892721
        },
        "southwest": {
          "lat": 11.27358162010728,
          "lng": 7.652479970107277
        }
      },
      "formatted_address": "7MF3+VHP, 812104, Hunkuyi, Nigeria",
      "google_map_url": "https://maps.google.com?q=11.2747215,7.653954700000001",
      "google_place_id": "ChIJe7yyxQl9shER5Dz8KCRn3HI"
    }
  },
  {
    "id": "81303",
    "name": "UNG. WALI/ KGM WALI",
    "registration_area_id": "4260",
    "precise_location": null,
    "abbreviation": "009",
    "units": "009",
    "delimitation": "18/16/04/009",
    "remark": "EXISTING PU",
    "ward_id": "4260",
    "ward_name": "GARU",
    "local_government_id": "362",
    "local_government_name": "KUDAN",
    "state_id": "18",
    "state_name": "KADUNA",
    "location": null
  },
  {
    "id": "81304",
    "name": "UNG. WAZIRI II/ KGM WAZIRI",
    "registration_area_id": "4260",
    "precise_location": null,
    "abbreviation": "010",
    "units": "010",
    "delimitation": "18/16/04/010",
    "remark": "EXISTING PU",
    "ward_id": "4260",
    "ward_name": "GARU",
    "local_government_id": "362",
    "local_government_name": "KUDAN",
    "state_id": "18",
    "state_name": "KADUNA",
    "location": {
      "latitude": 11.2747215,
      "longitude": 7.653954700000001,
      "viewport": {
        "northeast": {
          "lat": 11.27628127989272,
          "lng": 7.655179629892721
        },
        "southwest": {
          "lat": 11.27358162010728,
          "lng": 7.652479970107277
        }
      },
      "formatted_address": "7MF3+VHP, 812104, Hunkuyi, Nigeria",
      "google_map_url": "https://maps.google.com?q=11.2747215,7.653954700000001",
      "google_place_id": "ChIJe7yyxQl9shER5Dz8KCRn3HI"
    }
  }
]