[
  {
    "id": "100603",
    "name": "KAWARE AREWA - PRI.SCHOOL",
    "registration_area_id": "5112",
    "precise_location": null,
    "abbreviation": "001",
    "units": "001",
    "delimitation": "20/27/06/001",
    "remark": "EXISTING PU",
    "ward_id": "5112",
    "ward_name": "SONKAYA",
    "local_government_id": "440",
    "local_government_name": "MASHI",
    "state_id": "20",
    "state_name": "KATSINA",
    "location": {
      "latitude": 11.4623786,
      "longitude": 7.1174535,
      "viewport": {
        "northeast": {
          "lat": 11.46344032989272,
          "lng": 7.118797279892722
        },
        "southwest": {
          "lat": 11.46074067010728,
          "lng": 7.116097620107278
        }
      },
      "formatted_address": "F468+XX4, 830103, Dan Dume, Nigeria",
      "google_map_url": "https://maps.google.com?q=11.4623786,7.1174535",
      "google_place_id": "ChIJwwZO5xRNshERB0wvMjgVNYg"
    }
  },
  {
    "id": "100604",
    "name": "KAWARE KUDU - K/G. KAWARE",
    "registration_area_id": "5112",
    "precise_location": null,
    "abbreviation": "002",
    "units": "002",
    "delimitation": "20/27/06/002",
    "remark": "EXISTING PU",
    "ward_id": "5112",
    "ward_name": "SONKAYA",
    "local_government_id": "440",
    "local_government_name": "MASHI",
    "state_id": "20",
    "state_name": "KATSINA",
    "location": null
  },
  {
    "id": "100605",
    "name": "SANKAYA KUDU - DISPENSARY",
    "registration_area_id": "5112",
    "precise_location": null,
    "abbreviation": "003",
    "units": "003",
    "delimitation": "20/27/06/003",
    "remark": "EXISTING PU",
    "ward_id": "5112",
    "ward_name": "SONKAYA",
    "local_government_id": "440",
    "local_government_name": "MASHI",
    "state_id": "20",
    "state_name": "KATSINA",
    "location": null
  },
  {
    "id": "100606",
    "name": "KOFAI ABUJA PRI.SCHOOL",
    "registration_area_id": "5112",
    "precise_location": null,
    "abbreviation": "004",
    "units": "004",
    "delimitation": "20/27/06/004",
    "remark": "EXISTING PU",
    "ward_id": "5112",
    "ward_name": "SONKAYA",
    "local_government_id": "440",
    "local_government_name": "MASHI",
    "state_id": "20",
    "state_name": "KATSINA",
    "location": {
      "latitude": 12.967111,
      "longitude": 7.650070099999999,
      "viewport": {
        "northeast": {
          "lat": 12.96848242989272,
          "lng": 7.651439629892723
        },
        "southwest": {
          "lat": 12.96578277010728,
          "lng": 7.648739970107279
        }
      },
      "formatted_address": "behind NYSC Camp, 820102, Katsina, Nigeria",
      "google_map_url": "https://maps.google.com?q=12.967111,7.650070099999999",
      "google_place_id": "ChIJa7VRDyMlsBER0UFiENvlRvg"
    }
  },
  {
    "id": "100607",
    "name": "MASHANYA - PRI.SCHOOL",
    "registration_area_id": "5112",
    "precise_location": null,
    "abbreviation": "005",
    "units": "005",
    "delimitation": "20/27/06/005",
    "remark": "EXISTING PU",
    "ward_id": "5112",
    "ward_name": "SONKAYA",
    "local_government_id": "440",
    "local_government_name": "MASHI",
    "state_id": "20",
    "state_name": "KATSINA",
    "location": {
      "latitude": 12.9838537,
      "longitude": 7.6185781,
      "viewport": {
        "northeast": {
          "lat": 12.98521437989272,
          "lng": 7.619910029892722
        },
        "southwest": {
          "lat": 12.98251472010728,
          "lng": 7.617210370107278
        }
      },
      "formatted_address": "Mashi Cres, 820101, Katsina, Nigeria",
      "google_map_url": "https://maps.google.com?q=12.9838537,7.6185781",
      "google_place_id": "ChIJJcPTRE4jsBERkAX79R0uP54"
    }
  },
  {
    "id": "100608",
    "name": "UNG.DUHU - K/G DUHU",
    "registration_area_id": "5112",
    "precise_location": null,
    "abbreviation": "006",
    "units": "006",
    "delimitation": "20/27/06/006",
    "remark": "EXISTING PU",
    "ward_id": "5112",
    "ward_name": "SONKAYA",
    "local_government_id": "440",
    "local_government_name": "MASHI",
    "state_id": "20",
    "state_name": "KATSINA",
    "location": null
  },
  {
    "id": "100609",
    "name": "RINIYAL - K.G RINIYAL",
    "registration_area_id": "5112",
    "precise_location": null,
    "abbreviation": "007",
    "units": "007",
    "delimitation": "20/27/06/007",
    "remark": "EXISTING PU",
    "ward_id": "5112",
    "ward_name": "SONKAYA",
    "local_government_id": "440",
    "local_government_name": "MASHI",
    "state_id": "20",
    "state_name": "KATSINA",
    "location": null
  },
  {
    "id": "100610",
    "name": "TONA - TASHAR KALGO",
    "registration_area_id": "5112",
    "precise_location": null,
    "abbreviation": "008",
    "units": "008",
    "delimitation": "20/27/06/008",
    "remark": "EXISTING PU",
    "ward_id": "5112",
    "ward_name": "SONKAYA",
    "local_government_id": "440",
    "local_government_name": "MASHI",
    "state_id": "20",
    "state_name": "KATSINA",
    "location": {
      "latitude": 12.9870653,
      "longitude": 7.6112523,
      "viewport": {
        "northeast": {
          "lat": 12.98859082989272,
          "lng": 7.612642129892722
        },
        "southwest": {
          "lat": 12.98589117010728,
          "lng": 7.609942470107278
        }
      },
      "formatted_address": "Abdullahi Sarki Muktar Road, 820101, Katsina, Nigeria",
      "google_map_url": "https://maps.google.com?q=12.9870653,7.6112523",
      "google_place_id": "ChIJYS26U7M8sBERgKous7Fjcpw"
    }
  },
  {
    "id": "100611",
    "name": "SONKAYA AREWA/PRI.SCHOOL",
    "registration_area_id": "5112",
    "precise_location": null,
    "abbreviation": "009",
    "units": "009",
    "delimitation": "20/27/06/009",
    "remark": "EXISTING PU",
    "ward_id": "5112",
    "ward_name": "SONKAYA",
    "local_government_id": "440",
    "local_government_name": "MASHI",
    "state_id": "20",
    "state_name": "KATSINA",
    "location": {
      "latitude": 12.9838537,
      "longitude": 7.6185781,
      "viewport": {
        "northeast": {
          "lat": 12.98521437989272,
          "lng": 7.619910029892722
        },
        "southwest": {
          "lat": 12.98251472010728,
          "lng": 7.617210370107278
        }
      },
      "formatted_address": "Mashi Cres, 820101, Katsina, Nigeria",
      "google_map_url": "https://maps.google.com?q=12.9838537,7.6185781",
      "google_place_id": "ChIJJcPTRE4jsBERkAX79R0uP54"
    }
  },
  {
    "id": "100612",
    "name": "S.GARI/PRI.SCHOOL",
    "registration_area_id": "5112",
    "precise_location": null,
    "abbreviation": "010",
    "units": "010",
    "delimitation": "20/27/06/010",
    "remark": "EXISTING PU",
    "ward_id": "5112",
    "ward_name": "SONKAYA",
    "local_government_id": "440",
    "local_government_name": "MASHI",
    "state_id": "20",
    "state_name": "KATSINA",
    "location": {
      "latitude": 12.967111,
      "longitude": 7.650070099999999,
      "viewport": {
        "northeast": {
          "lat": 12.96848242989272,
          "lng": 7.651439629892723
        },
        "southwest": {
          "lat": 12.96578277010728,
          "lng": 7.648739970107279
        }
      },
      "formatted_address": "behind NYSC Camp, 820102, Katsina, Nigeria",
      "google_map_url": "https://maps.google.com?q=12.967111,7.650070099999999",
      "google_place_id": "ChIJa7VRDyMlsBER0UFiENvlRvg"
    }
  },
  {
    "id": "100613",
    "name": "SONKAYA TV CENTRE",
    "registration_area_id": "5112",
    "precise_location": null,
    "abbreviation": "011",
    "units": "011",
    "delimitation": "20/27/06/011",
    "remark": "NEW PU",
    "ward_id": "5112",
    "ward_name": "SONKAYA",
    "local_government_id": "440",
    "local_government_name": "MASHI",
    "state_id": "20",
    "state_name": "KATSINA",
    "location": {
      "latitude": 12.9882939,
      "longitude": 7.6039204,
      "viewport": {
        "northeast": {
          "lat": 12.98968242989272,
          "lng": 7.605262229892721
        },
        "southwest": {
          "lat": 12.98698277010728,
          "lng": 7.602562570107277
        }
      },
      "formatted_address": "XJQ3+8H7, 820101, Katsina, Nigeria",
      "google_map_url": "https://maps.google.com?q=12.9882939,7.6039204",
      "google_place_id": "ChIJidzE0bY8sBERM9k4abovxgo"
    }
  },
  {
    "id": "100614",
    "name": "SONKAYA SECONDARY SCHOOL",
    "registration_area_id": "5112",
    "precise_location": null,
    "abbreviation": "012",
    "units": "012",
    "delimitation": "20/27/06/012",
    "remark": "NEW PU",
    "ward_id": "5112",
    "ward_name": "SONKAYA",
    "local_government_id": "440",
    "local_government_name": "MASHI",
    "state_id": "20",
    "state_name": "KATSINA",
    "location": {
      "latitude": 13.0153446,
      "longitude": 7.621895599999999,
      "viewport": {
        "northeast": {
          "lat": 13.01666932989272,
          "lng": 7.623264979892722
        },
        "southwest": {
          "lat": 13.01396967010728,
          "lng": 7.620565320107278
        }
      },
      "formatted_address": "2J8C+4QJ, Kaita Rd, 820101, Katsina, Nigeria",
      "google_map_url": "https://maps.google.com?q=13.0153446,7.621895599999999",
      "google_place_id": "ChIJbdjSBSgjsBERj6wHNZDwuug"
    }
  }
]