[
  {
    "id": "113289",
    "name": "AKOWONJO BEN JUNCTION",
    "registration_area_id": "5869",
    "precise_location": null,
    "abbreviation": "001",
    "units": "001",
    "delimitation": "24/03/01/001",
    "remark": "EXISTING PU",
    "ward_id": "5869",
    "ward_name": "SHASHA/AKOWONJO",
    "local_government_id": "508",
    "local_government_name": "ALIMOSHO",
    "state_id": "24",
    "state_name": "LAGOS",
    "location": {
      "latitude": 6.5835462,
      "longitude": 3.2936999,
      "viewport": {
        "northeast": {
          "lat": 6.584898129892721,
          "lng": 3.295030329892723
        },
        "southwest": {
          "lat": 6.582198470107278,
          "lng": 3.292330670107278
        }
      },
      "formatted_address": "H7MV+CCG, Akowonjo 102213, Ikeja, Nigeria",
      "google_map_url": "https://maps.google.com?q=6.5835462,3.2936999",
      "google_place_id": "ChIJq6qqqjaQOxARqoBiFIQ4TFs"
    }
  },
  {
    "id": "113290",
    "name": "6, BEN STREET AKOWONJO",
    "registration_area_id": "5869",
    "precise_location": null,
    "abbreviation": "002",
    "units": "002",
    "delimitation": "24/03/01/002",
    "remark": "EXISTING PU",
    "ward_id": "5869",
    "ward_name": "SHASHA/AKOWONJO",
    "local_government_id": "508",
    "local_government_name": "ALIMOSHO",
    "state_id": "24",
    "state_name": "LAGOS",
    "location": {
      "latitude": 6.589629599999999,
      "longitude": 3.307223,
      "viewport": {
        "northeast": {
          "lat": 6.59097942989272,
          "lng": 3.308572829892722
        },
        "southwest": {
          "lat": 6.588279770107277,
          "lng": 3.305873170107278
        }
      },
      "formatted_address": "6 Ben St, Egbeda 102213, Lagos, Nigeria",
      "google_map_url": "https://maps.google.com?q=6.589629599999999,3.307223",
      "google_place_id": "Eic2IEJlbiBTdCwgRWdiZWRhIDEwMjIxMywgTGFnb3MsIE5pZ2VyaWEiMBIuChQKEgkrA2vqt5E7EBH9kAvBvqI_axAGKhQKEgkNPHTrt5E7EBGEpZPvazjhIg"
    }
  },
  {
    "id": "113291",
    "name": "OYINLOLA AKOWONJO JUNCTION",
    "registration_area_id": "5869",
    "precise_location": null,
    "abbreviation": "003",
    "units": "003",
    "delimitation": "24/03/01/003",
    "remark": "EXISTING PU",
    "ward_id": "5869",
    "ward_name": "SHASHA/AKOWONJO",
    "local_government_id": "508",
    "local_government_name": "ALIMOSHO",
    "state_id": "24",
    "state_name": "LAGOS",
    "location": {
      "latitude": 6.602306899999999,
      "longitude": 3.3062236,
      "viewport": {
        "northeast": {
          "lat": 6.603656729892722,
          "lng": 3.307573429892723
        },
        "southwest": {
          "lat": 6.600957070107278,
          "lng": 3.304873770107278
        }
      },
      "formatted_address": "Akowonjo Rd & Oyinlola St, Egbeda 102213, Lagos, Nigeria",
      "google_map_url": "https://maps.google.com?q=6.602306899999999,3.3062236",
      "google_place_id": "EjhBa293b25qbyBSZCAmIE95aW5sb2xhIFN0LCBFZ2JlZGEgMTAyMjEzLCBBZ2VnZSwgTmlnZXJpYSJmImQKFAoSCWVcywGvkTsQEUepc0p0eaqGEhQKEgllXMsBr5E7EBFHqXNKdHmqhhoUChIJochK-K6ROxARO43FWfFsy6IaFAoSCelVZK2vkTsQERu8Nheli7n9IgoNnW7vAxVcffgB"
    }
  },
  {
    "id": "113292",
    "name": "IREPODUN OGUNBIYI JUNCTION",
    "registration_area_id": "5869",
    "precise_location": null,
    "abbreviation": "004",
    "units": "004",
    "delimitation": "24/03/01/004",
    "remark": "EXISTING PU",
    "ward_id": "5869",
    "ward_name": "SHASHA/AKOWONJO",
    "local_government_id": "508",
    "local_government_name": "ALIMOSHO",
    "state_id": "24",
    "state_name": "LAGOS",
    "location": {
      "latitude": 6.600440499999999,
      "longitude": 3.3090655,
      "viewport": {
        "northeast": {
          "lat": 6.601790529892721,
          "lng": 3.310354379892722
        },
        "southwest": {
          "lat": 6.599090870107277,
          "lng": 3.307654720107278
        }
      },
      "formatted_address": "49/51, Shasha Road, Akowonjo, Alimosho, Lagos Nigeria, Akowonjo, Lagos, Nigeria",
      "google_map_url": "https://maps.google.com?q=6.600440499999999,3.3090655",
      "google_place_id": "ChIJIY9mXKWROxARcHIVxYZ2XL4"
    }
  },
  {
    "id": "113293",
    "name": "ABATI PRIMARY SCHOOL AKOWONJO",
    "registration_area_id": "5869",
    "precise_location": null,
    "abbreviation": "005",
    "units": "005",
    "delimitation": "24/03/01/005",
    "remark": "EXISTING PU",
    "ward_id": "5869",
    "ward_name": "SHASHA/AKOWONJO",
    "local_government_id": "508",
    "local_government_name": "ALIMOSHO",
    "state_id": "24",
    "state_name": "LAGOS",
    "location": {
      "latitude": 6.5969337,
      "longitude": 3.3028753,
      "viewport": {
        "northeast": {
          "lat": 6.598364679892723,
          "lng": 3.304245729892723
        },
        "southwest": {
          "lat": 6.595665020107279,
          "lng": 3.301546070107278
        }
      },
      "formatted_address": "H8W3+Q5J, Shasha Rd, Egbeda 102213, Lagos, Nigeria",
      "google_map_url": "https://maps.google.com?q=6.5969337,3.3028753",
      "google_place_id": "ChIJ-fg-3LOROxARU0MkYTI16bw"
    }
  },
  {
    "id": "113294",
    "name": "ABATI PRIMARY SCHOOL AKOWONJO",
    "registration_area_id": "5869",
    "precise_location": null,
    "abbreviation": "006",
    "units": "006",
    "delimitation": "24/03/01/006",
    "remark": "EXISTING PU",
    "ward_id": "5869",
    "ward_name": "SHASHA/AKOWONJO",
    "local_government_id": "508",
    "local_government_name": "ALIMOSHO",
    "state_id": "24",
    "state_name": "LAGOS",
    "location": {
      "latitude": 6.5969337,
      "longitude": 3.3028753,
      "viewport": {
        "northeast": {
          "lat": 6.598364679892723,
          "lng": 3.304245729892723
        },
        "southwest": {
          "lat": 6.595665020107279,
          "lng": 3.301546070107278
        }
      },
      "formatted_address": "H8W3+Q5J, Shasha Rd, Egbeda 102213, Lagos, Nigeria",
      "google_map_url": "https://maps.google.com?q=6.5969337,3.3028753",
      "google_place_id": "ChIJ-fg-3LOROxARU0MkYTI16bw"
    }
  },
  {
    "id": "113295",
    "name": "COMMUNITY GRAMMAR SCHOOL I",
    "registration_area_id": "5869",
    "precise_location": null,
    "abbreviation": "007",
    "units": "007",
    "delimitation": "24/03/01/007",
    "remark": "EXISTING PU",
    "ward_id": "5869",
    "ward_name": "SHASHA/AKOWONJO",
    "local_government_id": "508",
    "local_government_name": "ALIMOSHO",
    "state_id": "24",
    "state_name": "LAGOS",
    "location": {
      "latitude": 6.5835462,
      "longitude": 3.2936999,
      "viewport": {
        "northeast": {
          "lat": 6.584898129892721,
          "lng": 3.295030329892723
        },
        "southwest": {
          "lat": 6.582198470107278,
          "lng": 3.292330670107278
        }
      },
      "formatted_address": "H7MV+CCG, Akowonjo 102213, Ikeja, Nigeria",
      "google_map_url": "https://maps.google.com?q=6.5835462,3.2936999",
      "google_place_id": "ChIJq6qqqjaQOxARZL0run5HsGQ"
    }
  },
  {
    "id": "113296",
    "name": "COMMUNITY GRAMMAR SCHOOL II",
    "registration_area_id": "5869",
    "precise_location": null,
    "abbreviation": "008",
    "units": "008",
    "delimitation": "24/03/01/008",
    "remark": "EXISTING PU",
    "ward_id": "5869",
    "ward_name": "SHASHA/AKOWONJO",
    "local_government_id": "508",
    "local_government_name": "ALIMOSHO",
    "state_id": "24",
    "state_name": "LAGOS",
    "location": {
      "latitude": 6.5835462,
      "longitude": 3.2936999,
      "viewport": {
        "northeast": {
          "lat": 6.584898129892721,
          "lng": 3.295030329892723
        },
        "southwest": {
          "lat": 6.582198470107278,
          "lng": 3.292330670107278
        }
      },
      "formatted_address": "H7MV+CCG, Akowonjo 102213, Ikeja, Nigeria",
      "google_map_url": "https://maps.google.com?q=6.5835462,3.2936999",
      "google_place_id": "ChIJq6qqqjaQOxARZL0run5HsGQ"
    }
  },
  {
    "id": "113297",
    "name": "OLUGA/AFOLABI JUNCTION",
    "registration_area_id": "5869",
    "precise_location": null,
    "abbreviation": "009",
    "units": "009",
    "delimitation": "24/03/01/009",
    "remark": "EXISTING PU",
    "ward_id": "5869",
    "ward_name": "SHASHA/AKOWONJO",
    "local_government_id": "508",
    "local_government_name": "ALIMOSHO",
    "state_id": "24",
    "state_name": "LAGOS",
    "location": {
      "latitude": 6.5925332,
      "longitude": 3.304525,
      "viewport": {
        "northeast": {
          "lat": 6.593904729892722,
          "lng": 3.305894029892723
        },
        "southwest": {
          "lat": 6.591205070107278,
          "lng": 3.303194370107278
        }
      },
      "formatted_address": "Akowonjo Roundabout, Off Shasha Rd, Lagos, Nigeria",
      "google_map_url": "https://maps.google.com?q=6.5925332,3.304525",
      "google_place_id": "ChIJwUPC68CROxARWZ2gHqRwMEg"
    }
  },
  {
    "id": "113298",
    "name": "ALHAJI IDOWU/OGO OLUWA JUNCTION I",
    "registration_area_id": "5869",
    "precise_location": null,
    "abbreviation": "010",
    "units": "010",
    "delimitation": "24/03/01/010",
    "remark": "EXISTING PU",
    "ward_id": "5869",
    "ward_name": "SHASHA/AKOWONJO",
    "local_government_id": "508",
    "local_government_name": "ALIMOSHO",
    "state_id": "24",
    "state_name": "LAGOS",
    "location": {
      "latitude": 6.607833500000001,
      "longitude": 3.3064501,
      "viewport": {
        "northeast": {
          "lat": 6.609157229892721,
          "lng": 3.307812479892722
        },
        "southwest": {
          "lat": 6.606457570107277,
          "lng": 3.305112820107277
        }
      },
      "formatted_address": "Plot 6 Alhaji Idowu Street, Shobo Bus Stop, Akowonjo, Lagos Alimosho, 100275, Lagos, Nigeria",
      "google_map_url": "https://maps.google.com?q=6.607833500000001,3.3064501",
      "google_place_id": "ChIJa-m16vOROxARFve2KcqemkU"
    }
  },
  {
    "id": "113299",
    "name": "ALHAJI IDOWU/OGO OLUWA JUNCTION II",
    "registration_area_id": "5869",
    "precise_location": null,
    "abbreviation": "011",
    "units": "011",
    "delimitation": "24/03/01/011",
    "remark": "EXISTING PU",
    "ward_id": "5869",
    "ward_name": "SHASHA/AKOWONJO",
    "local_government_id": "508",
    "local_government_name": "ALIMOSHO",
    "state_id": "24",
    "state_name": "LAGOS",
    "location": {
      "latitude": 6.607833500000001,
      "longitude": 3.3064501,
      "viewport": {
        "northeast": {
          "lat": 6.609157229892721,
          "lng": 3.307812479892722
        },
        "southwest": {
          "lat": 6.606457570107277,
          "lng": 3.305112820107277
        }
      },
      "formatted_address": "Plot 6 Alhaji Idowu Street, Shobo Bus Stop, Akowonjo, Lagos Alimosho, 100275, Lagos, Nigeria",
      "google_map_url": "https://maps.google.com?q=6.607833500000001,3.3064501",
      "google_place_id": "ChIJa-m16vOROxARFve2KcqemkU"
    }
  },
  {
    "id": "113300",
    "name": "ALHAJI IDOWU/OGO OLUWA JUNCTION III",
    "registration_area_id": "5869",
    "precise_location": null,
    "abbreviation": "012",
    "units": "012",
    "delimitation": "24/03/01/012",
    "remark": "EXISTING PU",
    "ward_id": "5869",
    "ward_name": "SHASHA/AKOWONJO",
    "local_government_id": "508",
    "local_government_name": "ALIMOSHO",
    "state_id": "24",
    "state_name": "LAGOS",
    "location": {
      "latitude": 6.6050418,
      "longitude": 3.3045473,
      "viewport": {
        "northeast": {
          "lat": 6.606431829892722,
          "lng": 3.305915179892722
        },
        "southwest": {
          "lat": 6.603732170107278,
          "lng": 3.303215520107277
        }
      },
      "formatted_address": "28, Alhaji Idowu street, off sobo bus stop, Akowonjo road, Egbeda, Alimosho 234001, Lagos, Nigeria",
      "google_map_url": "https://maps.google.com?q=6.6050418,3.3045473",
      "google_place_id": "ChIJi5Kx3OCROxARi_EGUUrCX6s"
    }
  },
  {
    "id": "113301",
    "name": "ALH. ADETUTU/AKOWONJO I",
    "registration_area_id": "5869",
    "precise_location": null,
    "abbreviation": "013",
    "units": "013",
    "delimitation": "24/03/01/013",
    "remark": "EXISTING PU",
    "ward_id": "5869",
    "ward_name": "SHASHA/AKOWONJO",
    "local_government_id": "508",
    "local_government_name": "ALIMOSHO",
    "state_id": "24",
    "state_name": "LAGOS",
    "location": {
      "latitude": 6.5998068,
      "longitude": 3.2994636,
      "viewport": {
        "northeast": {
          "lat": 6.601156629892721,
          "lng": 3.300813429892723
        },
        "southwest": {
          "lat": 6.598456970107277,
          "lng": 3.298113770107278
        }
      },
      "formatted_address": "Akowonjo Rd & Alh. Adetutu St, Egbeda 102213, Lagos, Nigeria",
      "google_map_url": "https://maps.google.com?q=6.5998068,3.2994636",
      "google_place_id": "EjxBa293b25qbyBSZCAmIEFsaC4gQWRldHV0dSBTdCwgRWdiZWRhIDEwMjIxMywgQWdlZ2UsIE5pZ2VyaWEiZiJkChQKEgljkl1ZrZE7EBEIEF_CKv41ohIUChIJY5JdWa2ROxARCBBfwir-NaIaFAoSCaHISviukTsQETuNxVnxbMuiGhQKEgl1iC3IspE7EBF5k976ok52rSIKDfQM7wMVTHX3AQ"
    }
  },
  {
    "id": "113302",
    "name": "ALH. ADETUTU/AKOWONJO II",
    "registration_area_id": "5869",
    "precise_location": null,
    "abbreviation": "014",
    "units": "014",
    "delimitation": "24/03/01/014",
    "remark": "EXISTING PU",
    "ward_id": "5869",
    "ward_name": "SHASHA/AKOWONJO",
    "local_government_id": "508",
    "local_government_name": "ALIMOSHO",
    "state_id": "24",
    "state_name": "LAGOS",
    "location": {
      "latitude": 6.5983388,
      "longitude": 3.2990409,
      "viewport": {
        "northeast": {
          "lat": 6.599692729892721,
          "lng": 3.300317829892722
        },
        "southwest": {
          "lat": 6.596993070107278,
          "lng": 3.297618170107277
        }
      },
      "formatted_address": "18 Alh. Adetutu St, Akowonjo 102213, Lagos, Nigeria",
      "google_map_url": "https://maps.google.com?q=6.5983388,3.2990409",
      "google_place_id": "ChIJ9_kqtLKROxARUYgQUU59Wv0"
    }
  },
  {
    "id": "113303",
    "name": "JIMOH AKINREMI VICTORIA JUNCTION",
    "registration_area_id": "5869",
    "precise_location": null,
    "abbreviation": "015",
    "units": "015",
    "delimitation": "24/03/01/015",
    "remark": "EXISTING PU",
    "ward_id": "5869",
    "ward_name": "SHASHA/AKOWONJO",
    "local_government_id": "508",
    "local_government_name": "ALIMOSHO",
    "state_id": "24",
    "state_name": "LAGOS",
    "location": {
      "latitude": 6.600508199999999,
      "longitude": 3.3032504,
      "viewport": {
        "northeast": {
          "lat": 6.60185802989272,
          "lng": 3.304600229892722
        },
        "southwest": {
          "lat": 6.599158370107276,
          "lng": 3.301900570107278
        }
      },
      "formatted_address": "Shasha Rd & Victoria St, Egbeda 102213, Lagos, Nigeria",
      "google_map_url": "https://maps.google.com?q=6.600508199999999,3.3032504",
      "google_place_id": "EjZTaGFzaGEgUmQgJiBWaWN0b3JpYSBTdCwgRWdiZWRhIDEwMjIxMywgQWdlZ2UsIE5pZ2VyaWEiZiJkChQKEglzX5_mrZE7EBEqMPR7Xwpk4RIUChIJc1-f5q2ROxARKjD0e18KZOEaFAoSCQugSVC2kTsQEa-sOUPSFtm6GhQKEgmnjZ7rrZE7EBFaX0yApg3bHSIKDVoo7wMVOAn4AQ"
    }
  },
  {
    "id": "113304",
    "name": "FRONT OF 11 OLA AKINPELU",
    "registration_area_id": "5869",
    "precise_location": null,
    "abbreviation": "016",
    "units": "016",
    "delimitation": "24/03/01/016",
    "remark": "EXISTING PU",
    "ward_id": "5869",
    "ward_name": "SHASHA/AKOWONJO",
    "local_government_id": "508",
    "local_government_name": "ALIMOSHO",
    "state_id": "24",
    "state_name": "LAGOS",
    "location": {
      "latitude": 6.596096999999999,
      "longitude": 3.3034518,
      "viewport": {
        "northeast": {
          "lat": 6.597449379892721,
          "lng": 3.304699329892722
        },
        "southwest": {
          "lat": 6.594749720107277,
          "lng": 3.301999670107277
        }
      },
      "formatted_address": "Abati B/Stop, 113 Shasha Rd, Akowonjo 102213, Lagos, Nigeria",
      "google_map_url": "https://maps.google.com?q=6.596096999999999,3.3034518",
      "google_place_id": "ChIJjeXF2bOROxARAvhEBGDN_4s"
    }
  },
  {
    "id": "113305",
    "name": "ODUKO/VINCENT JUNCTION I",
    "registration_area_id": "5869",
    "precise_location": null,
    "abbreviation": "017",
    "units": "017",
    "delimitation": "24/03/01/017",
    "remark": "EXISTING PU",
    "ward_id": "5869",
    "ward_name": "SHASHA/AKOWONJO",
    "local_government_id": "508",
    "local_government_name": "ALIMOSHO",
    "state_id": "24",
    "state_name": "LAGOS",
    "location": {
      "latitude": 6.6026089,
      "longitude": 3.3062357,
      "viewport": {
        "northeast": {
          "lat": 6.603849929892723,
          "lng": 3.307585979892722
        },
        "southwest": {
          "lat": 6.601150270107279,
          "lng": 3.304886320107277
        }
      },
      "formatted_address": "Lagoon Hospitals (Apapa), 148/150, Akowonjo Rd, 300001, Lagos, Nigeria",
      "google_map_url": "https://maps.google.com?q=6.6026089,3.3062357",
      "google_place_id": "ChIJ6Z97Aq-ROxARruwBEdAjYDQ"
    }
  },
  {
    "id": "113306",
    "name": "ODUKO/VINCENT JUNCTION II",
    "registration_area_id": "5869",
    "precise_location": null,
    "abbreviation": "018",
    "units": "018",
    "delimitation": "24/03/01/018",
    "remark": "EXISTING PU",
    "ward_id": "5869",
    "ward_name": "SHASHA/AKOWONJO",
    "local_government_id": "508",
    "local_government_name": "ALIMOSHO",
    "state_id": "24",
    "state_name": "LAGOS",
    "location": {
      "latitude": 6.6026089,
      "longitude": 3.3062357,
      "viewport": {
        "northeast": {
          "lat": 6.603849929892723,
          "lng": 3.307585979892722
        },
        "southwest": {
          "lat": 6.601150270107279,
          "lng": 3.304886320107277
        }
      },
      "formatted_address": "Lagoon Hospitals (Apapa), 148/150, Akowonjo Rd, 300001, Lagos, Nigeria",
      "google_map_url": "https://maps.google.com?q=6.6026089,3.3062357",
      "google_place_id": "ChIJ6Z97Aq-ROxARruwBEdAjYDQ"
    }
  },
  {
    "id": "113307",
    "name": "ODUKO/VINCENT JUNCTION II",
    "registration_area_id": "5869",
    "precise_location": null,
    "abbreviation": "019",
    "units": "019",
    "delimitation": "24/03/01/019",
    "remark": "EXISTING PU",
    "ward_id": "5869",
    "ward_name": "SHASHA/AKOWONJO",
    "local_government_id": "508",
    "local_government_name": "ALIMOSHO",
    "state_id": "24",
    "state_name": "LAGOS",
    "location": {
      "latitude": 6.6026089,
      "longitude": 3.3062357,
      "viewport": {
        "northeast": {
          "lat": 6.603849929892723,
          "lng": 3.307585979892722
        },
        "southwest": {
          "lat": 6.601150270107279,
          "lng": 3.304886320107277
        }
      },
      "formatted_address": "Lagoon Hospitals (Apapa), 148/150, Akowonjo Rd, 300001, Lagos, Nigeria",
      "google_map_url": "https://maps.google.com?q=6.6026089,3.3062357",
      "google_place_id": "ChIJ6Z97Aq-ROxARruwBEdAjYDQ"
    }
  },
  {
    "id": "113308",
    "name": "FRONT OF 24, OLUWALOGBON STREET",
    "registration_area_id": "5869",
    "precise_location": null,
    "abbreviation": "020",
    "units": "020",
    "delimitation": "24/03/01/020",
    "remark": "EXISTING PU",
    "ward_id": "5869",
    "ward_name": "SHASHA/AKOWONJO",
    "local_government_id": "508",
    "local_government_name": "ALIMOSHO",
    "state_id": "24",
    "state_name": "LAGOS",
    "location": {
      "latitude": 6.596096999999999,
      "longitude": 3.3034518,
      "viewport": {
        "northeast": {
          "lat": 6.597449379892721,
          "lng": 3.304699329892722
        },
        "southwest": {
          "lat": 6.594749720107277,
          "lng": 3.301999670107277
        }
      },
      "formatted_address": "Abati B/Stop, 113 Shasha Rd, Akowonjo 102213, Lagos, Nigeria",
      "google_map_url": "https://maps.google.com?q=6.596096999999999,3.3034518",
      "google_place_id": "ChIJjeXF2bOROxARAvhEBGDN_4s"
    }
  },
  {
    "id": "113309",
    "name": "FRONT OF 126, AKOWONJO ROAD",
    "registration_area_id": "5869",
    "precise_location": null,
    "abbreviation": "021",
    "units": "021",
    "delimitation": "24/03/01/021",
    "remark": "EXISTING PU",
    "ward_id": "5869",
    "ward_name": "SHASHA/AKOWONJO",
    "local_government_id": "508",
    "local_government_name": "ALIMOSHO",
    "state_id": "24",
    "state_name": "LAGOS",
    "location": {
      "latitude": 6.596096999999999,
      "longitude": 3.3034518,
      "viewport": {
        "northeast": {
          "lat": 6.597449379892721,
          "lng": 3.304699329892722
        },
        "southwest": {
          "lat": 6.594749720107277,
          "lng": 3.301999670107277
        }
      },
      "formatted_address": "Abati B/Stop, 113 Shasha Rd, Akowonjo 102213, Lagos, Nigeria",
      "google_map_url": "https://maps.google.com?q=6.596096999999999,3.3034518",
      "google_place_id": "ChIJjeXF2bOROxARAvhEBGDN_4s"
    }
  },
  {
    "id": "113310",
    "name": "FRONT OF 129 AKOWONJO ROAD",
    "registration_area_id": "5869",
    "precise_location": null,
    "abbreviation": "022",
    "units": "022",
    "delimitation": "24/03/01/022",
    "remark": "EXISTING PU",
    "ward_id": "5869",
    "ward_name": "SHASHA/AKOWONJO",
    "local_government_id": "508",
    "local_government_name": "ALIMOSHO",
    "state_id": "24",
    "state_name": "LAGOS",
    "location": {
      "latitude": 6.6026089,
      "longitude": 3.3062357,
      "viewport": {
        "northeast": {
          "lat": 6.603849929892723,
          "lng": 3.307585979892722
        },
        "southwest": {
          "lat": 6.601150270107279,
          "lng": 3.304886320107277
        }
      },
      "formatted_address": "Lagoon Hospitals (Apapa), 148/150, Akowonjo Rd, 300001, Lagos, Nigeria",
      "google_map_url": "https://maps.google.com?q=6.6026089,3.3062357",
      "google_place_id": "ChIJ6Z97Aq-ROxARruwBEdAjYDQ"
    }
  },
  {
    "id": "113311",
    "name": "IWAJOWA/OGO OLUWA JUNCTION I",
    "registration_area_id": "5869",
    "precise_location": null,
    "abbreviation": "023",
    "units": "023",
    "delimitation": "24/03/01/023",
    "remark": "EXISTING PU",
    "ward_id": "5869",
    "ward_name": "SHASHA/AKOWONJO",
    "local_government_id": "508",
    "local_government_name": "ALIMOSHO",
    "state_id": "24",
    "state_name": "LAGOS",
    "location": {
      "latitude": 6.585201499999999,
      "longitude": 3.3050178,
      "viewport": {
        "northeast": {
          "lat": 6.586745879892722,
          "lng": 3.306221679892722
        },
        "southwest": {
          "lat": 6.584046220107278,
          "lng": 3.303522020107278
        }
      },
      "formatted_address": "H8P4+32J, Rafiu Jafojo Park, Shasha Road, Ajako Bustop Alimosho, 100272, Lagos, Nigeria",
      "google_map_url": "https://maps.google.com?q=6.585201499999999,3.3050178",
      "google_place_id": "ChIJ8yARw5CROxAR6YZ7WoWYAMk"
    }
  },
  {
    "id": "113312",
    "name": "IWAJOWA/OGO OLUWA JUNCTION II",
    "registration_area_id": "5869",
    "precise_location": null,
    "abbreviation": "024",
    "units": "024",
    "delimitation": "24/03/01/024",
    "remark": "EXISTING PU",
    "ward_id": "5869",
    "ward_name": "SHASHA/AKOWONJO",
    "local_government_id": "508",
    "local_government_name": "ALIMOSHO",
    "state_id": "24",
    "state_name": "LAGOS",
    "location": {
      "latitude": 6.585201499999999,
      "longitude": 3.3050178,
      "viewport": {
        "northeast": {
          "lat": 6.586745879892722,
          "lng": 3.306221679892722
        },
        "southwest": {
          "lat": 6.584046220107278,
          "lng": 3.303522020107278
        }
      },
      "formatted_address": "H8P4+32J, Rafiu Jafojo Park, Shasha Road, Ajako Bustop Alimosho, 100272, Lagos, Nigeria",
      "google_map_url": "https://maps.google.com?q=6.585201499999999,3.3050178",
      "google_place_id": "ChIJ8yARw5CROxAR6YZ7WoWYAMk"
    }
  },
  {
    "id": "113313",
    "name": "FRONT OF 37A SAMUEL STREET I",
    "registration_area_id": "5869",
    "precise_location": null,
    "abbreviation": "025",
    "units": "025",
    "delimitation": "24/03/01/025",
    "remark": "EXISTING PU",
    "ward_id": "5869",
    "ward_name": "SHASHA/AKOWONJO",
    "local_government_id": "508",
    "local_government_name": "ALIMOSHO",
    "state_id": "24",
    "state_name": "LAGOS",
    "location": {
      "latitude": 6.605415799999999,
      "longitude": 3.3107285,
      "viewport": {
        "northeast": {
          "lat": 6.606811729892722,
          "lng": 3.311976929892722
        },
        "southwest": {
          "lat": 6.604112070107278,
          "lng": 3.309277270107278
        }
      },
      "formatted_address": "7 Shasha Rd, Akowonjo 102213, Lagos, Nigeria",
      "google_map_url": "https://maps.google.com?q=6.605415799999999,3.3107285",
      "google_place_id": "ChIJe0g9taeROxARFOB4I9VT3xY"
    }
  },
  {
    "id": "113314",
    "name": "FRONT OF 37, SAMUEL STREET II",
    "registration_area_id": "5869",
    "precise_location": null,
    "abbreviation": "026",
    "units": "026",
    "delimitation": "24/03/01/026",
    "remark": "EXISTING PU",
    "ward_id": "5869",
    "ward_name": "SHASHA/AKOWONJO",
    "local_government_id": "508",
    "local_government_name": "ALIMOSHO",
    "state_id": "24",
    "state_name": "LAGOS",
    "location": {
      "latitude": 6.596096999999999,
      "longitude": 3.3034518,
      "viewport": {
        "northeast": {
          "lat": 6.597449379892721,
          "lng": 3.304699329892722
        },
        "southwest": {
          "lat": 6.594749720107277,
          "lng": 3.301999670107277
        }
      },
      "formatted_address": "Abati B/Stop, 113 Shasha Rd, Akowonjo 102213, Lagos, Nigeria",
      "google_map_url": "https://maps.google.com?q=6.596096999999999,3.3034518",
      "google_place_id": "ChIJjeXF2bOROxARAvhEBGDN_4s"
    }
  },
  {
    "id": "113315",
    "name": "FRONT OF 25, BADA STREET",
    "registration_area_id": "5869",
    "precise_location": null,
    "abbreviation": "027",
    "units": "027",
    "delimitation": "24/03/01/027",
    "remark": "EXISTING PU",
    "ward_id": "5869",
    "ward_name": "SHASHA/AKOWONJO",
    "local_government_id": "508",
    "local_government_name": "ALIMOSHO",
    "state_id": "24",
    "state_name": "LAGOS",
    "location": {
      "latitude": 6.596096999999999,
      "longitude": 3.3034518,
      "viewport": {
        "northeast": {
          "lat": 6.597449379892721,
          "lng": 3.304699329892722
        },
        "southwest": {
          "lat": 6.594749720107277,
          "lng": 3.301999670107277
        }
      },
      "formatted_address": "Abati B/Stop, 113 Shasha Rd, Akowonjo 102213, Lagos, Nigeria",
      "google_map_url": "https://maps.google.com?q=6.596096999999999,3.3034518",
      "google_place_id": "ChIJjeXF2bOROxARAvhEBGDN_4s"
    }
  },
  {
    "id": "113316",
    "name": "ADEYEMI NUSIRATU JUNCTION I",
    "registration_area_id": "5869",
    "precise_location": null,
    "abbreviation": "028",
    "units": "028",
    "delimitation": "24/03/01/028",
    "remark": "EXISTING PU",
    "ward_id": "5869",
    "ward_name": "SHASHA/AKOWONJO",
    "local_government_id": "508",
    "local_government_name": "ALIMOSHO",
    "state_id": "24",
    "state_name": "LAGOS",
    "location": {
      "latitude": 6.585201499999999,
      "longitude": 3.3050178,
      "viewport": {
        "northeast": {
          "lat": 6.586745879892722,
          "lng": 3.306221679892722
        },
        "southwest": {
          "lat": 6.584046220107278,
          "lng": 3.303522020107278
        }
      },
      "formatted_address": "H8P4+32J, Rafiu Jafojo Park, Shasha Road, Ajako Bustop Alimosho, 100272, Lagos, Nigeria",
      "google_map_url": "https://maps.google.com?q=6.585201499999999,3.3050178",
      "google_place_id": "ChIJ8yARw5CROxAR6YZ7WoWYAMk"
    }
  },
  {
    "id": "113317",
    "name": "ADEYEMI NUSIRATU JUNCTION II",
    "registration_area_id": "5869",
    "precise_location": null,
    "abbreviation": "029",
    "units": "029",
    "delimitation": "24/03/01/029",
    "remark": "EXISTING PU",
    "ward_id": "5869",
    "ward_name": "SHASHA/AKOWONJO",
    "local_government_id": "508",
    "local_government_name": "ALIMOSHO",
    "state_id": "24",
    "state_name": "LAGOS",
    "location": {
      "latitude": 6.585201499999999,
      "longitude": 3.3050178,
      "viewport": {
        "northeast": {
          "lat": 6.586745879892722,
          "lng": 3.306221679892722
        },
        "southwest": {
          "lat": 6.584046220107278,
          "lng": 3.303522020107278
        }
      },
      "formatted_address": "H8P4+32J, Rafiu Jafojo Park, Shasha Road, Ajako Bustop Alimosho, 100272, Lagos, Nigeria",
      "google_map_url": "https://maps.google.com?q=6.585201499999999,3.3050178",
      "google_place_id": "ChIJ8yARw5CROxAR6YZ7WoWYAMk"
    }
  },
  {
    "id": "113318",
    "name": "5, FAKOYA STREET AKOWONJO",
    "registration_area_id": "5869",
    "precise_location": null,
    "abbreviation": "030",
    "units": "030",
    "delimitation": "24/03/01/030",
    "remark": "EXISTING PU",
    "ward_id": "5869",
    "ward_name": "SHASHA/AKOWONJO",
    "local_government_id": "508",
    "local_government_name": "ALIMOSHO",
    "state_id": "24",
    "state_name": "LAGOS",
    "location": {
      "latitude": 6.5951987,
      "longitude": 3.3004391,
      "viewport": {
        "northeast": {
          "lat": 6.596587029892722,
          "lng": 3.301719579892722
        },
        "southwest": {
          "lat": 6.593887370107279,
          "lng": 3.299019920107277
        }
      },
      "formatted_address": "5 Fakoya St, Egbeda 102213, Lagos, Nigeria",
      "google_map_url": "https://maps.google.com?q=6.5951987,3.3004391",
      "google_place_id": "ChIJt3ILbrOROxARo3ED90SwchU"
    }
  },
  {
    "id": "113319",
    "name": "FRONT OF 10, FAKOYA STREET",
    "registration_area_id": "5869",
    "precise_location": null,
    "abbreviation": "031",
    "units": "031",
    "delimitation": "24/03/01/031",
    "remark": "EXISTING PU",
    "ward_id": "5869",
    "ward_name": "SHASHA/AKOWONJO",
    "local_government_id": "508",
    "local_government_name": "ALIMOSHO",
    "state_id": "24",
    "state_name": "LAGOS",
    "location": {
      "latitude": 6.5939739,
      "longitude": 3.2999872,
      "viewport": {
        "northeast": {
          "lat": 6.595323729892722,
          "lng": 3.301337029892722
        },
        "southwest": {
          "lat": 6.592624070107278,
          "lng": 3.298637370107277
        }
      },
      "formatted_address": "Fakoya St, Egbeda 102213, Lagos, Nigeria",
      "google_map_url": "https://maps.google.com?q=6.5939739,3.2999872",
      "google_place_id": "ChIJYzIGobSROxARQCyS-HAJDbk"
    }
  },
  {
    "id": "113320",
    "name": "15, FAKOYA STREET AKOWONJO",
    "registration_area_id": "5869",
    "precise_location": null,
    "abbreviation": "032",
    "units": "032",
    "delimitation": "24/03/01/032",
    "remark": "EXISTING PU",
    "ward_id": "5869",
    "ward_name": "SHASHA/AKOWONJO",
    "local_government_id": "508",
    "local_government_name": "ALIMOSHO",
    "state_id": "24",
    "state_name": "LAGOS",
    "location": {
      "latitude": 6.5944021,
      "longitude": 3.3002279,
      "viewport": {
        "northeast": {
          "lat": 6.595760379892721,
          "lng": 3.301481229892723
        },
        "southwest": {
          "lat": 6.593060720107277,
          "lng": 3.298781570107278
        }
      },
      "formatted_address": "15 Fakoya St, Egbeda 102213, Lagos, Nigeria",
      "google_map_url": "https://maps.google.com?q=6.5944021,3.3002279",
      "google_place_id": "ChIJaSMVYbOROxARTj_a_OrhSms"
    }
  },
  {
    "id": "113321",
    "name": "OLADIPUPO/SANTOS LAYOUT",
    "registration_area_id": "5869",
    "precise_location": null,
    "abbreviation": "033",
    "units": "033",
    "delimitation": "24/03/01/033",
    "remark": "EXISTING PU",
    "ward_id": "5869",
    "ward_name": "SHASHA/AKOWONJO",
    "local_government_id": "508",
    "local_government_name": "ALIMOSHO",
    "state_id": "24",
    "state_name": "LAGOS",
    "location": {
      "latitude": 6.605415799999999,
      "longitude": 3.3107285,
      "viewport": {
        "northeast": {
          "lat": 6.606811729892722,
          "lng": 3.311976929892722
        },
        "southwest": {
          "lat": 6.604112070107278,
          "lng": 3.309277270107278
        }
      },
      "formatted_address": "7 Shasha Rd, Akowonjo 102213, Lagos, Nigeria",
      "google_map_url": "https://maps.google.com?q=6.605415799999999,3.3107285",
      "google_place_id": "ChIJe0g9taeROxARFOB4I9VT3xY"
    }
  },
  {
    "id": "113322",
    "name": "6/8 OLADIPUPO/SANTOS LAYOUT I",
    "registration_area_id": "5869",
    "precise_location": null,
    "abbreviation": "034",
    "units": "034",
    "delimitation": "24/03/01/034",
    "remark": "EXISTING PU",
    "ward_id": "5869",
    "ward_name": "SHASHA/AKOWONJO",
    "local_government_id": "508",
    "local_government_name": "ALIMOSHO",
    "state_id": "24",
    "state_name": "LAGOS",
    "location": null
  },
  {
    "id": "113323",
    "name": "6/8 OLADIPUPO SANTOS LAYOUT  II",
    "registration_area_id": "5869",
    "precise_location": null,
    "abbreviation": "035",
    "units": "035",
    "delimitation": "24/03/01/035",
    "remark": "EXISTING PU",
    "ward_id": "5869",
    "ward_name": "SHASHA/AKOWONJO",
    "local_government_id": "508",
    "local_government_name": "ALIMOSHO",
    "state_id": "24",
    "state_name": "LAGOS",
    "location": null
  },
  {
    "id": "113324",
    "name": "FRONT OF 1A OKE STREET",
    "registration_area_id": "5869",
    "precise_location": null,
    "abbreviation": "036",
    "units": "036",
    "delimitation": "24/03/01/036",
    "remark": "EXISTING PU",
    "ward_id": "5869",
    "ward_name": "SHASHA/AKOWONJO",
    "local_government_id": "508",
    "local_government_name": "ALIMOSHO",
    "state_id": "24",
    "state_name": "LAGOS",
    "location": {
      "latitude": 6.603066699999999,
      "longitude": 3.3056371,
      "viewport": {
        "northeast": {
          "lat": 6.604417779892723,
          "lng": 3.307027429892722
        },
        "southwest": {
          "lat": 6.601718120107279,
          "lng": 3.304327770107278
        }
      },
      "formatted_address": "1 Oke St, Alimosho 102213, Lagos, Nigeria",
      "google_map_url": "https://maps.google.com?q=6.603066699999999,3.3056371",
      "google_place_id": "ChIJERDH5a6ROxARo7szLLzGAKA"
    }
  },
  {
    "id": "113325",
    "name": "FRONT OF 2, BAMMEKE ROAD",
    "registration_area_id": "5869",
    "precise_location": null,
    "abbreviation": "037",
    "units": "037",
    "delimitation": "24/03/01/037",
    "remark": "EXISTING PU",
    "ward_id": "5869",
    "ward_name": "SHASHA/AKOWONJO",
    "local_government_id": "508",
    "local_government_name": "ALIMOSHO",
    "state_id": "24",
    "state_name": "LAGOS",
    "location": {
      "latitude": 6.596096999999999,
      "longitude": 3.3034518,
      "viewport": {
        "northeast": {
          "lat": 6.597449379892721,
          "lng": 3.304699329892722
        },
        "southwest": {
          "lat": 6.594749720107277,
          "lng": 3.301999670107277
        }
      },
      "formatted_address": "Abati B/Stop, 113 Shasha Rd, Akowonjo 102213, Lagos, Nigeria",
      "google_map_url": "https://maps.google.com?q=6.596096999999999,3.3034518",
      "google_place_id": "ChIJjeXF2bOROxARAvhEBGDN_4s"
    }
  },
  {
    "id": "113326",
    "name": "FRONT OF 11, BAMMEKE ROAD",
    "registration_area_id": "5869",
    "precise_location": null,
    "abbreviation": "038",
    "units": "038",
    "delimitation": "24/03/01/038",
    "remark": "EXISTING PU",
    "ward_id": "5869",
    "ward_name": "SHASHA/AKOWONJO",
    "local_government_id": "508",
    "local_government_name": "ALIMOSHO",
    "state_id": "24",
    "state_name": "LAGOS",
    "location": null
  },
  {
    "id": "113327",
    "name": "FRONT OF 15, BAMMEKE ROAD",
    "registration_area_id": "5869",
    "precise_location": null,
    "abbreviation": "039",
    "units": "039",
    "delimitation": "24/03/01/039",
    "remark": "EXISTING PU",
    "ward_id": "5869",
    "ward_name": "SHASHA/AKOWONJO",
    "local_government_id": "508",
    "local_government_name": "ALIMOSHO",
    "state_id": "24",
    "state_name": "LAGOS",
    "location": {
      "latitude": 6.596096999999999,
      "longitude": 3.3034518,
      "viewport": {
        "northeast": {
          "lat": 6.597449379892721,
          "lng": 3.304699329892722
        },
        "southwest": {
          "lat": 6.594749720107277,
          "lng": 3.301999670107277
        }
      },
      "formatted_address": "Abati B/Stop, 113 Shasha Rd, Akowonjo 102213, Lagos, Nigeria",
      "google_map_url": "https://maps.google.com?q=6.596096999999999,3.3034518",
      "google_place_id": "ChIJjeXF2bOROxARAvhEBGDN_4s"
    }
  },
  {
    "id": "113328",
    "name": "FRONT OF 2, AJAYI AKIBOGUN STREET",
    "registration_area_id": "5869",
    "precise_location": null,
    "abbreviation": "040",
    "units": "040",
    "delimitation": "24/03/01/040",
    "remark": "EXISTING PU",
    "ward_id": "5869",
    "ward_name": "SHASHA/AKOWONJO",
    "local_government_id": "508",
    "local_government_name": "ALIMOSHO",
    "state_id": "24",
    "state_name": "LAGOS",
    "location": null
  },
  {
    "id": "113329",
    "name": "JUNCTION OF ALAFIA STREET I",
    "registration_area_id": "5869",
    "precise_location": null,
    "abbreviation": "041",
    "units": "041",
    "delimitation": "24/03/01/041",
    "remark": "EXISTING PU",
    "ward_id": "5869",
    "ward_name": "SHASHA/AKOWONJO",
    "local_government_id": "508",
    "local_government_name": "ALIMOSHO",
    "state_id": "24",
    "state_name": "LAGOS",
    "location": {
      "latitude": 6.5875005,
      "longitude": 3.3023856,
      "viewport": {
        "northeast": {
          "lat": 6.588913879892721,
          "lng": 3.303707229892722
        },
        "southwest": {
          "lat": 6.586214220107277,
          "lng": 3.301007570107278
        }
      },
      "formatted_address": "H8Q2+2X2, Shasha 102213, Lagos, Nigeria",
      "google_map_url": "https://maps.google.com?q=6.5875005,3.3023856",
      "google_place_id": "ChIJIW5FjzKROxARi1VCmWr6kPU"
    }
  },
  {
    "id": "113330",
    "name": "JUNCTION OF ALAFIA STREET II",
    "registration_area_id": "5869",
    "precise_location": null,
    "abbreviation": "042",
    "units": "042",
    "delimitation": "24/03/01/042",
    "remark": "EXISTING PU",
    "ward_id": "5869",
    "ward_name": "SHASHA/AKOWONJO",
    "local_government_id": "508",
    "local_government_name": "ALIMOSHO",
    "state_id": "24",
    "state_name": "LAGOS",
    "location": {
      "latitude": 6.598578600000001,
      "longitude": 3.3057166,
      "viewport": {
        "northeast": {
          "lat": 6.599902429892722,
          "lng": 3.307068279892722
        },
        "southwest": {
          "lat": 6.597202770107278,
          "lng": 3.304368620107277
        }
      },
      "formatted_address": "31, Oguniyi Str, by Ifelodun junction, Alafia St, Amukoko, Lagos, Nigeria",
      "google_map_url": "https://maps.google.com?q=6.598578600000001,3.3057166",
      "google_place_id": "ChIJl-9nlCGROxAR-zKMKL6CKHY"
    }
  },
  {
    "id": "113331",
    "name": "ABATI/ALH. OSHO JUNCTION",
    "registration_area_id": "5869",
    "precise_location": null,
    "abbreviation": "043",
    "units": "043",
    "delimitation": "24/03/01/043",
    "remark": "EXISTING PU",
    "ward_id": "5869",
    "ward_name": "SHASHA/AKOWONJO",
    "local_government_id": "508",
    "local_government_name": "ALIMOSHO",
    "state_id": "24",
    "state_name": "LAGOS",
    "location": {
      "latitude": 6.597598899999999,
      "longitude": 3.3020432,
      "viewport": {
        "northeast": {
          "lat": 6.599018479892721,
          "lng": 3.303413429892722
        },
        "southwest": {
          "lat": 6.596318820107277,
          "lng": 3.300713770107278
        }
      },
      "formatted_address": "abati akowonjo, 1 Alh. Osho St, Alimosho 102213, Lagos, Nigeria",
      "google_map_url": "https://maps.google.com?q=6.597598899999999,3.3020432",
      "google_place_id": "ChIJtTQ83oiROxARSsEyDCrC-lc"
    }
  },
  {
    "id": "113332",
    "name": "FRONT OF 27, OMIRINDE STREET",
    "registration_area_id": "5869",
    "precise_location": null,
    "abbreviation": "044",
    "units": "044",
    "delimitation": "24/03/01/044",
    "remark": "EXISTING PU",
    "ward_id": "5869",
    "ward_name": "SHASHA/AKOWONJO",
    "local_government_id": "508",
    "local_government_name": "ALIMOSHO",
    "state_id": "24",
    "state_name": "LAGOS",
    "location": {
      "latitude": 6.596096999999999,
      "longitude": 3.3034518,
      "viewport": {
        "northeast": {
          "lat": 6.597449379892721,
          "lng": 3.304699329892722
        },
        "southwest": {
          "lat": 6.594749720107277,
          "lng": 3.301999670107277
        }
      },
      "formatted_address": "Abati B/Stop, 113 Shasha Rd, Akowonjo 102213, Lagos, Nigeria",
      "google_map_url": "https://maps.google.com?q=6.596096999999999,3.3034518",
      "google_place_id": "ChIJjeXF2bOROxARAvhEBGDN_4s"
    }
  },
  {
    "id": "113333",
    "name": "OPEN SPACE ALONG MODUPE STREET",
    "registration_area_id": "5869",
    "precise_location": null,
    "abbreviation": "045",
    "units": "045",
    "delimitation": "24/03/01/045",
    "remark": "EXISTING PU",
    "ward_id": "5869",
    "ward_name": "SHASHA/AKOWONJO",
    "local_government_id": "508",
    "local_government_name": "ALIMOSHO",
    "state_id": "24",
    "state_name": "LAGOS",
    "location": {
      "latitude": 6.585201499999999,
      "longitude": 3.3050178,
      "viewport": {
        "northeast": {
          "lat": 6.586745879892722,
          "lng": 3.306221679892722
        },
        "southwest": {
          "lat": 6.584046220107278,
          "lng": 3.303522020107278
        }
      },
      "formatted_address": "H8P4+32J, Rafiu Jafojo Park, Shasha Road, Ajako Bustop Alimosho, 100272, Lagos, Nigeria",
      "google_map_url": "https://maps.google.com?q=6.585201499999999,3.3050178",
      "google_place_id": "ChIJ8yARw5CROxAR6YZ7WoWYAMk"
    }
  },
  {
    "id": "113334",
    "name": "FRONT OF 14, AKOWONJO STREET",
    "registration_area_id": "5869",
    "precise_location": null,
    "abbreviation": "046",
    "units": "046",
    "delimitation": "24/03/01/046",
    "remark": "EXISTING PU",
    "ward_id": "5869",
    "ward_name": "SHASHA/AKOWONJO",
    "local_government_id": "508",
    "local_government_name": "ALIMOSHO",
    "state_id": "24",
    "state_name": "LAGOS",
    "location": {
      "latitude": 6.596096999999999,
      "longitude": 3.3034518,
      "viewport": {
        "northeast": {
          "lat": 6.597449379892721,
          "lng": 3.304699329892722
        },
        "southwest": {
          "lat": 6.594749720107277,
          "lng": 3.301999670107277
        }
      },
      "formatted_address": "Abati B/Stop, 113 Shasha Rd, Akowonjo 102213, Lagos, Nigeria",
      "google_map_url": "https://maps.google.com?q=6.596096999999999,3.3034518",
      "google_place_id": "ChIJjeXF2bOROxARAvhEBGDN_4s"
    }
  },
  {
    "id": "113335",
    "name": "FRONT OF 12, MODUPE AYOADE STREET, ARAROMI B/STOP",
    "registration_area_id": "5869",
    "precise_location": null,
    "abbreviation": "047",
    "units": "047",
    "delimitation": "24/03/01/047",
    "remark": "EXISTING PU",
    "ward_id": "5869",
    "ward_name": "SHASHA/AKOWONJO",
    "local_government_id": "508",
    "local_government_name": "ALIMOSHO",
    "state_id": "24",
    "state_name": "LAGOS",
    "location": {
      "latitude": 6.6128667,
      "longitude": 3.3025542,
      "viewport": {
        "northeast": {
          "lat": 6.61421652989272,
          "lng": 3.303904029892722
        },
        "southwest": {
          "lat": 6.611516870107276,
          "lng": 3.301204370107277
        }
      },
      "formatted_address": "Modupe Ayoade St, Alagba 102213, Lagos, Nigeria",
      "google_map_url": "https://maps.google.com?q=6.6128667,3.3025542",
      "google_place_id": "ChIJx7H01wCROxARLH0hkCiIK2A"
    }
  },
  {
    "id": "113336",
    "name": "FRONT OF 1, EJIGBO ROAD,",
    "registration_area_id": "5869",
    "precise_location": null,
    "abbreviation": "048",
    "units": "048",
    "delimitation": "24/03/01/048",
    "remark": "EXISTING PU",
    "ward_id": "5869",
    "ward_name": "SHASHA/AKOWONJO",
    "local_government_id": "508",
    "local_government_name": "ALIMOSHO",
    "state_id": "24",
    "state_name": "LAGOS",
    "location": {
      "latitude": 6.596096999999999,
      "longitude": 3.3034518,
      "viewport": {
        "northeast": {
          "lat": 6.597449379892721,
          "lng": 3.304699329892722
        },
        "southwest": {
          "lat": 6.594749720107277,
          "lng": 3.301999670107277
        }
      },
      "formatted_address": "Abati B/Stop, 113 Shasha Rd, Akowonjo 102213, Lagos, Nigeria",
      "google_map_url": "https://maps.google.com?q=6.596096999999999,3.3034518",
      "google_place_id": "ChIJjeXF2bOROxARAvhEBGDN_4s"
    }
  },
  {
    "id": "113337",
    "name": "ORISUNBARE FRONT OF 1, OLORUNSOGO STREET I",
    "registration_area_id": "5869",
    "precise_location": null,
    "abbreviation": "049",
    "units": "049",
    "delimitation": "24/03/01/049",
    "remark": "EXISTING PU",
    "ward_id": "5869",
    "ward_name": "SHASHA/AKOWONJO",
    "local_government_id": "508",
    "local_government_name": "ALIMOSHO",
    "state_id": "24",
    "state_name": "LAGOS",
    "location": {
      "latitude": 6.5739506,
      "longitude": 3.3065709,
      "viewport": {
        "northeast": {
          "lat": 6.575300429892723,
          "lng": 3.307920729892722
        },
        "southwest": {
          "lat": 6.572600770107279,
          "lng": 3.305221070107278
        }
      },
      "formatted_address": "Orisunbare Rd, Isheri Olofin 102213, Lagos, Nigeria",
      "google_map_url": "https://maps.google.com?q=6.5739506,3.3065709",
      "google_place_id": "ChIJ61HpytaROxARc4oVBMA_u_I"
    }
  },
  {
    "id": "113338",
    "name": "ORISUNBARE FRONT OF 1, OLORUNSOGO STREET II",
    "registration_area_id": "5869",
    "precise_location": null,
    "abbreviation": "050",
    "units": "050",
    "delimitation": "24/03/01/050",
    "remark": "EXISTING PU",
    "ward_id": "5869",
    "ward_name": "SHASHA/AKOWONJO",
    "local_government_id": "508",
    "local_government_name": "ALIMOSHO",
    "state_id": "24",
    "state_name": "LAGOS",
    "location": {
      "latitude": 6.5739506,
      "longitude": 3.3065709,
      "viewport": {
        "northeast": {
          "lat": 6.575300429892723,
          "lng": 3.307920729892722
        },
        "southwest": {
          "lat": 6.572600770107279,
          "lng": 3.305221070107278
        }
      },
      "formatted_address": "Orisunbare Rd, Isheri Olofin 102213, Lagos, Nigeria",
      "google_map_url": "https://maps.google.com?q=6.5739506,3.3065709",
      "google_place_id": "ChIJ61HpytaROxARc4oVBMA_u_I"
    }
  },
  {
    "id": "113339",
    "name": "FRONT OF 3, OLORUNSOGO STREET",
    "registration_area_id": "5869",
    "precise_location": null,
    "abbreviation": "051",
    "units": "051",
    "delimitation": "24/03/01/051",
    "remark": "EXISTING PU",
    "ward_id": "5869",
    "ward_name": "SHASHA/AKOWONJO",
    "local_government_id": "508",
    "local_government_name": "ALIMOSHO",
    "state_id": "24",
    "state_name": "LAGOS",
    "location": {
      "latitude": 6.605415799999999,
      "longitude": 3.3107285,
      "viewport": {
        "northeast": {
          "lat": 6.606811729892722,
          "lng": 3.311976929892722
        },
        "southwest": {
          "lat": 6.604112070107278,
          "lng": 3.309277270107278
        }
      },
      "formatted_address": "7 Shasha Rd, Akowonjo 102213, Lagos, Nigeria",
      "google_map_url": "https://maps.google.com?q=6.605415799999999,3.3107285",
      "google_place_id": "ChIJe0g9taeROxARFOB4I9VT3xY"
    }
  },
  {
    "id": "113340",
    "name": "FRONT OF 250 SASA ROAD, SASA",
    "registration_area_id": "5869",
    "precise_location": null,
    "abbreviation": "052",
    "units": "052",
    "delimitation": "24/03/01/052",
    "remark": "EXISTING PU",
    "ward_id": "5869",
    "ward_name": "SHASHA/AKOWONJO",
    "local_government_id": "508",
    "local_government_name": "ALIMOSHO",
    "state_id": "24",
    "state_name": "LAGOS",
    "location": {
      "latitude": 6.5877004,
      "longitude": 3.300178,
      "viewport": {
        "northeast": {
          "lat": 6.589042629892721,
          "lng": 3.301539429892722
        },
        "southwest": {
          "lat": 6.586342970107277,
          "lng": 3.298839770107278
        }
      },
      "formatted_address": "13 Ola-Ogundipe St, Bammeke 102213, Lagos, Nigeria",
      "google_map_url": "https://maps.google.com?q=6.5877004,3.300178",
      "google_place_id": "ChIJHbeFDMqROxAR-AW0FsnuALI"
    }
  },
  {
    "id": "113341",
    "name": "FRONT OF 250 SASA ROAD",
    "registration_area_id": "5869",
    "precise_location": null,
    "abbreviation": "053",
    "units": "053",
    "delimitation": "24/03/01/053",
    "remark": "EXISTING PU",
    "ward_id": "5869",
    "ward_name": "SHASHA/AKOWONJO",
    "local_government_id": "508",
    "local_government_name": "ALIMOSHO",
    "state_id": "24",
    "state_name": "LAGOS",
    "location": {
      "latitude": 6.596096999999999,
      "longitude": 3.3034518,
      "viewport": {
        "northeast": {
          "lat": 6.597449379892721,
          "lng": 3.304699329892722
        },
        "southwest": {
          "lat": 6.594749720107277,
          "lng": 3.301999670107277
        }
      },
      "formatted_address": "Abati B/Stop, 113 Shasha Rd, Akowonjo 102213, Lagos, Nigeria",
      "google_map_url": "https://maps.google.com?q=6.596096999999999,3.3034518",
      "google_place_id": "ChIJjeXF2bOROxARAvhEBGDN_4s"
    }
  },
  {
    "id": "113342",
    "name": "FRONT OF 1, BENSTER AKOWONJO",
    "registration_area_id": "5869",
    "precise_location": null,
    "abbreviation": "054",
    "units": "054",
    "delimitation": "24/03/01/054",
    "remark": "EXISTING PU",
    "ward_id": "5869",
    "ward_name": "SHASHA/AKOWONJO",
    "local_government_id": "508",
    "local_government_name": "ALIMOSHO",
    "state_id": "24",
    "state_name": "LAGOS",
    "location": {
      "latitude": 6.605415799999999,
      "longitude": 3.3107285,
      "viewport": {
        "northeast": {
          "lat": 6.606811729892722,
          "lng": 3.311976929892722
        },
        "southwest": {
          "lat": 6.604112070107278,
          "lng": 3.309277270107278
        }
      },
      "formatted_address": "7 Shasha Rd, Akowonjo 102213, Lagos, Nigeria",
      "google_map_url": "https://maps.google.com?q=6.605415799999999,3.3107285",
      "google_place_id": "ChIJe0g9taeROxARFOB4I9VT3xY"
    }
  },
  {
    "id": "113343",
    "name": "OLUWAKEMI/OLUWAGBEMI JUNCTION",
    "registration_area_id": "5869",
    "precise_location": null,
    "abbreviation": "055",
    "units": "055",
    "delimitation": "24/03/01/055",
    "remark": "EXISTING PU",
    "ward_id": "5869",
    "ward_name": "SHASHA/AKOWONJO",
    "local_government_id": "508",
    "local_government_name": "ALIMOSHO",
    "state_id": "24",
    "state_name": "LAGOS",
    "location": {
      "latitude": 6.5995494,
      "longitude": 3.3082971,
      "viewport": {
        "northeast": {
          "lat": 6.600899229892722,
          "lng": 3.309646929892722
        },
        "southwest": {
          "lat": 6.598199570107278,
          "lng": 3.306947270107278
        }
      },
      "formatted_address": "Oluwakemi St, Egbeda 102213, Lagos, Nigeria",
      "google_map_url": "https://maps.google.com?q=6.5995494,3.3082971",
      "google_place_id": "ChIJA0PCVKWROxARt23Bu47ZnJU"
    }
  },
  {
    "id": "113344",
    "name": "SHASHA PRY. SCHOOL, SHASHA I",
    "registration_area_id": "5869",
    "precise_location": null,
    "abbreviation": "056",
    "units": "056",
    "delimitation": "24/03/01/056",
    "remark": "EXISTING PU",
    "ward_id": "5869",
    "ward_name": "SHASHA/AKOWONJO",
    "local_government_id": "508",
    "local_government_name": "ALIMOSHO",
    "state_id": "24",
    "state_name": "LAGOS",
    "location": {
      "latitude": 6.5896,
      "longitude": 3.3027332,
      "viewport": {
        "northeast": {
          "lat": 6.590916379892723,
          "lng": 3.304091279892722
        },
        "southwest": {
          "lat": 6.588216720107279,
          "lng": 3.301391620107278
        }
      },
      "formatted_address": "35/37 Odebunmi Afonka St, Shasha 102213, Lagos, Nigeria",
      "google_map_url": "https://maps.google.com?q=6.5896,3.3027332",
      "google_place_id": "ChIJsb9sjrWROxARYmlHHDccE_8"
    }
  },
  {
    "id": "113345",
    "name": "SHASHA PRY. SCHOOL, SHASHA II",
    "registration_area_id": "5869",
    "precise_location": null,
    "abbreviation": "057",
    "units": "057",
    "delimitation": "24/03/01/057",
    "remark": "EXISTING PU",
    "ward_id": "5869",
    "ward_name": "SHASHA/AKOWONJO",
    "local_government_id": "508",
    "local_government_name": "ALIMOSHO",
    "state_id": "24",
    "state_name": "LAGOS",
    "location": {
      "latitude": 6.5896,
      "longitude": 3.3027332,
      "viewport": {
        "northeast": {
          "lat": 6.590916379892723,
          "lng": 3.304091279892722
        },
        "southwest": {
          "lat": 6.588216720107279,
          "lng": 3.301391620107278
        }
      },
      "formatted_address": "35/37 Odebunmi Afonka St, Shasha 102213, Lagos, Nigeria",
      "google_map_url": "https://maps.google.com?q=6.5896,3.3027332",
      "google_place_id": "ChIJsb9sjrWROxARYmlHHDccE_8"
    }
  },
  {
    "id": "113346",
    "name": "ODEBUNMI/AFONKA JUNCTION",
    "registration_area_id": "5869",
    "precise_location": null,
    "abbreviation": "058",
    "units": "058",
    "delimitation": "24/03/01/058",
    "remark": "EXISTING PU",
    "ward_id": "5869",
    "ward_name": "SHASHA/AKOWONJO",
    "local_government_id": "508",
    "local_government_name": "ALIMOSHO",
    "state_id": "24",
    "state_name": "LAGOS",
    "location": {
      "latitude": 6.593558,
      "longitude": 3.3044359,
      "viewport": {
        "northeast": {
          "lat": 6.594841629892722,
          "lng": 3.305784829892722
        },
        "southwest": {
          "lat": 6.592141970107278,
          "lng": 3.303085170107277
        }
      },
      "formatted_address": "No. 10, Afonka Odebunmi Street, Shasha, Alimosho, Akowonjo 100234, Lagos, Nigeria",
      "google_map_url": "https://maps.google.com?q=6.593558,3.3044359",
      "google_place_id": "ChIJnV-KsLaROxAR4Y7KRyl3AgQ"
    }
  },
  {
    "id": "113347",
    "name": "COMMUNITY HIGH SCHOOL, SHASHA",
    "registration_area_id": "5869",
    "precise_location": null,
    "abbreviation": "059",
    "units": "059",
    "delimitation": "24/03/01/059",
    "remark": "EXISTING PU",
    "ward_id": "5869",
    "ward_name": "SHASHA/AKOWONJO",
    "local_government_id": "508",
    "local_government_name": "ALIMOSHO",
    "state_id": "24",
    "state_name": "LAGOS",
    "location": {
      "latitude": 6.5835462,
      "longitude": 3.2936999,
      "viewport": {
        "northeast": {
          "lat": 6.584898129892721,
          "lng": 3.295030329892723
        },
        "southwest": {
          "lat": 6.582198470107278,
          "lng": 3.292330670107278
        }
      },
      "formatted_address": "H7MV+CCG, Akowonjo 102213, Ikeja, Nigeria",
      "google_map_url": "https://maps.google.com?q=6.5835462,3.2936999",
      "google_place_id": "ChIJq6qqqjaQOxARLLUUi_1P9LM"
    }
  },
  {
    "id": "113348",
    "name": "IBB NAF BASE AT THE GATE ENTRANCE",
    "registration_area_id": "5869",
    "precise_location": null,
    "abbreviation": "060",
    "units": "060",
    "delimitation": "24/03/01/060",
    "remark": "EXISTING PU",
    "ward_id": "5869",
    "ward_name": "SHASHA/AKOWONJO",
    "local_government_id": "508",
    "local_government_name": "ALIMOSHO",
    "state_id": "24",
    "state_name": "LAGOS",
    "location": {
      "latitude": 6.5741195,
      "longitude": 3.2988171,
      "viewport": {
        "northeast": {
          "lat": 6.57622955,
          "lng": 3.301363649999999
        },
        "southwest": {
          "lat": 6.573416150000001,
          "lng": 3.29626465
        }
      },
      "formatted_address": "Babs Sarumi St, Isheri Olofin 102213, Lagos, Nigeria",
      "google_map_url": "https://maps.google.com?q=6.5741195,3.2988171",
      "google_place_id": "ChIJg4uavROROxAR4dVS4VcU480"
    }
  },
  {
    "id": "113349",
    "name": "ALONG AKOWONJO ROAD",
    "registration_area_id": "5869",
    "precise_location": null,
    "abbreviation": "061",
    "units": "061",
    "delimitation": "24/03/01/061",
    "remark": "EXISTING PU",
    "ward_id": "5869",
    "ward_name": "SHASHA/AKOWONJO",
    "local_government_id": "508",
    "local_government_name": "ALIMOSHO",
    "state_id": "24",
    "state_name": "LAGOS",
    "location": {
      "latitude": 6.602068,
      "longitude": 3.3021204,
      "viewport": {
        "northeast": {
          "lat": 6.61735020000005,
          "lng": 3.321097549999999
        },
        "southwest": {
          "lat": 6.593046199999949,
          "lng": 3.281395750000001
        }
      },
      "formatted_address": "Akowonjo Rd, Shasha, Lagos, Nigeria",
      "google_map_url": "https://maps.google.com?q=6.602068,3.3021204",
      "google_place_id": "EiNBa293b25qbyBSZCwgU2hhc2hhLCBBZ2VnZSwgTmlnZXJpYSIuKiwKFAoSCaHISviukTsQETuNxVnxbMuiEhQKEgmjwrIkypE7EBEQxAhNhPB7kw"
    }
  },
  {
    "id": "113350",
    "name": "ANUOLUWAPO/OLUWATOYIN JUNCTION",
    "registration_area_id": "5869",
    "precise_location": null,
    "abbreviation": "062",
    "units": "062",
    "delimitation": "24/03/01/062",
    "remark": "EXISTING PU",
    "ward_id": "5869",
    "ward_name": "SHASHA/AKOWONJO",
    "local_government_id": "508",
    "local_government_name": "ALIMOSHO",
    "state_id": "24",
    "state_name": "LAGOS",
    "location": {
      "latitude": 6.594233099999999,
      "longitude": 3.3058588,
      "viewport": {
        "northeast": {
          "lat": 6.595582929892721,
          "lng": 3.307208629892723
        },
        "southwest": {
          "lat": 6.592883270107277,
          "lng": 3.304508970107278
        }
      },
      "formatted_address": "Oluwatoyin St & Anuoluwapo St, Egbeda 102213, Lagos, Nigeria",
      "google_map_url": "https://maps.google.com?q=6.594233099999999,3.3058588",
      "google_place_id": "EjxPbHV3YXRveWluIFN0ICYgQW51b2x1d2FwbyBTdCwgRWdiZWRhIDEwMjIxMywgQWdlZ2UsIE5pZ2VyaWEiZiJkChQKEgkLWu0ssZE7EBGUqct6cmBxZBIUChIJC1rtLLGROxARlKnLenJgcWQaFAoSCY9MFUqxkTsQETM-bNLPp0rcGhQKEgnbvyutsZE7EBG-qM8WoXtL2CIKDTsz7gMVHG_4AQ"
    }
  },
  {
    "id": "113351",
    "name": "SASA PRIMARY SCHOOL",
    "registration_area_id": "5869",
    "precise_location": null,
    "abbreviation": "063",
    "units": "063",
    "delimitation": "24/03/01/063",
    "remark": "EXISTING PU",
    "ward_id": "5869",
    "ward_name": "SHASHA/AKOWONJO",
    "local_government_id": "508",
    "local_government_name": "ALIMOSHO",
    "state_id": "24",
    "state_name": "LAGOS",
    "location": {
      "latitude": 6.587496199999999,
      "longitude": 3.3040177,
      "viewport": {
        "northeast": {
          "lat": 6.588869879892723,
          "lng": 3.305396379892722
        },
        "southwest": {
          "lat": 6.586170220107278,
          "lng": 3.302696720107277
        }
      },
      "formatted_address": "Ajako Bus Stop, Ola-Ogundipe St, Banmeke 102213, Lagos, Nigeria",
      "google_map_url": "https://maps.google.com?q=6.587496199999999,3.3040177",
      "google_place_id": "ChIJ_wyVBMqROxARHn6gTHDcDms"
    }
  },
  {
    "id": "113352",
    "name": "FRONT OF 24, IGBEHIN ADUN STREET",
    "registration_area_id": "5869",
    "precise_location": null,
    "abbreviation": "064",
    "units": "064",
    "delimitation": "24/03/01/064",
    "remark": "EXISTING PU",
    "ward_id": "5869",
    "ward_name": "SHASHA/AKOWONJO",
    "local_government_id": "508",
    "local_government_name": "ALIMOSHO",
    "state_id": "24",
    "state_name": "LAGOS",
    "location": {
      "latitude": 6.596096999999999,
      "longitude": 3.3034518,
      "viewport": {
        "northeast": {
          "lat": 6.597449379892721,
          "lng": 3.304699329892722
        },
        "southwest": {
          "lat": 6.594749720107277,
          "lng": 3.301999670107277
        }
      },
      "formatted_address": "Abati B/Stop, 113 Shasha Rd, Akowonjo 102213, Lagos, Nigeria",
      "google_map_url": "https://maps.google.com?q=6.596096999999999,3.3034518",
      "google_place_id": "ChIJjeXF2bOROxARAvhEBGDN_4s"
    }
  },
  {
    "id": "113353",
    "name": "FRONT OF 44, IGBEHIN ADUN STREET",
    "registration_area_id": "5869",
    "precise_location": null,
    "abbreviation": "065",
    "units": "065",
    "delimitation": "24/03/01/065",
    "remark": "EXISTING PU",
    "ward_id": "5869",
    "ward_name": "SHASHA/AKOWONJO",
    "local_government_id": "508",
    "local_government_name": "ALIMOSHO",
    "state_id": "24",
    "state_name": "LAGOS",
    "location": {
      "latitude": 6.605415799999999,
      "longitude": 3.3107285,
      "viewport": {
        "northeast": {
          "lat": 6.606811729892722,
          "lng": 3.311976929892722
        },
        "southwest": {
          "lat": 6.604112070107278,
          "lng": 3.309277270107278
        }
      },
      "formatted_address": "7 Shasha Rd, Akowonjo 102213, Lagos, Nigeria",
      "google_map_url": "https://maps.google.com?q=6.605415799999999,3.3107285",
      "google_place_id": "ChIJe0g9taeROxARFOB4I9VT3xY"
    }
  },
  {
    "id": "113354",
    "name": "ABATI PRIMARY SCHOOL",
    "registration_area_id": "5869",
    "precise_location": null,
    "abbreviation": "066",
    "units": "066",
    "delimitation": "24/03/01/066",
    "remark": "EXISTING PU",
    "ward_id": "5869",
    "ward_name": "SHASHA/AKOWONJO",
    "local_government_id": "508",
    "local_government_name": "ALIMOSHO",
    "state_id": "24",
    "state_name": "LAGOS",
    "location": {
      "latitude": 6.5969337,
      "longitude": 3.3028753,
      "viewport": {
        "northeast": {
          "lat": 6.598364679892723,
          "lng": 3.304245729892723
        },
        "southwest": {
          "lat": 6.595665020107279,
          "lng": 3.301546070107278
        }
      },
      "formatted_address": "H8W3+Q5J, Shasha Rd, Egbeda 102213, Lagos, Nigeria",
      "google_map_url": "https://maps.google.com?q=6.5969337,3.3028753",
      "google_place_id": "ChIJ-fg-3LOROxARU0MkYTI16bw"
    }
  },
  {
    "id": "113355",
    "name": "FRONT OF 9, ABEOKUTA STREET",
    "registration_area_id": "5869",
    "precise_location": null,
    "abbreviation": "067",
    "units": "067",
    "delimitation": "24/03/01/067",
    "remark": "EXISTING PU",
    "ward_id": "5869",
    "ward_name": "SHASHA/AKOWONJO",
    "local_government_id": "508",
    "local_government_name": "ALIMOSHO",
    "state_id": "24",
    "state_name": "LAGOS",
    "location": {
      "latitude": 6.592480800000001,
      "longitude": 3.3078516,
      "viewport": {
        "northeast": {
          "lat": 6.593830629892723,
          "lng": 3.309201429892722
        },
        "southwest": {
          "lat": 6.591130970107279,
          "lng": 3.306501770107278
        }
      },
      "formatted_address": "Abeokuta St, Egbeda 102213, Lagos, Nigeria",
      "google_map_url": "https://maps.google.com?q=6.592480800000001,3.3078516",
      "google_place_id": "ChIJcYX6abeROxAROPC1Vv1tFhY"
    }
  },
  {
    "id": "113356",
    "name": "ALONG BOUNDARY ROAD",
    "registration_area_id": "5869",
    "precise_location": null,
    "abbreviation": "068",
    "units": "068",
    "delimitation": "24/03/01/068",
    "remark": "EXISTING PU",
    "ward_id": "5869",
    "ward_name": "SHASHA/AKOWONJO",
    "local_government_id": "508",
    "local_government_name": "ALIMOSHO",
    "state_id": "24",
    "state_name": "LAGOS",
    "location": {
      "latitude": 6.590302299999999,
      "longitude": 3.3086879,
      "viewport": {
        "northeast": {
          "lat": 6.596435500000052,
          "lng": 3.309685729892722
        },
        "southwest": {
          "lat": 6.584171099999949,
          "lng": 3.306986070107278
        }
      },
      "formatted_address": "Boundary Rd, Shasha 102213, Lagos, Nigeria",
      "google_map_url": "https://maps.google.com?q=6.590302299999999,3.3086879",
      "google_place_id": "EipCb3VuZGFyeSBSZCwgU2hhc2hhIDEwMjIxMywgTGFnb3MsIE5pZ2VyaWEiLiosChQKEgmbjcpmupE7EBGLFlFkogmmpRIUChIJo8KyJMqROxAREMQITYTwe5M"
    }
  },
  {
    "id": "113357",
    "name": "ALONG BOUNDARY ROAD",
    "registration_area_id": "5869",
    "precise_location": null,
    "abbreviation": "069",
    "units": "069",
    "delimitation": "24/03/01/069",
    "remark": "EXISTING PU",
    "ward_id": "5869",
    "ward_name": "SHASHA/AKOWONJO",
    "local_government_id": "508",
    "local_government_name": "ALIMOSHO",
    "state_id": "24",
    "state_name": "LAGOS",
    "location": {
      "latitude": 6.590302299999999,
      "longitude": 3.3086879,
      "viewport": {
        "northeast": {
          "lat": 6.596435500000052,
          "lng": 3.309685729892722
        },
        "southwest": {
          "lat": 6.584171099999949,
          "lng": 3.306986070107278
        }
      },
      "formatted_address": "Boundary Rd, Shasha 102213, Lagos, Nigeria",
      "google_map_url": "https://maps.google.com?q=6.590302299999999,3.3086879",
      "google_place_id": "EipCb3VuZGFyeSBSZCwgU2hhc2hhIDEwMjIxMywgTGFnb3MsIE5pZ2VyaWEiLiosChQKEgmbjcpmupE7EBGLFlFkogmmpRIUChIJo8KyJMqROxAREMQITYTwe5M"
    }
  },
  {
    "id": "113358",
    "name": "FRONT OF 17, ATTAN ROAD",
    "registration_area_id": "5869",
    "precise_location": null,
    "abbreviation": "070",
    "units": "070",
    "delimitation": "24/03/01/070",
    "remark": "EXISTING PU",
    "ward_id": "5869",
    "ward_name": "SHASHA/AKOWONJO",
    "local_government_id": "508",
    "local_government_name": "ALIMOSHO",
    "state_id": "24",
    "state_name": "LAGOS",
    "location": {
      "latitude": 6.596096999999999,
      "longitude": 3.3034518,
      "viewport": {
        "northeast": {
          "lat": 6.597449379892721,
          "lng": 3.304699329892722
        },
        "southwest": {
          "lat": 6.594749720107277,
          "lng": 3.301999670107277
        }
      },
      "formatted_address": "Abati B/Stop, 113 Shasha Rd, Akowonjo 102213, Lagos, Nigeria",
      "google_map_url": "https://maps.google.com?q=6.596096999999999,3.3034518",
      "google_place_id": "ChIJjeXF2bOROxARAvhEBGDN_4s"
    }
  },
  {
    "id": "113359",
    "name": "FRONT OF NO. 1 OMOLORE",
    "registration_area_id": "5869",
    "precise_location": null,
    "abbreviation": "071",
    "units": "071",
    "delimitation": "24/03/01/071",
    "remark": "EXISTING PU",
    "ward_id": "5869",
    "ward_name": "SHASHA/AKOWONJO",
    "local_government_id": "508",
    "local_government_name": "ALIMOSHO",
    "state_id": "24",
    "state_name": "LAGOS",
    "location": null
  },
  {
    "id": "113360",
    "name": "SASA BY COKER/BANMEKE JUNCTION",
    "registration_area_id": "5869",
    "precise_location": null,
    "abbreviation": "072",
    "units": "072",
    "delimitation": "24/03/01/072",
    "remark": "EXISTING PU",
    "ward_id": "5869",
    "ward_name": "SHASHA/AKOWONJO",
    "local_government_id": "508",
    "local_government_name": "ALIMOSHO",
    "state_id": "24",
    "state_name": "LAGOS",
    "location": {
      "latitude": 6.5877004,
      "longitude": 3.300178,
      "viewport": {
        "northeast": {
          "lat": 6.589042629892721,
          "lng": 3.301539429892722
        },
        "southwest": {
          "lat": 6.586342970107277,
          "lng": 3.298839770107278
        }
      },
      "formatted_address": "13 Ola-Ogundipe St, Bammeke 102213, Lagos, Nigeria",
      "google_map_url": "https://maps.google.com?q=6.5877004,3.300178",
      "google_place_id": "ChIJHbeFDMqROxAR-AW0FsnuALI"
    }
  },
  {
    "id": "113361",
    "name": "FRONT OF 21, OGUNTADE STREET",
    "registration_area_id": "5869",
    "precise_location": null,
    "abbreviation": "073",
    "units": "073",
    "delimitation": "24/03/01/073",
    "remark": "EXISTING PU",
    "ward_id": "5869",
    "ward_name": "SHASHA/AKOWONJO",
    "local_government_id": "508",
    "local_government_name": "ALIMOSHO",
    "state_id": "24",
    "state_name": "LAGOS",
    "location": {
      "latitude": 6.5826835,
      "longitude": 3.3044885,
      "viewport": {
        "northeast": {
          "lat": 6.584033329892721,
          "lng": 3.305838329892722
        },
        "southwest": {
          "lat": 6.581333670107277,
          "lng": 3.303138670107278
        }
      },
      "formatted_address": "Oguntade Rd, Isheri Olofin 102213, Lagos, Nigeria",
      "google_map_url": "https://maps.google.com?q=6.5826835,3.3044885",
      "google_place_id": "ChIJfzkctM6ROxARERzzgpi5WcU"
    }
  },
  {
    "id": "113362",
    "name": "FRONT OF 50, OJO ROAD SASA",
    "registration_area_id": "5869",
    "precise_location": null,
    "abbreviation": "074",
    "units": "074",
    "delimitation": "24/03/01/074",
    "remark": "EXISTING PU",
    "ward_id": "5869",
    "ward_name": "SHASHA/AKOWONJO",
    "local_government_id": "508",
    "local_government_name": "ALIMOSHO",
    "state_id": "24",
    "state_name": "LAGOS",
    "location": {
      "latitude": 6.5835462,
      "longitude": 3.2936999,
      "viewport": {
        "northeast": {
          "lat": 6.584898129892721,
          "lng": 3.295030329892723
        },
        "southwest": {
          "lat": 6.582198470107278,
          "lng": 3.292330670107278
        }
      },
      "formatted_address": "H7MV+CCG, Akowonjo 102213, Ikeja, Nigeria",
      "google_map_url": "https://maps.google.com?q=6.5835462,3.2936999",
      "google_place_id": "ChIJq6qqqjaQOxARLLUUi_1P9LM"
    }
  },
  {
    "id": "113363",
    "name": "FRONT OF 54, OJO ROAD SASA",
    "registration_area_id": "5869",
    "precise_location": null,
    "abbreviation": "075",
    "units": "075",
    "delimitation": "24/03/01/075",
    "remark": "EXISTING PU",
    "ward_id": "5869",
    "ward_name": "SHASHA/AKOWONJO",
    "local_government_id": "508",
    "local_government_name": "ALIMOSHO",
    "state_id": "24",
    "state_name": "LAGOS",
    "location": {
      "latitude": 6.5835462,
      "longitude": 3.2936999,
      "viewport": {
        "northeast": {
          "lat": 6.584898129892721,
          "lng": 3.295030329892723
        },
        "southwest": {
          "lat": 6.582198470107278,
          "lng": 3.292330670107278
        }
      },
      "formatted_address": "H7MV+CCG, Akowonjo 102213, Ikeja, Nigeria",
      "google_map_url": "https://maps.google.com?q=6.5835462,3.2936999",
      "google_place_id": "ChIJq6qqqjaQOxARLLUUi_1P9LM"
    }
  },
  {
    "id": "113364",
    "name": "FRONT OF 56, OJO ROAD SASA",
    "registration_area_id": "5869",
    "precise_location": null,
    "abbreviation": "076",
    "units": "076",
    "delimitation": "24/03/01/076",
    "remark": "EXISTING PU",
    "ward_id": "5869",
    "ward_name": "SHASHA/AKOWONJO",
    "local_government_id": "508",
    "local_government_name": "ALIMOSHO",
    "state_id": "24",
    "state_name": "LAGOS",
    "location": {
      "latitude": 6.5835462,
      "longitude": 3.2936999,
      "viewport": {
        "northeast": {
          "lat": 6.584898129892721,
          "lng": 3.295030329892723
        },
        "southwest": {
          "lat": 6.582198470107278,
          "lng": 3.292330670107278
        }
      },
      "formatted_address": "H7MV+CCG, Akowonjo 102213, Ikeja, Nigeria",
      "google_map_url": "https://maps.google.com?q=6.5835462,3.2936999",
      "google_place_id": "ChIJq6qqqjaQOxARLLUUi_1P9LM"
    }
  },
  {
    "id": "113365",
    "name": "FRONT OF 15, IGE STREET AKOWONJO",
    "registration_area_id": "5869",
    "precise_location": null,
    "abbreviation": "077",
    "units": "077",
    "delimitation": "24/03/01/077",
    "remark": "EXISTING PU",
    "ward_id": "5869",
    "ward_name": "SHASHA/AKOWONJO",
    "local_government_id": "508",
    "local_government_name": "ALIMOSHO",
    "state_id": "24",
    "state_name": "LAGOS",
    "location": {
      "latitude": 6.596096999999999,
      "longitude": 3.3034518,
      "viewport": {
        "northeast": {
          "lat": 6.597449379892721,
          "lng": 3.304699329892722
        },
        "southwest": {
          "lat": 6.594749720107277,
          "lng": 3.301999670107277
        }
      },
      "formatted_address": "Abati B/Stop, 113 Shasha Rd, Akowonjo 102213, Lagos, Nigeria",
      "google_map_url": "https://maps.google.com?q=6.596096999999999,3.3034518",
      "google_place_id": "ChIJjeXF2bOROxARAvhEBGDN_4s"
    }
  },
  {
    "id": "113366",
    "name": "FRONT OF DRAUGHTMAN'S OFF OGO OLUWA STREET",
    "registration_area_id": "5869",
    "precise_location": null,
    "abbreviation": "078",
    "units": "078",
    "delimitation": "24/03/01/078",
    "remark": "EXISTING PU",
    "ward_id": "5869",
    "ward_name": "SHASHA/AKOWONJO",
    "local_government_id": "508",
    "local_government_name": "ALIMOSHO",
    "state_id": "24",
    "state_name": "LAGOS",
    "location": {
      "latitude": 6.6058301,
      "longitude": 3.3053955,
      "viewport": {
        "northeast": {
          "lat": 6.607069279892722,
          "lng": 3.306696479892723
        },
        "southwest": {
          "lat": 6.604369620107278,
          "lng": 3.303996820107278
        }
      },
      "formatted_address": "23, Ogo Oluwa street, Pako bus stop, Akowonjo, Lagos Alimosho, Akowonjo 100275, Lagos, Nigeria",
      "google_map_url": "https://maps.google.com?q=6.6058301,3.3053955",
      "google_place_id": "ChIJ-7WaUu6ROxARXHjSf1YDyPE"
    }
  },
  {
    "id": "113367",
    "name": "BESIDE DRAUGHTMAN SHASHA I",
    "registration_area_id": "5869",
    "precise_location": null,
    "abbreviation": "079",
    "units": "079",
    "delimitation": "24/03/01/079",
    "remark": "EXISTING PU",
    "ward_id": "5869",
    "ward_name": "SHASHA/AKOWONJO",
    "local_government_id": "508",
    "local_government_name": "ALIMOSHO",
    "state_id": "24",
    "state_name": "LAGOS",
    "location": {
      "latitude": 6.5901749,
      "longitude": 3.3063503,
      "viewport": {
        "northeast": {
          "lat": 6.591488479892722,
          "lng": 3.307621429892722
        },
        "southwest": {
          "lat": 6.588788820107278,
          "lng": 3.304921770107277
        }
      },
      "formatted_address": "39 Shasha Road , Akowonjo - Egbeda, Alimosho, Lagos, Nigeria",
      "google_map_url": "https://maps.google.com?q=6.5901749,3.3063503",
      "google_place_id": "ChIJU9Yo5A-ROxAR2uMznTYR6wk"
    }
  },
  {
    "id": "113368",
    "name": "BESIDE DRAUGHTMAN SHASHA II",
    "registration_area_id": "5869",
    "precise_location": null,
    "abbreviation": "080",
    "units": "080",
    "delimitation": "24/03/01/080",
    "remark": "EXISTING PU",
    "ward_id": "5869",
    "ward_name": "SHASHA/AKOWONJO",
    "local_government_id": "508",
    "local_government_name": "ALIMOSHO",
    "state_id": "24",
    "state_name": "LAGOS",
    "location": {
      "latitude": 6.589211,
      "longitude": 3.3018603,
      "viewport": {
        "northeast": {
          "lat": 6.590567229892723,
          "lng": 3.303299979892723
        },
        "southwest": {
          "lat": 6.587867570107279,
          "lng": 3.300600320107278
        }
      },
      "formatted_address": "H8Q2+MQJ, Shasha, Akowonjo, Ikeja, Lagos, Nigeria",
      "google_map_url": "https://maps.google.com?q=6.589211,3.3018603",
      "google_place_id": "ChIJN-gCgLWROxAROJz83xB_F7Y"
    }
  },
  {
    "id": "113369",
    "name": "FRONT OF 5, OGUN STREET AKOWONJO",
    "registration_area_id": "5869",
    "precise_location": null,
    "abbreviation": "081",
    "units": "081",
    "delimitation": "24/03/01/081",
    "remark": "EXISTING PU",
    "ward_id": "5869",
    "ward_name": "SHASHA/AKOWONJO",
    "local_government_id": "508",
    "local_government_name": "ALIMOSHO",
    "state_id": "24",
    "state_name": "LAGOS",
    "location": {
      "latitude": 6.6117608,
      "longitude": 3.3028244,
      "viewport": {
        "northeast": {
          "lat": 6.613110629892723,
          "lng": 3.304174229892723
        },
        "southwest": {
          "lat": 6.610410970107279,
          "lng": 3.301474570107278
        }
      },
      "formatted_address": "5 Ogun St, 102213, Lagos, Nigeria",
      "google_map_url": "https://maps.google.com?q=6.6117608,3.3028244",
      "google_place_id": "EiE1IE9ndW4gU3QsIDEwMjIxMywgTGFnb3MsIE5pZ2VyaWEiMBIuChQKEglTQ0a-AJE7EBHBZLNtV8PDlRAFKhQKEglrn2nLAJE7EBExPnkdX3rzuA"
    }
  },
  {
    "id": "113370",
    "name": "SAMUEL STREET AKOWONJO",
    "registration_area_id": "5869",
    "precise_location": null,
    "abbreviation": "082",
    "units": "082",
    "delimitation": "24/03/01/082",
    "remark": "EXISTING PU",
    "ward_id": "5869",
    "ward_name": "SHASHA/AKOWONJO",
    "local_government_id": "508",
    "local_government_name": "ALIMOSHO",
    "state_id": "24",
    "state_name": "LAGOS",
    "location": {
      "latitude": 6.6000887,
      "longitude": 3.3004039,
      "viewport": {
        "northeast": {
          "lat": 6.601438529892723,
          "lng": 3.301753729892723
        },
        "southwest": {
          "lat": 6.598738870107279,
          "lng": 3.299054070107278
        }
      },
      "formatted_address": "Akowonjo Rd & Samuel St, Egbeda 102213, Lagos, Nigeria",
      "google_map_url": "https://maps.google.com?q=6.6000887,3.3004039",
      "google_place_id": "EjZBa293b25qbyBSZCAmIFNhbXVlbCBTdCwgRWdiZWRhIDEwMjIxMywgQWdlZ2UsIE5pZ2VyaWEiZiJkChQKEgkX41plrZE7EBG4i9EaqMO1KRIUChIJF-NaZa2ROxARuIvRGqjDtSkaFAoSCaHISviukTsQETuNxVnxbMuiGhQKEgnvo4fqspE7EBG1sZUrg1iZPCIKDfcX7wMVB5r3AQ"
    }
  },
  {
    "id": "113371",
    "name": "10, FAKOYA STREET AKOWONJO",
    "registration_area_id": "5869",
    "precise_location": null,
    "abbreviation": "083",
    "units": "083",
    "delimitation": "24/03/01/083",
    "remark": "EXISTING PU",
    "ward_id": "5869",
    "ward_name": "SHASHA/AKOWONJO",
    "local_government_id": "508",
    "local_government_name": "ALIMOSHO",
    "state_id": "24",
    "state_name": "LAGOS",
    "location": {
      "latitude": 6.594857699999999,
      "longitude": 3.300036,
      "viewport": {
        "northeast": {
          "lat": 6.596197379892722,
          "lng": 3.301425529892723
        },
        "southwest": {
          "lat": 6.593497720107278,
          "lng": 3.298725870107278
        }
      },
      "formatted_address": "10 Fakoya St, Egbeda 102213, Lagos, Nigeria",
      "google_map_url": "https://maps.google.com?q=6.594857699999999,3.300036",
      "google_place_id": "ChIJBZWBaLOROxARlnbErWZp_f0"
    }
  },
  {
    "id": "113372",
    "name": "FRONT OF 11, BAMMEKE ROAD",
    "registration_area_id": "5869",
    "precise_location": null,
    "abbreviation": "084",
    "units": "084",
    "delimitation": "24/03/01/084",
    "remark": "EXISTING PU",
    "ward_id": "5869",
    "ward_name": "SHASHA/AKOWONJO",
    "local_government_id": "508",
    "local_government_name": "ALIMOSHO",
    "state_id": "24",
    "state_name": "LAGOS",
    "location": null
  },
  {
    "id": "113373",
    "name": "ABATI/OSHO JUNCTION",
    "registration_area_id": "5869",
    "precise_location": null,
    "abbreviation": "085",
    "units": "085",
    "delimitation": "24/03/01/085",
    "remark": "EXISTING PU",
    "ward_id": "5869",
    "ward_name": "SHASHA/AKOWONJO",
    "local_government_id": "508",
    "local_government_name": "ALIMOSHO",
    "state_id": "24",
    "state_name": "LAGOS",
    "location": {
      "latitude": 6.5982954,
      "longitude": 3.3008571,
      "viewport": {
        "northeast": {
          "lat": 6.599645229892722,
          "lng": 3.302206929892722
        },
        "southwest": {
          "lat": 6.596945570107278,
          "lng": 3.299507270107278
        }
      },
      "formatted_address": "Abati Cl & Alh. Osho St, Egbeda 102213, Lagos, Nigeria",
      "google_map_url": "https://maps.google.com?q=6.5982954,3.3008571",
      "google_place_id": "EjZBYmF0aSBDbCAmIEFsaC4gT3NobyBTdCwgRWdiZWRhIDEwMjIxMywgQWdlZ2UsIE5pZ2VyaWEiZiJkChQKEgm7rIyMspE7EBF2YS46uzLJfxIUChIJu6yMjLKROxARdmEuOrsyyX8aFAoSCQeL81-ykTsQESt0DkxF19kDGhQKEgkFEPLkspE7EBEDHdK230FzjyIKDerR7gMVu6v3AQ"
    }
  },
  {
    "id": "113374",
    "name": "OGUNTADE/COKER JUNCTION",
    "registration_area_id": "5869",
    "precise_location": null,
    "abbreviation": "086",
    "units": "086",
    "delimitation": "24/03/01/086",
    "remark": "EXISTING PU",
    "ward_id": "5869",
    "ward_name": "SHASHA/AKOWONJO",
    "local_government_id": "508",
    "local_government_name": "ALIMOSHO",
    "state_id": "24",
    "state_name": "LAGOS",
    "location": {
      "latitude": 6.5808506,
      "longitude": 3.3024811,
      "viewport": {
        "northeast": {
          "lat": 6.582200429892722,
          "lng": 3.303830929892723
        },
        "southwest": {
          "lat": 6.579500770107278,
          "lng": 3.301131270107278
        }
      },
      "formatted_address": "Coker Rd & Oguntade Rd, Isheri Olofin 102213, Lagos, Nigeria",
      "google_map_url": "https://maps.google.com?q=6.5808506,3.3024811",
      "google_place_id": "EjxDb2tlciBSZCAmIE9ndW50YWRlIFJkLCBJc2hlcmkgT2xvZmluIDEwMjIxMywgQWdlZ2UsIE5pZ2VyaWEiZiJkChQKEgmXZNXKzZE7EBH6Zgd9K1iEZRIUChIJl2TVys2ROxAR-mYHfStYhGUaFAoSCSWIOIHNkTsQEcivvbP3706ZGhQKEgl_ORy0zpE7EBERHPOCmLlZxSIKDXoo7AMVK-v3AQ"
    }
  },
  {
    "id": "113375",
    "name": "OJO/JAIYEOBA JUNCTION",
    "registration_area_id": "5869",
    "precise_location": null,
    "abbreviation": "087",
    "units": "087",
    "delimitation": "24/03/01/087",
    "remark": "EXISTING PU",
    "ward_id": "5869",
    "ward_name": "SHASHA/AKOWONJO",
    "local_government_id": "508",
    "local_government_name": "ALIMOSHO",
    "state_id": "24",
    "state_name": "LAGOS",
    "location": {
      "latitude": 6.5806586,
      "longitude": 3.3065315,
      "viewport": {
        "northeast": {
          "lat": 6.582008429892722,
          "lng": 3.307881329892722
        },
        "southwest": {
          "lat": 6.579308770107279,
          "lng": 3.305181670107277
        }
      },
      "formatted_address": "Jaiyeoba Rd & Ojo St, Isheri Olofin 102213, Lagos, Nigeria",
      "google_map_url": "https://maps.google.com?q=6.5806586,3.3065315",
      "google_place_id": "EjpKYWl5ZW9iYSBSZCAmIE9qbyBTdCwgSXNoZXJpIE9sb2ZpbiAxMDIyMTMsIEFnZWdlLCBOaWdlcmlhImYiZAoUChIJw13Uq8-ROxARm-mMaCryaxYSFAoSCcNd1KvPkTsQEZvpjGgq8msWGhQKEgkVd4osz5E7EBH5wAfIkzGFFBoUChIJUZWIYs6ROxAR5ZguBLnb3NgiCg36IOwDFWOJ-AE"
    }
  },
  {
    "id": "113376",
    "name": "AKINWOWO/LAMBE KUDAISI JUNCTION SHASHA",
    "registration_area_id": "5869",
    "precise_location": null,
    "abbreviation": "088",
    "units": "088",
    "delimitation": "24/03/01/088",
    "remark": "NEW PU",
    "ward_id": "5869",
    "ward_name": "SHASHA/AKOWONJO",
    "local_government_id": "508",
    "local_government_name": "ALIMOSHO",
    "state_id": "24",
    "state_name": "LAGOS",
    "location": {
      "latitude": 6.605131300000001,
      "longitude": 3.3019431,
      "viewport": {
        "northeast": {
          "lat": 6.606481129892723,
          "lng": 3.303292929892722
        },
        "southwest": {
          "lat": 6.603781470107279,
          "lng": 3.300593270107278
        }
      },
      "formatted_address": "Akinwowo St & Lambe Kudaisi St, Alimosho 102213, Lagos, Nigeria",
      "google_map_url": "https://maps.google.com?q=6.605131300000001,3.3019431",
      "google_place_id": "Ej9Ba2lud293byBTdCAmIExhbWJlIEt1ZGFpc2kgU3QsIEFsaW1vc2hvIDEwMjIxMywgQWdlZ2UsIE5pZ2VyaWEiZiJkChQKEglx_DmJq5E7EBGhQ3xvVt_JkRIUChIJcfw5iauROxARoUN8b1bfyZEaFAoSCcnnVoYAkTsQEXtxrtvNuxxtGhQKEgk7Xs1-q5E7EBGHFU4ZB7p75CIKDfHc7wMVJ9b3AQ"
    }
  },
  {
    "id": "113377",
    "name": "ALONG JIBADE CLOSE/AKINOSHO RD,OMITUNTUN",
    "registration_area_id": "5869",
    "precise_location": null,
    "abbreviation": "089",
    "units": "089",
    "delimitation": "24/03/01/089",
    "remark": "NEW PU",
    "ward_id": "5869",
    "ward_name": "SHASHA/AKOWONJO",
    "local_government_id": "508",
    "local_government_name": "ALIMOSHO",
    "state_id": "24",
    "state_name": "LAGOS",
    "location": {
      "latitude": 6.585201499999999,
      "longitude": 3.3050178,
      "viewport": {
        "northeast": {
          "lat": 6.586745879892722,
          "lng": 3.306221679892722
        },
        "southwest": {
          "lat": 6.584046220107278,
          "lng": 3.303522020107278
        }
      },
      "formatted_address": "H8P4+32J, Rafiu Jafojo Park, Shasha Road, Ajako Bustop Alimosho, 100272, Lagos, Nigeria",
      "google_map_url": "https://maps.google.com?q=6.585201499999999,3.3050178",
      "google_place_id": "ChIJ8yARw5CROxAR6YZ7WoWYAMk"
    }
  },
  {
    "id": "113378",
    "name": "YEKINI LAWAL JUNCTION AKOWONJO",
    "registration_area_id": "5869",
    "precise_location": null,
    "abbreviation": "090",
    "units": "090",
    "delimitation": "24/03/01/090",
    "remark": "NEW PU",
    "ward_id": "5869",
    "ward_name": "SHASHA/AKOWONJO",
    "local_government_id": "508",
    "local_government_name": "ALIMOSHO",
    "state_id": "24",
    "state_name": "LAGOS",
    "location": {
      "latitude": 6.6002236,
      "longitude": 3.3010648,
      "viewport": {
        "northeast": {
          "lat": 6.601547879892722,
          "lng": 3.302447279892722
        },
        "southwest": {
          "lat": 6.598848220107278,
          "lng": 3.299747620107278
        }
      },
      "formatted_address": "9,LAWAL STREET OFF ABATI JUNCTION, VULCANIZER BUS STOP AKOWONJO, AKOWONJO 300001, Lagos, Nigeria",
      "google_map_url": "https://maps.google.com?q=6.6002236,3.3010648",
      "google_place_id": "ChIJAXuWd62ROxARcCMkV-H4K1A"
    }
  },
  {
    "id": "113379",
    "name": "RUFAI/CHURCH STREET JUNCTION,AKOWONJO",
    "registration_area_id": "5869",
    "precise_location": null,
    "abbreviation": "091",
    "units": "091",
    "delimitation": "24/03/01/091",
    "remark": "NEW PU",
    "ward_id": "5869",
    "ward_name": "SHASHA/AKOWONJO",
    "local_government_id": "508",
    "local_government_name": "ALIMOSHO",
    "state_id": "24",
    "state_name": "LAGOS",
    "location": {
      "latitude": 6.600440499999999,
      "longitude": 3.3090655,
      "viewport": {
        "northeast": {
          "lat": 6.601790529892721,
          "lng": 3.310354379892722
        },
        "southwest": {
          "lat": 6.599090870107277,
          "lng": 3.307654720107278
        }
      },
      "formatted_address": "49/51, Shasha Road, Akowonjo, Alimosho, Lagos Nigeria, Akowonjo, Lagos, Nigeria",
      "google_map_url": "https://maps.google.com?q=6.600440499999999,3.3090655",
      "google_place_id": "ChIJIY9mXKWROxARcHIVxYZ2XL4"
    }
  },
  {
    "id": "113380",
    "name": "INFRONT OF REDEEMED CHURCH,VICTORIA RD. SHASHA",
    "registration_area_id": "5869",
    "precise_location": null,
    "abbreviation": "092",
    "units": "092",
    "delimitation": "24/03/01/092",
    "remark": "NEW PU",
    "ward_id": "5869",
    "ward_name": "SHASHA/AKOWONJO",
    "local_government_id": "508",
    "local_government_name": "ALIMOSHO",
    "state_id": "24",
    "state_name": "LAGOS",
    "location": {
      "latitude": 6.600440499999999,
      "longitude": 3.3090655,
      "viewport": {
        "northeast": {
          "lat": 6.601790529892721,
          "lng": 3.310354379892722
        },
        "southwest": {
          "lat": 6.599090870107277,
          "lng": 3.307654720107278
        }
      },
      "formatted_address": "49/51, Shasha Road, Akowonjo, Alimosho, Lagos Nigeria, Akowonjo, Lagos, Nigeria",
      "google_map_url": "https://maps.google.com?q=6.600440499999999,3.3090655",
      "google_place_id": "ChIJIY9mXKWROxARcHIVxYZ2XL4"
    }
  },
  {
    "id": "113381",
    "name": "OLUWALOGBON/OMIRINDE JUNCTION AKOWONJO/REDEEMED CHURCH",
    "registration_area_id": "5869",
    "precise_location": null,
    "abbreviation": "093",
    "units": "093",
    "delimitation": "24/03/01/093",
    "remark": "NEW PU",
    "ward_id": "5869",
    "ward_name": "SHASHA/AKOWONJO",
    "local_government_id": "508",
    "local_government_name": "ALIMOSHO",
    "state_id": "24",
    "state_name": "LAGOS",
    "location": {
      "latitude": 6.600440499999999,
      "longitude": 3.3090655,
      "viewport": {
        "northeast": {
          "lat": 6.601790529892721,
          "lng": 3.310354379892722
        },
        "southwest": {
          "lat": 6.599090870107277,
          "lng": 3.307654720107278
        }
      },
      "formatted_address": "49/51, Shasha Road, Akowonjo, Alimosho, Lagos Nigeria, Akowonjo, Lagos, Nigeria",
      "google_map_url": "https://maps.google.com?q=6.600440499999999,3.3090655",
      "google_place_id": "ChIJIY9mXKWROxARcHIVxYZ2XL4"
    }
  },
  {
    "id": "113382",
    "name": "FRONT OF 126,AKOWONJO ROAD AKOWONJO/APOSTLE ALEBIOSU",
    "registration_area_id": "5869",
    "precise_location": null,
    "abbreviation": "094",
    "units": "094",
    "delimitation": "24/03/01/094",
    "remark": "NEW PU",
    "ward_id": "5869",
    "ward_name": "SHASHA/AKOWONJO",
    "local_government_id": "508",
    "local_government_name": "ALIMOSHO",
    "state_id": "24",
    "state_name": "LAGOS",
    "location": {
      "latitude": 6.6069602,
      "longitude": 3.310133,
      "viewport": {
        "northeast": {
          "lat": 6.608315679892721,
          "lng": 3.311451629892722
        },
        "southwest": {
          "lat": 6.605616020107277,
          "lng": 3.308751970107278
        }
      },
      "formatted_address": "J846+Q3J, Akowonjo Bridge, Idi Mangoro 102213, Lagos, Nigeria",
      "google_map_url": "https://maps.google.com?q=6.6069602,3.310133",
      "google_place_id": "ChIJv58uYTqROxARg7ySQGCbtCo"
    }
  },
  {
    "id": "113383",
    "name": "IWAJOWA/OGO OLUWA JUNCTION OMITUNTUN. OGUNWEMIMO STR BROOKSTORE COLLEGE",
    "registration_area_id": "5869",
    "precise_location": null,
    "abbreviation": "095",
    "units": "095",
    "delimitation": "24/03/01/095",
    "remark": "NEW PU",
    "ward_id": "5869",
    "ward_name": "SHASHA/AKOWONJO",
    "local_government_id": "508",
    "local_government_name": "ALIMOSHO",
    "state_id": "24",
    "state_name": "LAGOS",
    "location": {
      "latitude": 6.5876806,
      "longitude": 3.3003408,
      "viewport": {
        "northeast": {
          "lat": 6.589017379892721,
          "lng": 3.301540979892722
        },
        "southwest": {
          "lat": 6.586317720107277,
          "lng": 3.298841320107278
        }
      },
      "formatted_address": "1-3 Ola-Ogundipe St, Bammeke 102213, Lagos, Nigeria",
      "google_map_url": "https://maps.google.com?q=6.5876806,3.3003408",
      "google_place_id": "ChIJCTMAk8qROxAR7iGvblraD6U"
    }
  },
  {
    "id": "113384",
    "name": "1, AJISEBIARA MECCA/ ADEDIRAN CL. JUNC. AKOWONJO",
    "registration_area_id": "5869",
    "precise_location": null,
    "abbreviation": "096",
    "units": "096",
    "delimitation": "24/03/01/096",
    "remark": "NEW PU",
    "ward_id": "5869",
    "ward_name": "SHASHA/AKOWONJO",
    "local_government_id": "508",
    "local_government_name": "ALIMOSHO",
    "state_id": "24",
    "state_name": "LAGOS",
    "location": {
      "latitude": 6.594672999999999,
      "longitude": 3.2972795,
      "viewport": {
        "northeast": {
          "lat": 6.596072279892723,
          "lng": 3.298706979892722
        },
        "southwest": {
          "lat": 6.593372620107279,
          "lng": 3.296007320107277
        }
      },
      "formatted_address": "1 Ajisebiara-Mecca St, Egbeda 102213, Lagos, Nigeria",
      "google_map_url": "https://maps.google.com?q=6.594672999999999,3.2972795",
      "google_place_id": "EjQxIEFqaXNlYmlhcmEtTWVjY2EgU3QsIEVnYmVkYSAxMDIyMTMsIExhZ29zLCBOaWdlcmlhIjASLgoUChIJ_3J9okyQOxARFeX4xB8E7DAQASoUChIJGVwHUUuQOxARlU_S2N1sZvQ"
    }
  },
  {
    "id": "113385",
    "name": "1, FEMI FAGBEMI/KAYODE ADEBOYE ADEFIBR JUNCTION AKOWONJO",
    "registration_area_id": "5869",
    "precise_location": null,
    "abbreviation": "097",
    "units": "097",
    "delimitation": "24/03/01/097",
    "remark": "NEW PU",
    "ward_id": "5869",
    "ward_name": "SHASHA/AKOWONJO",
    "local_government_id": "508",
    "local_government_name": "ALIMOSHO",
    "state_id": "24",
    "state_name": "LAGOS",
    "location": {
      "latitude": 6.590236699999999,
      "longitude": 3.3011862,
      "viewport": {
        "northeast": {
          "lat": 6.591531079892722,
          "lng": 3.302633129892723
        },
        "southwest": {
          "lat": 6.588831420107279,
          "lng": 3.299933470107278
        }
      },
      "formatted_address": "1 Femi Fagbemi St, Egbeda 102213, Lagos, Nigeria",
      "google_map_url": "https://maps.google.com?q=6.590236699999999,3.3011862",
      "google_place_id": "ChIJbd4XoLWROxARwivrarYFuEw"
    }
  },
  {
    "id": "113386",
    "name": "ADESHINA/ BABALOLA/ UNITY JUNCTION ,EGBEDA",
    "registration_area_id": "5869",
    "precise_location": null,
    "abbreviation": "098",
    "units": "098",
    "delimitation": "24/03/01/098",
    "remark": "NEW PU",
    "ward_id": "5869",
    "ward_name": "SHASHA/AKOWONJO",
    "local_government_id": "508",
    "local_government_name": "ALIMOSHO",
    "state_id": "24",
    "state_name": "LAGOS",
    "location": {
      "latitude": 6.5999493,
      "longitude": 3.292034,
      "viewport": {
        "northeast": {
          "lat": 6.601340229892722,
          "lng": 3.293282029892722
        },
        "southwest": {
          "lat": 6.598640570107278,
          "lng": 3.290582370107277
        }
      },
      "formatted_address": "Amsoba Plaza, Egbeda 1st Floor, 71 Idimu Rd, Lagos, Nigeria",
      "google_map_url": "https://maps.google.com?q=6.5999493,3.292034",
      "google_place_id": "ChIJ4wYP3FGQOxARxwwiS7EfrvI"
    }
  },
  {
    "id": "113387",
    "name": "ODULANA/ ADENIYI JUNCTION AKOWONJO",
    "registration_area_id": "5869",
    "precise_location": null,
    "abbreviation": "099",
    "units": "099",
    "delimitation": "24/03/01/099",
    "remark": "NEW PU",
    "ward_id": "5869",
    "ward_name": "SHASHA/AKOWONJO",
    "local_government_id": "508",
    "local_government_name": "ALIMOSHO",
    "state_id": "24",
    "state_name": "LAGOS",
    "location": {
      "latitude": 6.5919909,
      "longitude": 3.2973007,
      "viewport": {
        "northeast": {
          "lat": 6.593340729892722,
          "lng": 3.298650529892722
        },
        "southwest": {
          "lat": 6.590641070107278,
          "lng": 3.295950870107277
        }
      },
      "formatted_address": "Odulana Cres & Adeniyi St, Egbeda 102213, Lagos, Nigeria",
      "google_map_url": "https://maps.google.com?q=6.5919909,3.2973007",
      "google_place_id": "EjhPZHVsYW5hIENyZXMgJiBBZGVuaXlpIFN0LCBFZ2JlZGEgMTAyMjEzLCBBZ2VnZSwgTmlnZXJpYSJmImQKFAoSCeuVqxlLkDsQET2MVNXVDPXXEhQKEgnrlasZS5A7EBE9jFTV1Qz11xoUChIJ9z0JG0uQOxAR8eizDixqd3oaFAoSCatXBoI1kDsQEVBLZctlw_TKIgoNpdvtAxXPIPcB"
    }
  },
  {
    "id": "113388",
    "name": "10 ADENIYI/ BAB SARUMI STR AKOWONJO",
    "registration_area_id": "5869",
    "precise_location": null,
    "abbreviation": "100",
    "units": "100",
    "delimitation": "24/03/01/100",
    "remark": "NEW PU",
    "ward_id": "5869",
    "ward_name": "SHASHA/AKOWONJO",
    "local_government_id": "508",
    "local_government_name": "ALIMOSHO",
    "state_id": "24",
    "state_name": "LAGOS",
    "location": {
      "latitude": 6.5861734,
      "longitude": 3.2941402,
      "viewport": {
        "northeast": {
          "lat": 6.587523229892722,
          "lng": 3.295490029892723
        },
        "southwest": {
          "lat": 6.584823570107278,
          "lng": 3.292790370107278
        }
      },
      "formatted_address": "Sarumi St, Isheri Olofin 102213, Lagos, Nigeria",
      "google_map_url": "https://maps.google.com?q=6.5861734,3.2941402",
      "google_place_id": "ChIJ57p4XzaQOxARAigMZR5fmDY"
    }
  },
  {
    "id": "113389",
    "name": "PHILOMENA/ MUHAMMED JUNCTION SANTOS",
    "registration_area_id": "5869",
    "precise_location": null,
    "abbreviation": "101",
    "units": "101",
    "delimitation": "24/03/01/101",
    "remark": "NEW PU",
    "ward_id": "5869",
    "ward_name": "SHASHA/AKOWONJO",
    "local_government_id": "508",
    "local_government_name": "ALIMOSHO",
    "state_id": "24",
    "state_name": "LAGOS",
    "location": {
      "latitude": 6.605415799999999,
      "longitude": 3.3107285,
      "viewport": {
        "northeast": {
          "lat": 6.606811729892722,
          "lng": 3.311976929892722
        },
        "southwest": {
          "lat": 6.604112070107278,
          "lng": 3.309277270107278
        }
      },
      "formatted_address": "7 Shasha Rd, Akowonjo 102213, Lagos, Nigeria",
      "google_map_url": "https://maps.google.com?q=6.605415799999999,3.3107285",
      "google_place_id": "ChIJe0g9taeROxARFOB4I9VT3xY"
    }
  },
  {
    "id": "113390",
    "name": "6/8 OLADIPUPO/ SANTOS LAYOUT,SANTOS",
    "registration_area_id": "5869",
    "precise_location": null,
    "abbreviation": "102",
    "units": "102",
    "delimitation": "24/03/01/102",
    "remark": "NEW PU",
    "ward_id": "5869",
    "ward_name": "SHASHA/AKOWONJO",
    "local_government_id": "508",
    "local_government_name": "ALIMOSHO",
    "state_id": "24",
    "state_name": "LAGOS",
    "location": {
      "latitude": 6.605415799999999,
      "longitude": 3.3107285,
      "viewport": {
        "northeast": {
          "lat": 6.606811729892722,
          "lng": 3.311976929892722
        },
        "southwest": {
          "lat": 6.604112070107278,
          "lng": 3.309277270107278
        }
      },
      "formatted_address": "7 Shasha Rd, Akowonjo 102213, Lagos, Nigeria",
      "google_map_url": "https://maps.google.com?q=6.605415799999999,3.3107285",
      "google_place_id": "ChIJe0g9taeROxARFOB4I9VT3xY"
    }
  },
  {
    "id": "113391",
    "name": "FRONT OF 2 BAMMEKE ROAD SHASHA",
    "registration_area_id": "5869",
    "precise_location": null,
    "abbreviation": "103",
    "units": "103",
    "delimitation": "24/03/01/103",
    "remark": "NEW PU",
    "ward_id": "5869",
    "ward_name": "SHASHA/AKOWONJO",
    "local_government_id": "508",
    "local_government_name": "ALIMOSHO",
    "state_id": "24",
    "state_name": "LAGOS",
    "location": {
      "latitude": 6.596096999999999,
      "longitude": 3.3034518,
      "viewport": {
        "northeast": {
          "lat": 6.597449379892721,
          "lng": 3.304699329892722
        },