[
  {
    "id": "41711",
    "name": "OKKA PRIMARY SCHOOL - UMUGBE, UMUOKPALA, QUARTERS",
    "registration_area_id": "2296",
    "precise_location": null,
    "abbreviation": "001",
    "units": "001",
    "delimitation": "10/12/08/001",
    "remark": "EXISTING PU",
    "ward_id": "2296",
    "ward_name": "ABBI I",
    "local_government_id": "198",
    "local_government_name": "NDOKWA WEST",
    "state_id": "10",
    "state_name": "DELTA",
    "location": {
      "latitude": 5.7893652,
      "longitude": 6.1022694,
      "viewport": {
        "northeast": {
          "lat": 5.790513629892722,
          "lng": 6.103660079892722
        },
        "southwest": {
          "lat": 5.787813970107278,
          "lng": 6.100960420107278
        }
      },
      "formatted_address": "4 Jehovah St, 330105, Abraka, Nigeria",
      "google_map_url": "https://maps.google.com?q=5.7893652,6.1022694",
      "google_place_id": "ChIJibfGUxKdQRAR6E8GiC8XZXE"
    }
  },
  {
    "id": "41712",
    "name": "OKKA PRIMARY SCHOOL - UMUALU, EGBAOKPALA",
    "registration_area_id": "2296",
    "precise_location": null,
    "abbreviation": "002",
    "units": "002",
    "delimitation": "10/12/08/002",
    "remark": "EXISTING PU",
    "ward_id": "2296",
    "ward_name": "ABBI I",
    "local_government_id": "198",
    "local_government_name": "NDOKWA WEST",
    "state_id": "10",
    "state_name": "DELTA",
    "location": {
      "latitude": 5.7893652,
      "longitude": 6.1022694,
      "viewport": {
        "northeast": {
          "lat": 5.790513629892722,
          "lng": 6.103660079892722
        },
        "southwest": {
          "lat": 5.787813970107278,
          "lng": 6.100960420107278
        }
      },
      "formatted_address": "4 Jehovah St, 330105, Abraka, Nigeria",
      "google_map_url": "https://maps.google.com?q=5.7893652,6.1022694",
      "google_place_id": "ChIJibfGUxKdQRAR6E8GiC8XZXE"
    }
  },
  {
    "id": "41713",
    "name": "UDODI PRIMARY SCHOOL - UMUATU/EGBAGA I",
    "registration_area_id": "2296",
    "precise_location": null,
    "abbreviation": "003",
    "units": "003",
    "delimitation": "10/12/08/003",
    "remark": "EXISTING PU",
    "ward_id": "2296",
    "ward_name": "ABBI I",
    "local_government_id": "198",
    "local_government_name": "NDOKWA WEST",
    "state_id": "10",
    "state_name": "DELTA",
    "location": null
  },
  {
    "id": "41714",
    "name": "UDODI PRIMARY SCHOOL - UMUATU/EGBAGA II",
    "registration_area_id": "2296",
    "precise_location": null,
    "abbreviation": "004",
    "units": "004",
    "delimitation": "10/12/08/004",
    "remark": "EXISTING PU",
    "ward_id": "2296",
    "ward_name": "ABBI I",
    "local_government_id": "198",
    "local_government_name": "NDOKWA WEST",
    "state_id": "10",
    "state_name": "DELTA",
    "location": {
      "latitude": 5.7519554,
      "longitude": 6.204986799999999,
      "viewport": {
        "northeast": {
          "lat": 5.753356129892722,
          "lng": 6.206380829892721
        },
        "southwest": {
          "lat": 5.750656470107278,
          "lng": 6.203681170107277
        }
      },
      "formatted_address": "Q623+QXQ, 322107, Amai, Nigeria",
      "google_map_url": "https://maps.google.com?q=5.7519554,6.204986799999999",
      "google_place_id": "ChIJ2fhyZBp3QRARGhikz87SkjQ"
    }
  },
  {
    "id": "41715",
    "name": "OKWELLE MAIN MARKET - EDEMGBU",
    "registration_area_id": "2296",
    "precise_location": null,
    "abbreviation": "005",
    "units": "005",
    "delimitation": "10/12/08/005",
    "remark": "EXISTING PU",
    "ward_id": "2296",
    "ward_name": "ABBI I",
    "local_government_id": "198",
    "local_government_name": "NDOKWA WEST",
    "state_id": "10",
    "state_name": "DELTA",
    "location": {
      "latitude": 5.6669657,
      "longitude": 6.2073233,
      "viewport": {
        "northeast": {
          "lat": 5.668337379892722,
          "lng": 6.208663479892722
        },
        "southwest": {
          "lat": 5.665637720107278,
          "lng": 6.205963820107279
        }
      },
      "formatted_address": "M684+QWG, 322104, Abbi, Nigeria",
      "google_map_url": "https://maps.google.com?q=5.6669657,6.2073233",
      "google_place_id": "ChIJDcz4RhCdQRARZJDfpH7rGRY"
    }
  },
  {
    "id": "41716",
    "name": "OKWELLE MAIN MARKET - UMU - ODAGWE  UMU  ONOWUATA",
    "registration_area_id": "2296",
    "precise_location": null,
    "abbreviation": "006",
    "units": "006",
    "delimitation": "10/12/08/006",
    "remark": "EXISTING PU",
    "ward_id": "2296",
    "ward_name": "ABBI I",
    "local_government_id": "198",
    "local_government_name": "NDOKWA WEST",
    "state_id": "10",
    "state_name": "DELTA",
    "location": {
      "latitude": 5.9148733,
      "longitude": 6.4744663,
      "viewport": {
        "northeast": {
          "lat": 5.916148429892721,
          "lng": 6.475868079892723
        },
        "southwest": {
          "lat": 5.913448770107277,
          "lng": 6.473168420107279
        }
      },
      "formatted_address": "WF7F+WQW, 322132, Umudike, Nigeria",
      "google_map_url": "https://maps.google.com?q=5.9148733,6.4744663",
      "google_place_id": "ChIJH117nm3ZQxARMFlj-jBlf4c"
    }
  },
  {
    "id": "41717",
    "name": "UDODI  PRIMARY SCHOOL - UMUONWU, UMU ODAGWE  EGBATA/OKPALA",
    "registration_area_id": "2296",
    "precise_location": null,
    "abbreviation": "007",
    "units": "007",
    "delimitation": "10/12/08/007",
    "remark": "EXISTING PU",
    "ward_id": "2296",
    "ward_name": "ABBI I",
    "local_government_id": "198",
    "local_government_name": "NDOKWA WEST",
    "state_id": "10",
    "state_name": "DELTA",
    "location": null
  },
  {
    "id": "41718",
    "name": "F.S.P.  CENTRE - UMUATU & UMUECHI",
    "registration_area_id": "2296",
    "precise_location": null,
    "abbreviation": "008",
    "units": "008",
    "delimitation": "10/12/08/008",
    "remark": "EXISTING PU",
    "ward_id": "2296",
    "ward_name": "ABBI I",
    "local_government_id": "198",
    "local_government_name": "NDOKWA WEST",
    "state_id": "10",
    "state_name": "DELTA",
    "location": null
  },
  {
    "id": "41719",
    "name": "UDODI PRIMARY SCHOOL - OKWELE  QUARTERS I",
    "registration_area_id": "2296",
    "precise_location": null,
    "abbreviation": "009",
    "units": "009",
    "delimitation": "10/12/08/009",
    "remark": "EXISTING PU",
    "ward_id": "2296",
    "ward_name": "ABBI I",
    "local_government_id": "198",
    "local_government_name": "NDOKWA WEST",
    "state_id": "10",
    "state_name": "DELTA",
    "location": null
  },
  {
    "id": "41720",
    "name": "UDODI PRIMARY SCHOOL - OKWELE  QUARTERS II",
    "registration_area_id": "2296",
    "precise_location": null,
    "abbreviation": "010",
    "units": "010",
    "delimitation": "10/12/08/010",
    "remark": "EXISTING PU",
    "ward_id": "2296",
    "ward_name": "ABBI I",
    "local_government_id": "198",
    "local_government_name": "NDOKWA WEST",
    "state_id": "10",
    "state_name": "DELTA",
    "location": {
      "latitude": 5.7893652,
      "longitude": 6.1022694,
      "viewport": {
        "northeast": {
          "lat": 5.790513629892722,
          "lng": 6.103660079892722
        },
        "southwest": {
          "lat": 5.787813970107278,
          "lng": 6.100960420107278
        }
      },
      "formatted_address": "4 Jehovah St, 330105, Abraka, Nigeria",
      "google_map_url": "https://maps.google.com?q=5.7893652,6.1022694",
      "google_place_id": "ChIJ8w4QXxGdQRARa3ZH1TkwoKk"
    }
  },
  {
    "id": "41721",
    "name": "ABBI GIRLS COMPREHENSIVE SEC. SCH.",
    "registration_area_id": "2296",
    "precise_location": null,
    "abbreviation": "011",
    "units": "011",
    "delimitation": "10/12/08/011",
    "remark": "NEW PU",
    "ward_id": "2296",
    "ward_name": "ABBI I",
    "local_government_id": "198",
    "local_government_name": "NDOKWA WEST",
    "state_id": "10",
    "state_name": "DELTA",
    "location": {
      "latitude": 5.662719699999999,
      "longitude": 6.210887,
      "viewport": {
        "northeast": {
          "lat": 5.663633949999998,
          "lng": 6.211654979892722
        },
        "southwest": {
          "lat": 5.659976950000002,
          "lng": 6.208955320107278
        }
      },
      "formatted_address": "M676+39J, Unnamed Road, 322104, Abbi, Nigeria",
      "google_map_url": "https://maps.google.com?q=5.662719699999999,6.210887",
      "google_place_id": "ChIJ9cFn6pCdQRARp5Rx5HNvmY0"
    }
  }
]