[
  {
    "id": "353454",
    "name": "IKOLABA GRAMMAR SCHOOL,",
    "registration_area_id": "18091",
    "precise_location": null,
    "abbreviation": "001",
    "units": "001",
    "delimitation": "30/06/05/001",
    "remark": "EXISTING PU",
    "ward_id": "18091",
    "ward_name": "WARD V, N5B",
    "local_government_id": "633",
    "local_government_name": "IBADAN NORTH",
    "state_id": "30",
    "state_name": "OYO",
    "location": {
      "latitude": 7.409908199999999,
      "longitude": 3.9191943,
      "viewport": {
        "northeast": {
          "lat": 7.411258029892721,
          "lng": 3.920544129892722
        },
        "southwest": {
          "lat": 7.408558370107277,
          "lng": 3.917844470107278
        }
      },
      "formatted_address": "Ikolaba Grammar School Road, 200285, Ibadan, Nigeria",
      "google_map_url": "https://maps.google.com?q=7.409908199999999,3.9191943",
      "google_place_id": "ChIJf-W1e7qSORARGEMB-fn91po"
    }
  },
  {
    "id": "353455",
    "name": "IKOLABA HIGH SCHOOL",
    "registration_area_id": "18091",
    "precise_location": null,
    "abbreviation": "002",
    "units": "002",
    "delimitation": "30/06/05/002",
    "remark": "EXISTING PU",
    "ward_id": "18091",
    "ward_name": "WARD V, N5B",
    "local_government_id": "633",
    "local_government_name": "IBADAN NORTH",
    "state_id": "30",
    "state_name": "OYO",
    "location": {
      "latitude": 7.4102571,
      "longitude": 3.9195159,
      "viewport": {
        "northeast": {
          "lat": 7.411606929892722,
          "lng": 3.920865729892721
        },
        "southwest": {
          "lat": 7.408907270107278,
          "lng": 3.918166070107278
        }
      },
      "formatted_address": "Ikolaba High School Rd, 200285, Ibadan, Nigeria",
      "google_map_url": "https://maps.google.com?q=7.4102571,3.9195159",
      "google_place_id": "ChIJ67FEcbqSORAR7ka1-rGZlqw"
    }
  },
  {
    "id": "353456",
    "name": "POST OFFICE AGODI GATE",
    "registration_area_id": "18091",
    "precise_location": null,
    "abbreviation": "003",
    "units": "003",
    "delimitation": "30/06/05/003",
    "remark": "EXISTING PU",
    "ward_id": "18091",
    "ward_name": "WARD V, N5B",
    "local_government_id": "633",
    "local_government_name": "IBADAN NORTH",
    "state_id": "30",
    "state_name": "OYO",
    "location": {
      "latitude": 7.395946399999999,
      "longitude": 3.9191375,
      "viewport": {
        "northeast": {
          "lat": 7.397205479892722,
          "lng": 3.920569229892722
        },
        "southwest": {
          "lat": 7.394505820107278,
          "lng": 3.917869570107278
        }
      },
      "formatted_address": "9WW9+9MC, A5, 200285, Ibadan, Nigeria",
      "google_map_url": "https://maps.google.com?q=7.395946399999999,3.9191375",
      "google_place_id": "ChIJ8ThZHZeSORARV8T_ZwIwKjU"
    }
  },
  {
    "id": "353457",
    "name": "FEDERAL HOUSING, IKOLABA",
    "registration_area_id": "18091",
    "precise_location": null,
    "abbreviation": "004",
    "units": "004",
    "delimitation": "30/06/05/004",
    "remark": "EXISTING PU",
    "ward_id": "18091",
    "ward_name": "WARD V, N5B",
    "local_government_id": "633",
    "local_government_name": "IBADAN NORTH",
    "state_id": "30",
    "state_name": "OYO",
    "location": {
      "latitude": 7.4099662,
      "longitude": 3.9155968,
      "viewport": {
        "northeast": {
          "lat": 7.41128252989272,
          "lng": 3.916868329892721
        },
        "southwest": {
          "lat": 7.408582870107276,
          "lng": 3.914168670107277
        }
      },
      "formatted_address": "CW58+X6P, Ikolaba Rd, 200285, Ibadan, Nigeria",
      "google_map_url": "https://maps.google.com?q=7.4099662,3.9155968",
      "google_place_id": "ChIJwW_tV6WSORARsIN82Qf7rnE"
    }
  },
  {
    "id": "353458",
    "name": "BIBILARI SHOPPING COMPLEX",
    "registration_area_id": "18091",
    "precise_location": null,
    "abbreviation": "005",
    "units": "005",
    "delimitation": "30/06/05/005",
    "remark": "EXISTING PU",
    "ward_id": "18091",
    "ward_name": "WARD V, N5B",
    "local_government_id": "633",
    "local_government_name": "IBADAN NORTH",
    "state_id": "30",
    "state_name": "OYO",
    "location": {
      "latitude": 7.3959246,
      "longitude": 3.9182346,
      "viewport": {
        "northeast": {
          "lat": 7.397307529892721,
          "lng": 3.919603729892721
        },
        "southwest": {
          "lat": 7.394607870107277,
          "lng": 3.916904070107277
        }
      },
      "formatted_address": "local government, Agodi Gate Way, opposite ibadan North, 200285, Ibadan, Nigeria",
      "google_map_url": "https://maps.google.com?q=7.3959246,3.9182346",
      "google_place_id": "ChIJCZJs5wyTORARGF8cj5Z-JWc"
    }
  },
  {
    "id": "353459",
    "name": "IN FRONT OF CUSTOMS, AGODI",
    "registration_area_id": "18091",
    "precise_location": null,
    "abbreviation": "006",
    "units": "006",
    "delimitation": "30/06/05/006",
    "remark": "EXISTING PU",
    "ward_id": "18091",
    "ward_name": "WARD V, N5B",
    "local_government_id": "633",
    "local_government_name": "IBADAN NORTH",
    "state_id": "30",
    "state_name": "OYO",
    "location": {
      "latitude": 7.397599700000001,
      "longitude": 3.9186401,
      "viewport": {
        "northeast": {
          "lat": 7.398938929892721,
          "lng": 3.919970829892722
        },
        "southwest": {
          "lat": 7.396239270107277,
          "lng": 3.917271170107278
        }
      },
      "formatted_address": "Gate, Local Government Secretariat Oyo, Ibadan, Nigeria",
      "google_map_url": "https://maps.google.com?q=7.397599700000001,3.9186401",
      "google_place_id": "ChIJafrLxOqSORARnIU4_sRBd2Y"
    }
  },
  {
    "id": "353460",
    "name": "RAILWAY CROSSING BODIJA",
    "registration_area_id": "18091",
    "precise_location": null,
    "abbreviation": "007",
    "units": "007",
    "delimitation": "30/06/05/007",
    "remark": "EXISTING PU",
    "ward_id": "18091",
    "ward_name": "WARD V, N5B",
    "local_government_id": "633",
    "local_government_name": "IBADAN NORTH",
    "state_id": "30",
    "state_name": "OYO",
    "location": {
      "latitude": 7.430685,
      "longitude": 3.912689,
      "viewport": {
        "northeast": {
          "lat": 7.432035779892722,
          "lng": 3.914036379892723
        },
        "southwest": {
          "lat": 7.429336120107277,
          "lng": 3.911336720107279
        }
      },
      "formatted_address": "Bus Stop, 200132, Ibadan, Nigeria",
      "google_map_url": "https://maps.google.com?q=7.430685,3.912689",
      "google_place_id": "ChIJc0OgXf3tORARbmrPC1AHMuA"
    }
  },
  {
    "id": "353461",
    "name": "BASORUN/OJOO HIGH SCHOOL ASI",
    "registration_area_id": "18091",
    "precise_location": null,
    "abbreviation": "008",
    "units": "008",
    "delimitation": "30/06/05/008",
    "remark": "EXISTING PU",
    "ward_id": "18091",
    "ward_name": "WARD V, N5B",
    "local_government_id": "633",
    "local_government_name": "IBADAN NORTH",
    "state_id": "30",
    "state_name": "OYO",
    "location": {
      "latitude": 7.422384999999999,
      "longitude": 3.934783,
      "viewport": {
        "northeast": {
          "lat": 7.423737629892722,
          "lng": 3.936233929892722
        },
        "southwest": {
          "lat": 7.421037970107278,
          "lng": 3.933534270107279
        }
      },
      "formatted_address": "6FV5CWCM+XW3, 6 Ashi Road, 200285, Ibadan, Nigeria",
      "google_map_url": "https://maps.google.com?q=7.422384999999999,3.934783",
      "google_place_id": "ChIJA2RJGPbtORARnzpLsRyZSIM"
    }
  },
  {
    "id": "353462",
    "name": "BRICK HOUSE HOTEL, BODIJA",
    "registration_area_id": "18091",
    "precise_location": null,
    "abbreviation": "009",
    "units": "009",
    "delimitation": "30/06/05/009",
    "remark": "EXISTING PU",
    "ward_id": "18091",
    "ward_name": "WARD V, N5B",
    "local_government_id": "633",
    "local_government_name": "IBADAN NORTH",
    "state_id": "30",
    "state_name": "OYO",
    "location": {
      "latitude": 7.431352599999999,
      "longitude": 3.9025927,
      "viewport": {
        "northeast": {
          "lat": 7.432689929892722,
          "lng": 3.903841729892723
        },
        "southwest": {
          "lat": 7.429990270107278,
          "lng": 3.901142070107279
        }
      },
      "formatted_address": "Plot 5, Dominican University way, off Sango/UI Road, Samonda, opposite NASFAT, Ibadan, Nigeria",
      "google_map_url": "https://maps.google.com?q=7.431352599999999,3.9025927",
      "google_place_id": "ChIJ6-ds5WrzORARLFKTAQTKABA"
    }
  },
  {
    "id": "353463",
    "name": "METHODIST SCHOOL II, BODIJA",
    "registration_area_id": "18091",
    "precise_location": null,
    "abbreviation": "010",
    "units": "010",
    "delimitation": "30/06/05/010",
    "remark": "EXISTING PU",
    "ward_id": "18091",
    "ward_name": "WARD V, N5B",
    "local_government_id": "633",
    "local_government_name": "IBADAN NORTH",
    "state_id": "30",
    "state_name": "OYO",
    "location": {
      "latitude": 7.420052,
      "longitude": 3.913259,
      "viewport": {
        "northeast": {
          "lat": 7.421377029892721,
          "lng": 3.914454879892722
        },
        "southwest": {
          "lat": 7.418677370107277,
          "lng": 3.911755220107278
        }
      },
      "formatted_address": "6FV5CWC7+28C, Bamigbola Avenue New Bodija Extension, Estate 200285, Ibadan, Nigeria",
      "google_map_url": "https://maps.google.com?q=7.420052,3.913259",
      "google_place_id": "ChIJTf4U0KySORARc8jwre_cBtE"
    }
  },
  {
    "id": "353464",
    "name": "LATE CHIEF LEKAN SALAMI ESTATE",
    "registration_area_id": "18091",
    "precise_location": null,
    "abbreviation": "011",
    "units": "011",
    "delimitation": "30/06/05/011",
    "remark": "EXISTING PU",
    "ward_id": "18091",
    "ward_name": "WARD V, N5B",
    "local_government_id": "633",
    "local_government_name": "IBADAN NORTH",
    "state_id": "30",
    "state_name": "OYO",
    "location": {
      "latitude": 7.4181056,
      "longitude": 3.9197626,
      "viewport": {
        "northeast": {
          "lat": 7.419536729892721,
          "lng": 3.921090679892722
        },
        "southwest": {
          "lat": 7.416837070107277,
          "lng": 3.918391020107278
        }
      },
      "formatted_address": "Salami Estate, 200285, Ibadan, Nigeria",
      "google_map_url": "https://maps.google.com?q=7.4181056,3.9197626",
      "google_place_id": "ChIJh_-vp7OSORARjj42eF17_Z8"
    }
  },
  {
    "id": "353465",
    "name": "OWO EGBELEKE",
    "registration_area_id": "18091",
    "precise_location": null,
    "abbreviation": "012",
    "units": "012",
    "delimitation": "30/06/05/012",
    "remark": "EXISTING PU",
    "ward_id": "18091",
    "ward_name": "WARD V, N5B",
    "local_government_id": "633",
    "local_government_name": "IBADAN NORTH",
    "state_id": "30",
    "state_name": "OYO",
    "location": {
      "latitude": 7.431278099999999,
      "longitude": 3.9276605,
      "viewport": {
        "northeast": {
          "lat": 7.432627929892721,
          "lng": 3.929010329892723
        },
        "southwest": {
          "lat": 7.429928270107277,
          "lng": 3.926310670107279
        }
      },
      "formatted_address": "Owo Egbeleke Street, 200132, Ibadan, Nigeria",
      "google_map_url": "https://maps.google.com?q=7.431278099999999,3.9276605",
      "google_place_id": "ChIJHfd38zftORAR3W4_sYdXTEI"
    }
  },
  {
    "id": "353466",
    "name": "FRONT OF LATE ALHAJI FATAI OLUSEGUN HOUSE",
    "registration_area_id": "18091",
    "precise_location": null,
    "abbreviation": "013",
    "units": "013",
    "delimitation": "30/06/05/013",
    "remark": "EXISTING PU",
    "ward_id": "18091",
    "ward_name": "WARD V, N5B",
    "local_government_id": "633",
    "local_government_name": "IBADAN NORTH",
    "state_id": "30",
    "state_name": "OYO",
    "location": null
  },
  {
    "id": "353467",
    "name": "MT. OLIVET GRAMMAR SCHOOL",
    "registration_area_id": "18091",
    "precise_location": null,
    "abbreviation": "014",
    "units": "014",
    "delimitation": "30/06/05/014",
    "remark": "EXISTING PU",
    "ward_id": "18091",
    "ward_name": "WARD V, N5B",
    "local_government_id": "633",
    "local_government_name": "IBADAN NORTH",
    "state_id": "30",
    "state_name": "OYO",
    "location": {
      "latitude": 7.427424100000001,
      "longitude": 3.9197331,
      "viewport": {
        "northeast": {
          "lat": 7.428757629892723,
          "lng": 3.921135929892722
        },
        "southwest": {
          "lat": 7.426057970107279,
          "lng": 3.918436270107279
        }
      },
      "formatted_address": "6FV5CWHC+54V, 9 Ashi Rd, 200132, Ibadan, Nigeria",
      "google_map_url": "https://maps.google.com?q=7.427424100000001,3.9197331",
      "google_place_id": "ChIJzYWe707tORARBZwsthWtl7A"
    }
  },
  {
    "id": "353468",
    "name": "ISLAMIC HIGH SCHOOL, BASORUN",
    "registration_area_id": "18091",
    "precise_location": null,
    "abbreviation": "015",
    "units": "015",
    "delimitation": "30/06/05/015",
    "remark": "EXISTING PU",
    "ward_id": "18091",
    "ward_name": "WARD V, N5B",
    "local_government_id": "633",
    "local_government_name": "IBADAN NORTH",
    "state_id": "30",
    "state_name": "OYO",
    "location": {
      "latitude": 7.419966199999999,
      "longitude": 3.9334989,
      "viewport": {
        "northeast": {
          "lat": 7.421499779892721,
          "lng": 3.934661779892722
        },
        "southwest": {
          "lat": 7.418800120107277,
          "lng": 3.931962120107278
        }
      },
      "formatted_address": "Islamic High School, 200285, Ibadan, Nigeria",
      "google_map_url": "https://maps.google.com?q=7.419966199999999,3.9334989",
      "google_place_id": "ChIJE9CxyMySORARpqHn1-7CT0g"
    }
  },
  {
    "id": "353469",
    "name": "C & S NEW EDEN PRIMARY SCHOOL",
    "registration_area_id": "18091",
    "precise_location": null,
    "abbreviation": "016",
    "units": "016",
    "delimitation": "30/06/05/016",
    "remark": "EXISTING PU",
    "ward_id": "18091",
    "ward_name": "WARD V, N5B",
    "local_government_id": "633",
    "local_government_name": "IBADAN NORTH",
    "state_id": "30",
    "state_name": "OYO",
    "location": {
      "latitude": 43.4790797,
      "longitude": -80.5163432,
      "viewport": {
        "northeast": {
          "lat": 43.48040932989272,
          "lng": -80.51503197010727
        },
        "southwest": {
          "lat": 43.47770967010727,
          "lng": -80.51773162989271
        }
      },
      "formatted_address": "119 University Ave E Suite 21, Waterloo, ON N2J 2W1, Canada",
      "google_map_url": "https://maps.google.com?q=43.4790797,-80.5163432",
      "google_place_id": "ChIJnZgV_fTzK4gRex9vTJjq2CM"
    }
  },
  {
    "id": "353470",
    "name": "ST. PATRICK GRAMMAR SCHOOL",
    "registration_area_id": "18091",
    "precise_location": null,
    "abbreviation": "017",
    "units": "017",
    "delimitation": "30/06/05/017",
    "remark": "EXISTING PU",
    "ward_id": "18091",
    "ward_name": "WARD V, N5B",
    "local_government_id": "633",
    "local_government_name": "IBADAN NORTH",
    "state_id": "30",
    "state_name": "OYO",
    "location": {
      "latitude": 7.410555,
      "longitude": 3.9297508,
      "viewport": {
        "northeast": {
          "lat": 7.411879829892722,
          "lng": 3.931129779892723
        },
        "southwest": {
          "lat": 7.409180170107278,
          "lng": 3.928430120107279
        }
      },
      "formatted_address": "CW6H+6VP, 200285, Ibadan, Nigeria",
      "google_map_url": "https://maps.google.com?q=7.410555,3.9297508",
      "google_place_id": "ChIJT_DbdAmTORARMFESRSHopn0"
    }
  },
  {
    "id": "353471",
    "name": "OSUNKAYE INU KOKO",
    "registration_area_id": "18091",
    "precise_location": null,
    "abbreviation": "018",
    "units": "018",
    "delimitation": "30/06/05/018",
    "remark": "EXISTING PU",
    "ward_id": "18091",
    "ward_name": "WARD V, N5B",
    "local_government_id": "633",
    "local_government_name": "IBADAN NORTH",
    "state_id": "30",
    "state_name": "OYO",
    "location": null
  },
  {
    "id": "353472",
    "name": "METHODIST GRAMMAR SCHOOL, BODIJA",
    "registration_area_id": "18091",
    "precise_location": null,
    "abbreviation": "019",
    "units": "019",
    "delimitation": "30/06/05/019",
    "remark": "EXISTING PU",
    "ward_id": "18091",
    "ward_name": "WARD V, N5B",
    "local_government_id": "633",
    "local_government_name": "IBADAN NORTH",
    "state_id": "30",
    "state_name": "OYO",
    "location": {
      "latitude": 7.415518399999999,
      "longitude": 3.9215541,
      "viewport": {
        "northeast": {
          "lat": 7.4372874,
          "lng": 3.9402266
        },
        "southwest": {
          "lat": 7.395286899999999,
          "lng": 3.9073654
        }
      },
      "formatted_address": "Ward V, N5b, Ibadan, Nigeria",
      "google_map_url": "https://maps.google.com?q=7.415518399999999,3.9215541",
      "google_place_id": "ChIJf_AmMrSSORARVc_nVgD1d1Y"
    }
  },
  {
    "id": "353473",
    "name": "OLUWO-NLA",
    "registration_area_id": "18091",
    "precise_location": null,
    "abbreviation": "020",
    "units": "020",
    "delimitation": "30/06/05/020",
    "remark": "EXISTING PU",
    "ward_id": "18091",
    "ward_name": "WARD V, N5B",
    "local_government_id": "633",
    "local_government_name": "IBADAN NORTH",
    "state_id": "30",
    "state_name": "OYO",
    "location": {
      "latitude": 7.416837300000001,
      "longitude": 3.9275837,
      "viewport": {
        "northeast": {
          "lat": 7.418187129892723,
          "lng": 3.928933529892722
        },
        "southwest": {
          "lat": 7.415487470107279,
          "lng": 3.926233870107279
        }
      },
      "formatted_address": "Oluwo Nla St, 200285, Ibadan, Nigeria",
      "google_map_url": "https://maps.google.com?q=7.416837300000001,3.9275837",
      "google_place_id": "ChIJ1XdIcsqSORARFf9qmsk4eDg"
    }
  },
  {
    "id": "353474",
    "name": "FRONT OF LATE PELLER'S HOUSE",
    "registration_area_id": "18091",
    "precise_location": null,
    "abbreviation": "021",
    "units": "021",
    "delimitation": "30/06/05/021",
    "remark": "EXISTING PU",
    "ward_id": "18091",
    "ward_name": "WARD V, N5B",
    "local_government_id": "633",
    "local_government_name": "IBADAN NORTH",
    "state_id": "30",
    "state_name": "OYO",
    "location": null
  },
  {
    "id": "353475",
    "name": "WATER RESERVOIR",
    "registration_area_id": "18091",
    "precise_location": null,
    "abbreviation": "022",
    "units": "022",
    "delimitation": "30/06/05/022",
    "remark": "EXISTING PU",
    "ward_id": "18091",
    "ward_name": "WARD V, N5B",
    "local_government_id": "633",
    "local_government_name": "IBADAN NORTH",
    "state_id": "30",
    "state_name": "OYO",
    "location": {
      "latitude": 7.4150333,
      "longitude": 3.9315425,
      "viewport": {
        "northeast": {
          "lat": 7.416552350000048,
          "lng": 3.93425505
        },
        "southwest": {
          "lat": 7.413818149999951,
          "lng": 3.92856405
        }
      },
      "formatted_address": "Water Reservoir Road, 200285, Ibadan, Nigeria",
      "google_map_url": "https://maps.google.com?q=7.4150333,3.9315425",
      "google_place_id": "Ei1XYXRlciBSZXNlcnZvaXIgUm9hZCwgMjAwMjg1LCBJYmFkYW4sIE5pZ2VyaWEiLiosChQKEgkP5h9UyZI5EBHEgs7AdQzNDhIUChIJt38VeaGSORARvQyxidpehTw"
    }
  },
  {
    "id": "353476",
    "name": "AKINGBOLA MOSQUE",
    "registration_area_id": "18091",
    "precise_location": null,
    "abbreviation": "023",
    "units": "023",
    "delimitation": "30/06/05/023",
    "remark": "EXISTING PU",
    "ward_id": "18091",
    "ward_name": "WARD V, N5B",
    "local_government_id": "633",
    "local_government_name": "IBADAN NORTH",
    "state_id": "30",
    "state_name": "OYO",
    "location": {
      "latitude": 7.3909039,
      "longitude": 3.900435,
      "viewport": {
        "northeast": {
          "lat": 7.392256779892722,
          "lng": 3.901744279892722
        },
        "southwest": {
          "lat": 7.389557120107278,
          "lng": 3.899044620107278
        }
      },
      "formatted_address": "46 Yemetu Aladorin St, 200285, Ibadan, Nigeria",
      "google_map_url": "https://maps.google.com?q=7.3909039,3.900435",
      "google_place_id": "ChIJJ74AMXGNORAR3xcCW4_3HhM"
    }
  },
  {
    "id": "353477",
    "name": "BISHOP ONABANJO HIGH SCHOOL",
    "registration_area_id": "18091",
    "precise_location": null,
    "abbreviation": "024",
    "units": "024",
    "delimitation": "30/06/05/024",
    "remark": "EXISTING PU",
    "ward_id": "18091",
    "ward_name": "WARD V, N5B",
    "local_government_id": "633",
    "local_government_name": "IBADAN NORTH",
    "state_id": "30",
    "state_name": "OYO",
    "location": {
      "latitude": 7.4294053,
      "longitude": 3.9203734,
      "viewport": {
        "northeast": {
          "lat": 7.430777279892721,
          "lng": 3.921744729892721
        },
        "southwest": {
          "lat": 7.428077620107278,
          "lng": 3.919045070107277
        }
      },
      "formatted_address": "6FV5CWHC+Q5J, 6 Ashi Bodija, 200132, Ibadan, Nigeria",
      "google_map_url": "https://maps.google.com?q=7.4294053,3.9203734",
      "google_place_id": "ChIJzYWe707tORARmgG6QcMb44M"
    }
  },
  {
    "id": "353478",
    "name": "SONBEAM NURSERY/PRIMARY SCHOOL",
    "registration_area_id": "18091",
    "precise_location": null,
    "abbreviation": "025",
    "units": "025",
    "delimitation": "30/06/05/025",
    "remark": "EXISTING PU",
    "ward_id": "18091",
    "ward_name": "WARD V, N5B",
    "local_government_id": "633",
    "local_government_name": "IBADAN NORTH",
    "state_id": "30",
    "state_name": "OYO",
    "location": {
      "latitude": 7.4224837,
      "longitude": 3.9184376,
      "viewport": {
        "northeast": {
          "lat": 7.423770029892722,
          "lng": 3.919796379892722
        },
        "southwest": {
          "lat": 7.421070370107278,
          "lng": 3.917096720107278
        }
      },
      "formatted_address": "1, Sonbeam Crescent, New Bodija, Nigeria",
      "google_map_url": "https://maps.google.com?q=7.4224837,3.9184376",
      "google_place_id": "ChIJ7_Y3je_tORARfS_XZsji8ig"
    }
  },
  {
    "id": "353479",
    "name": "IDI-OROGBO",
    "registration_area_id": "18091",
    "precise_location": null,
    "abbreviation": "026",
    "units": "026",
    "delimitation": "30/06/05/026",
    "remark": "EXISTING PU",
    "ward_id": "18091",
    "ward_name": "WARD V, N5B",
    "local_government_id": "633",
    "local_government_name": "IBADAN NORTH",
    "state_id": "30",
    "state_name": "OYO",
    "location": {
      "latitude": 7.373615500000001,
      "longitude": 3.9228121,
      "viewport": {
        "northeast": {
          "lat": 7.375906150000049,
          "lng": 3.9259744
        },
        "southwest": {
          "lat": 7.370560349999949,
          "lng": 3.920035200000001
        }
      },
      "formatted_address": "Idi Orogbo Street, 200258, Ibadan, Nigeria",
      "google_map_url": "https://maps.google.com?q=7.373615500000001,3.9228121",
      "google_place_id": "EipJZGkgT3JvZ2JvIFN0cmVldCwgMjAwMjU4LCBJYmFkYW4sIE5pZ2VyaWEiLiosChQKEgmrCOM4YZI5EBHak_m9jO2fzBIUChIJt38VeaGSORARvQyxidpehTw"
    }
  },
  {
    "id": "353480",
    "name": "ASHI VILLAGE (NEAR THE STREAM)",
    "registration_area_id": "18091",
    "precise_location": null,
    "abbreviation": "027",
    "units": "027",
    "delimitation": "30/06/05/027",
    "remark": "EXISTING PU",
    "ward_id": "18091",
    "ward_name": "WARD V, N5B",
    "local_government_id": "633",
    "local_government_name": "IBADAN NORTH",
    "state_id": "30",
    "state_name": "OYO",
    "location": null
  },
  {
    "id": "353481",
    "name": "ADEGOKE LAYOUT, ASHI",
    "registration_area_id": "18091",
    "precise_location": null,
    "abbreviation": "028",
    "units": "028",
    "delimitation": "30/06/05/028",
    "remark": "EXISTING PU",
    "ward_id": "18091",
    "ward_name": "WARD V, N5B",
    "local_government_id": "633",
    "local_government_name": "IBADAN NORTH",
    "state_id": "30",
    "state_name": "OYO",
    "location": {
      "latitude": 7.397599700000001,
      "longitude": 3.9186401,
      "viewport": {
        "northeast": {
          "lat": 7.398938929892721,
          "lng": 3.919970829892722
        },
        "southwest": {
          "lat": 7.396239270107277,
          "lng": 3.917271170107278
        }
      },
      "formatted_address": "Gate, Local Government Secretariat Oyo, Ibadan, Nigeria",
      "google_map_url": "https://maps.google.com?q=7.397599700000001,3.9186401",
      "google_place_id": "ChIJafrLxOqSORARnIU4_sRBd2Y"
    }
  },
  {
    "id": "353482",
    "name": "ARAPASOPO",
    "registration_area_id": "18091",
    "precise_location": null,
    "abbreviation": "029",
    "units": "029",
    "delimitation": "30/06/05/029",
    "remark": "EXISTING PU",
    "ward_id": "18091",
    "ward_name": "WARD V, N5B",
    "local_government_id": "633",
    "local_government_name": "IBADAN NORTH",
    "state_id": "30",
    "state_name": "OYO",
    "location": {
      "latitude": 7.397599700000001,
      "longitude": 3.9186401,
      "viewport": {
        "northeast": {
          "lat": 7.398938929892721,
          "lng": 3.919970829892722
        },
        "southwest": {
          "lat": 7.396239270107277,
          "lng": 3.917271170107278
        }
      },
      "formatted_address": "Gate, Local Government Secretariat Oyo, Ibadan, Nigeria",
      "google_map_url": "https://maps.google.com?q=7.397599700000001,3.9186401",
      "google_place_id": "ChIJafrLxOqSORARnIU4_sRBd2Y"
    }
  },
  {
    "id": "353483",
    "name": "BASORUN GUEST HOUSE",
    "registration_area_id": "18091",
    "precise_location": null,
    "abbreviation": "030",
    "units": "030",
    "delimitation": "30/06/05/030",
    "remark": "EXISTING PU",
    "ward_id": "18091",
    "ward_name": "WARD V, N5B",
    "local_government_id": "633",
    "local_government_name": "IBADAN NORTH",
    "state_id": "30",
    "state_name": "OYO",
    "location": {
      "latitude": 7.396389,
      "longitude": 3.916667,
      "viewport": {
        "northeast": {
          "lat": 7.397711729892722,
          "lng": 3.918265779892722
        },
        "southwest": {
          "lat": 7.395012070107278,
          "lng": 3.915566120107278
        }
      },
      "formatted_address": "NTA Rd, 200285, Ibadan, Oyo, Nigeria",
      "google_map_url": "https://maps.google.com?q=7.396389,3.916667",
      "google_place_id": "ChIJ2V-QfpeSORARLj9qjmsULDQ"
    }
  },
  {
    "id": "353484",
    "name": "ODO-ELEDE",
    "registration_area_id": "18091",
    "precise_location": null,
    "abbreviation": "031",
    "units": "031",
    "delimitation": "30/06/05/031",
    "remark": "EXISTING PU",
    "ward_id": "18091",
    "ward_name": "WARD V, N5B",
    "local_government_id": "633",
    "local_government_name": "IBADAN NORTH",
    "state_id": "30",
    "state_name": "OYO",
    "location": null
  },
  {
    "id": "353485",
    "name": "FESTOLA NURSERY/PRIMARY SCHOOL",
    "registration_area_id": "18091",
    "precise_location": null,
    "abbreviation": "032",
    "units": "032",
    "delimitation": "30/06/05/032",
    "remark": "EXISTING PU",
    "ward_id": "18091",
    "ward_name": "WARD V, N5B",
    "local_government_id": "633",
    "local_government_name": "IBADAN NORTH",
    "state_id": "30",
    "state_name": "OYO",
    "location": {
      "latitude": 7.431920799999999,
      "longitude": 3.9158069,
      "viewport": {
        "northeast": {
          "lat": 7.43346322989272,
          "lng": 3.917055129892722
        },
        "southwest": {
          "lat": 7.430763570107276,
          "lng": 3.914355470107278
        }
      },
      "formatted_address": "Ward V, N5b, Ibadan, Nigeria",
      "google_map_url": "https://maps.google.com?q=7.431920799999999,3.9158069",
      "google_place_id": "ChIJUaNwhsrtORARt9pW71nhUkc"
    }
  },
  {
    "id": "353486",
    "name": "OPPOSITE OLONA MOSQUE",
    "registration_area_id": "18091",
    "precise_location": null,
    "abbreviation": "033",
    "units": "033",
    "delimitation": "30/06/05/033",
    "remark": "EXISTING PU",
    "ward_id": "18091",
    "ward_name": "WARD V, N5B",
    "local_government_id": "633",
    "local_government_name": "IBADAN NORTH",
    "state_id": "30",
    "state_name": "OYO",
    "location": {
      "latitude": 7.430023599999999,
      "longitude": 3.9222235,
      "viewport": {
        "northeast": {
          "lat": 7.431322629892722,
          "lng": 3.923630429892722
        },
        "southwest": {
          "lat": 7.428622970107278,
          "lng": 3.920930770107278
        }
      },
      "formatted_address": "CWJC+2V5, 200132, Ibadan, Nigeria",
      "google_map_url": "https://maps.google.com?q=7.430023599999999,3.9222235",
      "google_place_id": "ChIJzYdLx0jtORARFO0BkLErsjU"
    }
  },
  {
    "id": "353487",
    "name": "ARE AVENUE",
    "registration_area_id": "18091",
    "precise_location": null,
    "abbreviation": "034",
    "units": "034",
    "delimitation": "30/06/05/034",
    "remark": "EXISTING PU",
    "ward_id": "18091",
    "ward_name": "WARD V, N5B",
    "local_government_id": "633",
    "local_government_name": "IBADAN NORTH",
    "state_id": "30",
    "state_name": "OYO",
    "location": {
      "latitude": 7.408347,
      "longitude": 3.918646,
      "viewport": {
        "northeast": {
          "lat": 7.409694629892722,
          "lng": 3.920017829892721
        },
        "southwest": {
          "lat": 7.406994970107278,
          "lng": 3.917318170107277
        }
      },
      "formatted_address": "7, Orelere Street Idi Ape Ikolaba, Ibadan Oyo State Ibadan North Oyo NG, 200221, Nigeria",
      "google_map_url": "https://maps.google.com?q=7.408347,3.918646",
      "google_place_id": "ChIJ1X6phNSTORARm3rf_RshCS8"
    }
  },
  {
    "id": "353488",
    "name": "HALLELUYAH NURSERY/PRIMARY SCHOOL",
    "registration_area_id": "18091",
    "precise_location": null,
    "abbreviation": "035",
    "units": "035",
    "delimitation": "30/06/05/035",
    "remark": "EXISTING PU",
    "ward_id": "18091",
    "ward_name": "WARD V, N5B",
    "local_government_id": "633",
    "local_government_name": "IBADAN NORTH",
    "state_id": "30",
    "state_name": "OYO",
    "location": {
      "latitude": 7.431920799999999,
      "longitude": 3.9158069,
      "viewport": {
        "northeast": {
          "lat": 7.43346322989272,
          "lng": 3.917055129892722
        },
        "southwest": {
          "lat": 7.430763570107276,
          "lng": 3.914355470107278
        }
      },
      "formatted_address": "Ward V, N5b, Ibadan, Nigeria",
      "google_map_url": "https://maps.google.com?q=7.431920799999999,3.9158069",
      "google_place_id": "ChIJUaNwhsrtORARt9pW71nhUkc"
    }
  },
  {
    "id": "353489",
    "name": "JUNCTION NUBIFAL PHARMACY",
    "registration_area_id": "18091",
    "precise_location": null,
    "abbreviation": "036",
    "units": "036",
    "delimitation": "30/06/05/036",
    "remark": "EXISTING PU",
    "ward_id": "18091",
    "ward_name": "WARD V, N5B",
    "local_government_id": "633",
    "local_government_name": "IBADAN NORTH",
    "state_id": "30",
    "state_name": "OYO",
    "location": {
      "latitude": 7.4245568,
      "longitude": 3.9278343,
      "viewport": {
        "northeast": {
          "lat": 7.425865029892722,
          "lng": 3.929138979892722
        },
        "southwest": {
          "lat": 7.423165370107278,
          "lng": 3.926439320107278
        }
      },
      "formatted_address": "13 Abimbade Onibiyo Wy, 200132, Ibadan, Nigeria",
      "google_map_url": "https://maps.google.com?q=7.4245568,3.9278343",
      "google_place_id": "ChIJt_qavTXtORARU5atn4_-O9Y"
    }
  },
  {
    "id": "353490",
    "name": "IKOLABA GRAMMAR SCHOOL II HALL",
    "registration_area_id": "18091",
    "precise_location": null,
    "abbreviation": "037",
    "units": "037",
    "delimitation": "30/06/05/037",
    "remark": "NEW PU",
    "ward_id": "18091",
    "ward_name": "WARD V, N5B",
    "local_government_id": "633",
    "local_government_name": "IBADAN NORTH",
    "state_id": "30",
    "state_name": "OYO",
    "location": {
      "latitude": 7.409908199999999,
      "longitude": 3.9191943,
      "viewport": {
        "northeast": {
          "lat": 7.411258029892721,
          "lng": 3.920544129892722
        },
        "southwest": {
          "lat": 7.408558370107277,
          "lng": 3.917844470107278
        }
      },
      "formatted_address": "Ikolaba Grammar School Road, 200285, Ibadan, Nigeria",
      "google_map_url": "https://maps.google.com?q=7.409908199999999,3.9191943",
      "google_place_id": "ChIJf-W1e7qSORARGEMB-fn91po"
    }
  },
  {
    "id": "353491",
    "name": "IKOLABA GRAMMAR SCHOOL I SICK BAY",
    "registration_area_id": "18091",
    "precise_location": null,
    "abbreviation": "038",
    "units": "038",
    "delimitation": "30/06/05/038",
    "remark": "NEW PU",
    "ward_id": "18091",
    "ward_name": "WARD V, N5B",
    "local_government_id": "633",
    "local_government_name": "IBADAN NORTH",
    "state_id": "30",
    "state_name": "OYO",
    "location": {
      "latitude": 7.409908199999999,
      "longitude": 3.9191943,
      "viewport": {
        "northeast": {
          "lat": 7.411258029892721,
          "lng": 3.920544129892722
        },
        "southwest": {
          "lat": 7.408558370107277,
          "lng": 3.917844470107278
        }
      },
      "formatted_address": "Ikolaba Grammar School Road, 200285, Ibadan, Nigeria",
      "google_map_url": "https://maps.google.com?q=7.409908199999999,3.9191943",
      "google_place_id": "ChIJf-W1e7qSORARGEMB-fn91po"
    }
  },
  {
    "id": "353492",
    "name": "INFRONT OF SCHOOL HALL, IKOLABA HIGH SCHOOL",
    "registration_area_id": "18091",
    "precise_location": null,
    "abbreviation": "039",
    "units": "039",
    "delimitation": "30/06/05/039",
    "remark": "NEW PU",
    "ward_id": "18091",
    "ward_name": "WARD V, N5B",
    "local_government_id": "633",
    "local_government_name": "IBADAN NORTH",
    "state_id": "30",
    "state_name": "OYO",
    "location": {
      "latitude": 7.4088056,
      "longitude": 3.9187975,
      "viewport": {
        "northeast": {
          "lat": 7.410094979892722,
          "lng": 3.920196229892721
        },
        "southwest": {
          "lat": 7.407395320107278,
          "lng": 3.917496570107277
        }
      },
      "formatted_address": "3 Ikolaba Grammar School Road, 200285, Ibadan, Nigeria",
      "google_map_url": "https://maps.google.com?q=7.4088056,3.9187975",
      "google_place_id": "ChIJGwDZDLqSORARHqUHXHOSJAE"
    }
  },
  {
    "id": "353493",
    "name": "INFRONT OF MINI STADIUM IKOLABA HIGH SCHOOL",
    "registration_area_id": "18091",
    "precise_location": null,
    "abbreviation": "040",
    "units": "040",
    "delimitation": "30/06/05/040",
    "remark": "NEW PU",
    "ward_id": "18091",
    "ward_name": "WARD V, N5B",
    "local_government_id": "633",
    "local_government_name": "IBADAN NORTH",
    "state_id": "30",
    "state_name": "OYO",
    "location": {
      "latitude": 7.4347517,
      "longitude": 3.8897502,
      "viewport": {
        "northeast": {
          "lat": 7.436311979892722,
          "lng": 3.890648779892721
        },
        "southwest": {
          "lat": 7.433612320107278,
          "lng": 3.887949120107277
        }
      },
      "formatted_address": "CVMQ+WWX, University of Ibadan, Ibadan, Nigeria",
      "google_map_url": "https://maps.google.com?q=7.4347517,3.8897502",
      "google_place_id": "ChIJ0bhIdbnyORARUecRd2DaLTU"
    }
  },
  {
    "id": "353494",
    "name": "OPPOSITE NTA COMPLEX",
    "registration_area_id": "18091",
    "precise_location": null,
    "abbreviation": "041",
    "units": "041",
    "delimitation": "30/06/05/041",
    "remark": "NEW PU",
    "ward_id": "18091",
    "ward_name": "WARD V, N5B",
    "local_government_id": "633",
    "local_government_name": "IBADAN NORTH",
    "state_id": "30",
    "state_name": "OYO",
    "location": {
      "latitude": 7.3959246,
      "longitude": 3.9182346,
      "viewport": {
        "northeast": {
          "lat": 7.397307529892721,
          "lng": 3.919603729892721
        },
        "southwest": {
          "lat": 7.394607870107277,
          "lng": 3.916904070107277
        }
      },
      "formatted_address": "local government, Agodi Gate Way, opposite ibadan North, 200285, Ibadan, Nigeria",
      "google_map_url": "https://maps.google.com?q=7.3959246,3.9182346",
      "google_place_id": "ChIJCZJs5wyTORARGF8cj5Z-JWc"
    }
  },
  {
    "id": "353495",
    "name": "FEDERAL HOUSING IKOLABA",
    "registration_area_id": "18091",
    "precise_location": null,
    "abbreviation": "042",
    "units": "042",
    "delimitation": "30/06/05/042",
    "remark": "NEW PU",
    "ward_id": "18091",
    "ward_name": "WARD V, N5B",
    "local_government_id": "633",
    "local_government_name": "IBADAN NORTH",
    "state_id": "30",
    "state_name": "OYO",
    "location": {
      "latitude": 7.4099662,
      "longitude": 3.9155968,
      "viewport": {
        "northeast": {
          "lat": 7.41128252989272,
          "lng": 3.916868329892721
        },
        "southwest": {
          "lat": 7.408582870107276,
          "lng": 3.914168670107277
        }
      },
      "formatted_address": "CW58+X6P, Ikolaba Rd, 200285, Ibadan, Nigeria",
      "google_map_url": "https://maps.google.com?q=7.4099662,3.9155968",
      "google_place_id": "ChIJwW_tV6WSORARsIN82Qf7rnE"
    }
  },
  {
    "id": "353496",
    "name": "BASHORUN OJOO HIGH SCHOOL, ASI",
    "registration_area_id": "18091",
    "precise_location": null,
    "abbreviation": "043",
    "units": "043",
    "delimitation": "30/06/05/043",
    "remark": "NEW PU",
    "ward_id": "18091",
    "ward_name": "WARD V, N5B",
    "local_government_id": "633",
    "local_government_name": "IBADAN NORTH",
    "state_id": "30",
    "state_name": "OYO",
    "location": {
      "latitude": 7.423056199999999,
      "longitude": 3.9312078,
      "viewport": {
        "northeast": {
          "lat": 7.424406029892721,
          "lng": 3.932557629892723
        },
        "southwest": {
          "lat": 7.421706370107277,
          "lng": 3.929857970107279
        }
      },
      "formatted_address": "Orita Bashorun Road, Ibadan, Nigeria",
      "google_map_url": "https://maps.google.com?q=7.423056199999999,3.9312078",
      "google_place_id": "ChIJsWTxjjTtORARoHk3nPTZfNw"
    }
  },
  {
    "id": "353497",
    "name": "BASHORUN/OJOO HIGH",
    "registration_area_id": "18091",
    "precise_location": null,
    "abbreviation": "044",
    "units": "044",
    "delimitation": "30/06/05/044",
    "remark": "NEW PU",
    "ward_id": "18091",
    "ward_name": "WARD V, N5B",
    "local_government_id": "633",
    "local_government_name": "IBADAN NORTH",
    "state_id": "30",
    "state_name": "OYO",
    "location": null
  },
  {
    "id": "353498",
    "name": "BRICK HOUSE HOTEL",
    "registration_area_id": "18091",
    "precise_location": null,
    "abbreviation": "045",
    "units": "045",
    "delimitation": "30/06/05/045",
    "remark": "NEW PU",
    "ward_id": "18091",
    "ward_name": "WARD V, N5B",
    "local_government_id": "633",
    "local_government_name": "IBADAN NORTH",
    "state_id": "30",
    "state_name": "OYO",
    "location": {
      "latitude": 7.431352599999999,
      "longitude": 3.9025927,
      "viewport": {
        "northeast": {
          "lat": 7.432689929892722,
          "lng": 3.903841729892723
        },
        "southwest": {
          "lat": 7.429990270107278,
          "lng": 3.901142070107279
        }
      },
      "formatted_address": "Plot 5, Dominican University way, off Sango/UI Road, Samonda, opposite NASFAT, Ibadan, Nigeria",
      "google_map_url": "https://maps.google.com?q=7.431352599999999,3.9025927",
      "google_place_id": "ChIJ6-ds5WrzORARLFKTAQTKABA"
    }
  },
  {
    "id": "353499",
    "name": "INFRONT OF ADMISTRATIVE METHODIST SCHOOL II",
    "registration_area_id": "18091",
    "precise_location": null,
    "abbreviation": "046",
    "units": "046",
    "delimitation": "30/06/05/046",
    "remark": "NEW PU",
    "ward_id": "18091",
    "ward_name": "WARD V, N5B",
    "local_government_id": "633",
    "local_government_name": "IBADAN NORTH",
    "state_id": "30",
    "state_name": "OYO",
    "location": {
      "latitude": 7.395676399999998,
      "longitude": 3.9165553,
      "viewport": {
        "northeast": {
          "lat": 7.397017779892721,
          "lng": 3.918180029892722
        },
        "southwest": {
          "lat": 7.394318120107277,
          "lng": 3.915480370107278
        }
      },
      "formatted_address": "6FV59WW8+7H9 4 ATTENDA, Ibadan, Nigeria",
      "google_map_url": "https://maps.google.com?q=7.395676399999998,3.9165553",
      "google_place_id": "ChIJHcEjwxOTORARcX2xdFXA7f0"
    }
  },
  {
    "id": "353500",
    "name": "LATE CHIEF SALAM ESTATE",
    "registration_area_id": "18091",
    "precise_location": null,
    "abbreviation": "047",
    "units": "047",
    "delimitation": "30/06/05/047",
    "remark": "NEW PU",
    "ward_id": "18091",
    "ward_name": "WARD V, N5B",
    "local_government_id": "633",
    "local_government_name": "IBADAN NORTH",
    "state_id": "30",
    "state_name": "OYO",
    "location": {
      "latitude": 7.434799000000001,
      "longitude": 3.9096613,
      "viewport": {
        "northeast": {
          "lat": 7.436202479892723,
          "lng": 3.910997129892722
        },
        "southwest": {
          "lat": 7.433502820107279,
          "lng": 3.908297470107278
        }
      },
      "formatted_address": "U7 Joke Plaza Bodija, 200221, Ibadan, Nigeria",
      "google_map_url": "https://maps.google.com?q=7.434799000000001,3.9096613",
      "google_place_id": "ChIJP554lCXtORARnovPXJFITLI"
    }
  },
  {
    "id": "353501",
    "name": "OWO EGBELEKE",
    "registration_area_id": "18091",
    "precise_location": null,
    "abbreviation": "048",
    "units": "048",
    "delimitation": "30/06/05/048",
    "remark": "NEW PU",
    "ward_id": "18091",
    "ward_name": "WARD V, N5B",
    "local_government_id": "633",
    "local_government_name": "IBADAN NORTH",
    "state_id": "30",
    "state_name": "OYO",
    "location": {
      "latitude": 7.431278099999999,
      "longitude": 3.9276605,
      "viewport": {
        "northeast": {
          "lat": 7.432627929892721,
          "lng": 3.929010329892723
        },
        "southwest": {
          "lat": 7.429928270107277,
          "lng": 3.926310670107279
        }
      },
      "formatted_address": "Owo Egbeleke Street, 200132, Ibadan, Nigeria",
      "google_map_url": "https://maps.google.com?q=7.431278099999999,3.9276605",
      "google_place_id": "ChIJHfd38zftORAR3W4_sYdXTEI"
    }
  },
  {
    "id": "353502",
    "name": "MT. OLIVET GRAMMAR SCHOOL",
    "registration_area_id": "18091",
    "precise_location": null,
    "abbreviation": "049",
    "units": "049",
    "delimitation": "30/06/05/049",
    "remark": "NEW PU",
    "ward_id": "18091",
    "ward_name": "WARD V, N5B",
    "local_government_id": "633",
    "local_government_name": "IBADAN NORTH",
    "state_id": "30",
    "state_name": "OYO",
    "location": {
      "latitude": 7.427424100000001,
      "longitude": 3.9197331,
      "viewport": {
        "northeast": {
          "lat": 7.428757629892723,
          "lng": 3.921135929892722
        },
        "southwest": {
          "lat": 7.426057970107279,
          "lng": 3.918436270107279
        }
      },
      "formatted_address": "6FV5CWHC+54V, 9 Ashi Rd, 200132, Ibadan, Nigeria",
      "google_map_url": "https://maps.google.com?q=7.427424100000001,3.9197331",
      "google_place_id": "ChIJzYWe707tORARBZwsthWtl7A"
    }
  },
  {
    "id": "353503",
    "name": "C & S NEW EDEN PRIMARY SCHOOL",
    "registration_area_id": "18091",
    "precise_location": null,
    "abbreviation": "050",
    "units": "050",
    "delimitation": "30/06/05/050",
    "remark": "NEW PU",
    "ward_id": "18091",
    "ward_name": "WARD V, N5B",
    "local_government_id": "633",
    "local_government_name": "IBADAN NORTH",
    "state_id": "30",
    "state_name": "OYO",
    "location": {
      "latitude": 43.4790797,
      "longitude": -80.5163432,
      "viewport": {
        "northeast": {
          "lat": 43.48040932989272,
          "lng": -80.51503197010727
        },
        "southwest": {
          "lat": 43.47770967010727,
          "lng": -80.51773162989271
        }
      },
      "formatted_address": "119 University Ave E Suite 21, Waterloo, ON N2J 2W1, Canada",
      "google_map_url": "https://maps.google.com?q=43.4790797,-80.5163432",
      "google_place_id": "ChIJnZgV_fTzK4gRex9vTJjq2CM"
    }
  },
  {
    "id": "353504",
    "name": "4, OLUWO KEKERE ROAD, IBADAN",
    "registration_area_id": "18091",
    "precise_location": null,
    "abbreviation": "051",
    "units": "051",
    "delimitation": "30/06/05/051",
    "remark": "NEW PU",
    "ward_id": "18091",
    "ward_name": "WARD V, N5B",
    "local_government_id": "633",
    "local_government_name": "IBADAN NORTH",
    "state_id": "30",
    "state_name": "OYO",
    "location": {
      "latitude": 7.4111841,
      "longitude": 3.929727799999999,
      "viewport": {
        "northeast": {
          "lat": 7.412521079892721,
          "lng": 3.931074229892722
        },
        "southwest": {
          "lat": 7.409821420107277,
          "lng": 3.928374570107278
        }
      },
      "formatted_address": "4 Oluwo Kekere Rd, 200285, Ibadan, Nigeria",
      "google_map_url": "https://maps.google.com?q=7.4111841,3.929727799999999",
      "google_place_id": "ChIJYyK7jciSORARj9foonyv7R8"
    }
  },
  {
    "id": "353505",
    "name": "ST. PATRICK GRAMMAR SCH",
    "registration_area_id": "18091",
    "precise_location": null,
    "abbreviation": "052",
    "units": "052",
    "delimitation": "30/06/05/052",
    "remark": "NEW PU",
    "ward_id": "18091",
    "ward_name": "WARD V, N5B",
    "local_government_id": "633",
    "local_government_name": "IBADAN NORTH",
    "state_id": "30",
    "state_name": "OYO",
    "location": {
      "latitude": 7.410555,
      "longitude": 3.9297508,
      "viewport": {
        "northeast": {
          "lat": 7.411879829892722,
          "lng": 3.931129779892723
        },
        "southwest": {
          "lat": 7.409180170107278,
          "lng": 3.928430120107279
        }
      },
      "formatted_address": "CW6H+6VP, 200285, Ibadan, Nigeria",
      "google_map_url": "https://maps.google.com?q=7.410555,3.9297508",
      "google_place_id": "ChIJT_DbdAmTORARMFESRSHopn0"
    }
  },
  {
    "id": "353506",
    "name": "OSUNKAYE INU KOKO",
    "registration_area_id": "18091",
    "precise_location": null,
    "abbreviation": "053",
    "units": "053",
    "delimitation": "30/06/05/053",
    "remark": "NEW PU",
    "ward_id": "18091",
    "ward_name": "WARD V, N5B",
    "local_government_id": "633",
    "local_government_name": "IBADAN NORTH",
    "state_id": "30",
    "state_name": "OYO",
    "location": null
  },
  {
    "id": "353507",
    "name": "INFRONT OF ADMISTRATIVE METHODIST GRAMMAR SCHOOL, BODIJA",
    "registration_area_id": "18091",
    "precise_location": null,
    "abbreviation": "054",
    "units": "054",
    "delimitation": "30/06/05/054",
    "remark": "NEW PU",
    "ward_id": "18091",
    "ward_name": "WARD V, N5B",
    "local_government_id": "633",
    "local_government_name": "IBADAN NORTH",
    "state_id": "30",
    "state_name": "OYO",
    "location": {
      "latitude": 7.429847,
      "longitude": 3.9125575,
      "viewport": {
        "northeast": {
          "lat": 7.431089329892721,
          "lng": 3.913897429892721
        },
        "southwest": {
          "lat": 7.428389670107277,
          "lng": 3.911197770107278
        }
      },
      "formatted_address": "Methodist Grammar School, Kenneth Dike Rd, 200132, Ibadan, Nigeria",
      "google_map_url": "https://maps.google.com?q=7.429847,3.9125575",
      "google_place_id": "ChIJe3023VDtORARPCyMDhO-oDU"
    }
  },
  {
    "id": "353508",
    "name": "INFRONT OF POLICE STATION, OLUWO NLA",
    "registration_area_id": "18091",
    "precise_location": null,
    "abbreviation": "055",
    "units": "055",
    "delimitation": "30/06/05/055",
    "remark": "NEW PU",
    "ward_id": "18091",
    "ward_name": "WARD V, N5B",
    "local_government_id": "633",
    "local_government_name": "IBADAN NORTH",
    "state_id": "30",
    "state_name": "OYO",
    "location": {
      "latitude": 7.403707299999999,
      "longitude": 3.929067699999999,
      "viewport": {
        "northeast": {
          "lat": 7.405065479892722,
          "lng": 3.930416979892722
        },
        "southwest": {
          "lat": 7.402365820107278,
          "lng": 3.927717320107278
        }
      },
      "formatted_address": "21 Iwo Rd, Iwo Road 200258, Ibadan, Nigeria",
      "google_map_url": "https://maps.google.com?q=7.403707299999999,3.929067699999999",
      "google_place_id": "ChIJywXD3sCSORARsUNGd-lbzps"
    }
  },
  {
    "id": "353509",
    "name": "BESIDE REDEEMER SCHOOL, OLUWO-NLA",
    "registration_area_id": "18091",
    "precise_location": null,
    "abbreviation": "056",
    "units": "056",
    "delimitation": "30/06/05/056",
    "remark": "NEW PU",
    "ward_id": "18091",
    "ward_name": "WARD V, N5B",
    "local_government_id": "633",
    "local_government_name": "IBADAN NORTH",
    "state_id": "30",
    "state_name": "OYO",
    "location": {
      "latitude": 7.393030299999999,
      "longitude": 3.9473504,
      "viewport": {
        "northeast": {
          "lat": 7.394381929892721,
          "lng": 3.948702129892721
        },
        "southwest": {
          "lat": 7.391682270107277,
          "lng": 3.946002470107278
        }
      },
      "formatted_address": "1, All Motors Building, Off Old-Ife Road, 200132, Ibadan, Oyo, Nigeria",
      "google_map_url": "https://maps.google.com?q=7.393030299999999,3.9473504",
      "google_place_id": "ChIJpeOY5B2TORAR_WYeA383Pug"
    }
  },
  {
    "id": "353510",
    "name": "FRONT OF LATE PELLER'S HOUSE",
    "registration_area_id": "18091",
    "precise_location": null,
    "abbreviation": "057",
    "units": "057",
    "delimitation": "30/06/05/057",
    "remark": "NEW PU",
    "ward_id": "18091",
    "ward_name": "WARD V, N5B",
    "local_government_id": "633",
    "local_government_name": "IBADAN NORTH",
    "state_id": "30",
    "state_name": "OYO",
    "location": null
  },
  {
    "id": "353511",
    "name": "OPP.AKINGBOLA MOSQUE ASHI BODIJA.",
    "registration_area_id": "18091",
    "precise_location": null,
    "abbreviation": "058",
    "units": "058",
    "delimitation": "30/06/05/058",
    "remark": "NEW PU",
    "ward_id": "18091",
    "ward_name": "WARD V, N5B",
    "local_government_id": "633",
    "local_government_name": "IBADAN NORTH",
    "state_id": "30",
    "state_name": "OYO",
    "location": null
  },
  {
    "id": "353512",
    "name": "JUNCTION AKINGBOLA MOSQUE ASHI BODIJA.",
    "registration_area_id": "18091",
    "precise_location": null,
    "abbreviation": "059",
    "units": "059",
    "delimitation": "30/06/05/059",
    "remark": "NEW PU",
    "ward_id": "18091",
    "ward_name": "WARD V, N5B",
    "local_government_id": "633",
    "local_government_name": "IBADAN NORTH",
    "state_id": "30",
    "state_name": "OYO",
    "location": null
  },
  {
    "id": "353513",
    "name": "BISHOP ONABANJO HIGH SCH",
    "registration_area_id": "18091",
    "precise_location": null,
    "abbreviation": "060",
    "units": "060",
    "delimitation": "30/06/05/060",
    "remark": "NEW PU",
    "ward_id": "18091",
    "ward_name": "WARD V, N5B",
    "local_government_id": "633",
    "local_government_name": "IBADAN NORTH",
    "state_id": "30",
    "state_name": "OYO",
    "location": {
      "latitude": 7.4294053,
      "longitude": 3.9203734,
      "viewport": {
        "northeast": {
          "lat": 7.430777279892721,
          "lng": 3.921744729892721
        },
        "southwest": {
          "lat": 7.428077620107278,
          "lng": 3.919045070107277
        }
      },
      "formatted_address": "6FV5CWHC+Q5J, 6 Ashi Bodija, 200132, Ibadan, Nigeria",
      "google_map_url": "https://maps.google.com?q=7.4294053,3.9203734",
      "google_place_id": "ChIJzYWe707tORARmgG6QcMb44M"
    }
  },
  {
    "id": "353514",
    "name": "SONBEAM NUR/PRY SCHOOL",
    "registration_area_id": "18091",
    "precise_location": null,
    "abbreviation": "061",
    "units": "061",
    "delimitation": "30/06/05/061",
    "remark": "NEW PU",
    "ward_id": "18091",
    "ward_name": "WARD V, N5B",
    "local_government_id": "633",
    "local_government_name": "IBADAN NORTH",
    "state_id": "30",
    "state_name": "OYO",
    "location": {
      "latitude": 7.4224837,
      "longitude": 3.9184376,
      "viewport": {
        "northeast": {
          "lat": 7.423770029892722,
          "lng": 3.919796379892722
        },
        "southwest": {
          "lat": 7.421070370107278,
          "lng": 3.917096720107278
        }
      },
      "formatted_address": "1, Sonbeam Crescent, New Bodija, Nigeria",
      "google_map_url": "https://maps.google.com?q=7.4224837,3.9184376",
      "google_place_id": "ChIJ7_Y3je_tORARfS_XZsji8ig"
    }
  },
  {
    "id": "353515",
    "name": "BUS STATION,IBADAN.",
    "registration_area_id": "18091",
    "precise_location": null,
    "abbreviation": "062",
    "units": "062",
    "delimitation": "30/06/05/062",
    "remark": "NEW PU",
    "ward_id": "18091",
    "ward_name": "WARD V, N5B",
    "local_government_id": "633",
    "local_government_name": "IBADAN NORTH",
    "state_id": "30",
    "state_name": "OYO",
    "location": {
      "latitude": 7.431878299999999,
      "longitude": 3.906454,
      "viewport": {
        "northeast": {
          "lat": 7.43323342989272,
          "lng": 3.907789379892722
        },
        "southwest": {
          "lat": 7.430533770107276,
          "lng": 3.905089720107279
        }
      },
      "formatted_address": "Oyo Rd, 200132, Ibadan, Nigeria",
      "google_map_url": "https://maps.google.com?q=7.431878299999999,3.906454",
      "google_place_id": "ChIJ-8PRAVjtORARE8XwNH0Ddps"
    }
  },
  {
    "id": "353516",
    "name": "ADEGOKE LAYOUT, ASHI/BAS",
    "registration_area_id": "18091",
    "precise_location": null,
    "abbreviation": "063",
    "units": "063",
    "delimitation": "30/06/05/063",
    "remark": "NEW PU",
    "ward_id": "18091",
    "ward_name": "WARD V, N5B",
    "local_government_id": "633",
    "local_government_name": "IBADAN NORTH",
    "state_id": "30",
    "state_name": "OYO",
    "location": {
      "latitude": 7.427131800000001,
      "longitude": 3.927878,
      "viewport": {
        "northeast": {
          "lat": 7.428481629892723,
          "lng": 3.929227829892722
        },
        "southwest": {
          "lat": 7.425781970107279,
          "lng": 3.926528170107278
        }
      },
      "formatted_address": "Ashi Rd, Ibadan, Nigeria",
      "google_map_url": "https://maps.google.com?q=7.427131800000001,3.927878",
      "google_place_id": "ChIJZx2ZDDbtORARfz5QAsuJ_OI"
    }
  },
  {
    "id": "353517",
    "name": "INFRONT OF FLORENTINA HALL BASHORUN",
    "registration_area_id": "18091",
    "precise_location": null,
    "abbreviation": "064",
    "units": "064",
    "delimitation": "30/06/05/064",
    "remark": "NEW PU",
    "ward_id": "18091",
    "ward_name": "WARD V, N5B",
    "local_government_id": "633",
    "local_government_name": "IBADAN NORTH",
    "state_id": "30",
    "state_name": "OYO",
    "location": {
      "latitude": 7.421035,
      "longitude": 3.9313372,
      "viewport": {
        "northeast": {
          "lat": 7.422378579892723,
          "lng": 3.932619579892722
        },
        "southwest": {
          "lat": 7.419678920107279,
          "lng": 3.929919920107278
        }
      },
      "formatted_address": "1 Oyebamiji str off winners way, Orita Bashorun Road, Ibadan, Nigeria",
      "google_map_url": "https://maps.google.com?q=7.421035,3.9313372",
      "google_place_id": "ChIJ7YQEmjDtORAR_1nVEhz2vdI"
    }
  },
  {
    "id": "353518",
    "name": "OPP. BODIJA/ASHI BAPTIST CHURCH",
    "registration_area_id": "18091",
    "precise_location": null,
    "abbreviation": "065",
    "units": "065",
    "delimitation": "30/06/05/065",
    "remark": "NEW PU",
    "ward_id": "18091",
    "ward_name": "WARD V, N5B",
    "local_government_id": "633",
    "local_government_name": "IBADAN NORTH",
    "state_id": "30",
    "state_name": "OYO",
    "location": {
      "latitude": 7.428126400000001,
      "longitude": 3.9242629,
      "viewport": {
        "northeast": {
          "lat": 7.429588629892723,
          "lng": 3.925701679892722
        },
        "southwest": {
          "lat": 7.426888970107279,
          "lng": 3.923002020107278
        }
      },
      "formatted_address": "Ladehinde Layout, Off Ashi Rd, Ibadan, Nigeria",
      "google_map_url": "https://maps.google.com?q=7.428126400000001,3.9242629",
      "google_place_id": "ChIJrdsqFejtORAReliwjCBkMkk"
    }
  },
  {
    "id": "353519",
    "name": "INFRONT OF GREAT OF MINDS COLLEGE, OLUWO-NLA.",
    "registration_area_id": "18091",
    "precise_location": null,
    "abbreviation": "066",
    "units": "066",
    "delimitation": "30/06/05/066",
    "remark": "NEW PU",
    "ward_id": "18091",
    "ward_name": "WARD V, N5B",
    "local_government_id": "633",
    "local_government_name": "IBADAN NORTH",
    "state_id": "30",
    "state_name": "OYO",
    "location": {
      "latitude": 7.4144283,
      "longitude": 3.9323622,
      "viewport": {
        "northeast": {
          "lat": 7.415819479892722,
          "lng": 3.933745479892722
        },
        "southwest": {
          "lat": 7.413119820107278,
          "lng": 3.931045820107278
        }
      },
      "formatted_address": "3 Water Reservoir Road, Basorun Rd, Ibadan, Nigeria",
      "google_map_url": "https://maps.google.com?q=7.4144283,3.9323622",
      "google_place_id": "ChIJ0wpkt86SORARAafjofvlVCo"
    }
  },
  {
    "id": "353520",
    "name": "OPPOSITE CAC OKE-ALAFIA, BODIJA",
    "registration_area_id": "18091",
    "precise_location": null,
    "abbreviation": "067",
    "units": "067",
    "delimitation": "30/06/05/067",
    "remark": "NEW PU",
    "ward_id": "18091",
    "ward_name": "WARD V, N5B",
    "local_government_id": "633",
    "local_government_name": "IBADAN NORTH",
    "state_id": "30",
    "state_name": "OYO",
    "location": null
  },
  {
    "id": "353521",
    "name": "JUNCTION NUBIFAL PHARMACY",
    "registration_area_id": "18091",
    "precise_location": null,
    "abbreviation": "068",
    "units": "068",
    "delimitation": "30/06/05/068",
    "remark": "NEW PU",
    "ward_id": "18091",
    "ward_name": "WARD V, N5B",
    "local_government_id": "633",
    "local_government_name": "IBADAN NORTH",
    "state_id": "30",
    "state_name": "OYO",
    "location": {
      "latitude": 7.4245568,
      "longitude": 3.9278343,
      "viewport": {
        "northeast": {
          "lat": 7.425865029892722,
          "lng": 3.929138979892722
        },
        "southwest": {
          "lat": 7.423165370107278,
          "lng": 3.926439320107278
        }
      },
      "formatted_address": "13 Abimbade Onibiyo Wy, 200132, Ibadan, Nigeria",
      "google_map_url": "https://maps.google.com?q=7.4245568,3.9278343",
      "google_place_id": "ChIJt_qavTXtORARU5atn4_-O9Y"
    }
  }
]