[
  {
    "id": "333584",
    "name": "GUTO - PB",
    "registration_area_id": "16933",
    "precise_location": null,
    "abbreviation": "001",
    "units": "001",
    "delimitation": "25/09/06/001",
    "remark": "EXISTING PU",
    "ward_id": "16933",
    "ward_name": "GUTO/AISA",
    "local_government_id": "771",
    "local_government_name": "NASARAWA",
    "state_id": "25",
    "state_name": "NASARAWA",
    "location": {
      "latitude": 8.170301499999999,
      "longitude": 7.6765157,
      "viewport": {
        "northeast": {
          "lat": 8.276134599999999,
          "lng": 7.7497939
        },
        "southwest": {
          "lat": 8.0271586,
          "lng": 7.5836133
        }
      },
      "formatted_address": "Guto/Aisa, Nigeria",
      "google_map_url": "https://maps.google.com?q=8.170301499999999,7.6765157",
      "google_place_id": "ChIJ49cuiojbTxARl-8dyha1KOc"
    }
  },
  {
    "id": "333585",
    "name": "KPANDARA OP",
    "registration_area_id": "16933",
    "precise_location": null,
    "abbreviation": "002",
    "units": "002",
    "delimitation": "25/09/06/002",
    "remark": "EXISTING PU",
    "ward_id": "16933",
    "ward_name": "GUTO/AISA",
    "local_government_id": "771",
    "local_government_name": "NASARAWA",
    "state_id": "25",
    "state_name": "NASARAWA",
    "location": {
      "latitude": 8.935071599999999,
      "longitude": 8.401766,
      "viewport": {
        "northeast": {
          "lat": 8.936579229892722,
          "lng": 8.403055779892723
        },
        "southwest": {
          "lat": 8.933879570107278,
          "lng": 8.40035612010728
        }
      },
      "formatted_address": "COEbAkwanga Cafeteria, Nasarawa State College of Education, Akwanga, Nigeria",
      "google_map_url": "https://maps.google.com?q=8.935071599999999,8.401766",
      "google_place_id": "ChIJxwjxpl6DURARKCE74qGlobo"
    }
  },
  {
    "id": "333586",
    "name": "OGUMA - OP",
    "registration_area_id": "16933",
    "precise_location": null,
    "abbreviation": "003",
    "units": "003",
    "delimitation": "25/09/06/003",
    "remark": "EXISTING PU",
    "ward_id": "16933",
    "ward_name": "GUTO/AISA",
    "local_government_id": "771",
    "local_government_name": "NASARAWA",
    "state_id": "25",
    "state_name": "NASARAWA",
    "location": null
  },
  {
    "id": "333587",
    "name": "ILLIAH - PB",
    "registration_area_id": "16933",
    "precise_location": null,
    "abbreviation": "004",
    "units": "004",
    "delimitation": "25/09/06/004",
    "remark": "EXISTING PU",
    "ward_id": "16933",
    "ward_name": "GUTO/AISA",
    "local_government_id": "771",
    "local_government_name": "NASARAWA",
    "state_id": "25",
    "state_name": "NASARAWA",
    "location": null
  },
  {
    "id": "333588",
    "name": "ANJEWA",
    "registration_area_id": "16933",
    "precise_location": null,
    "abbreviation": "005",
    "units": "005",
    "delimitation": "25/09/06/005",
    "remark": "EXISTING PU",
    "ward_id": "16933",
    "ward_name": "GUTO/AISA",
    "local_government_id": "771",
    "local_government_name": "NASARAWA",
    "state_id": "25",
    "state_name": "NASARAWA",
    "location": {
      "latitude": 8.1496896,
      "longitude": 7.565011600000001,
      "viewport": {
        "northeast": {
          "lat": 8.1547201,
          "lng": 7.5679081
        },
        "southwest": {
          "lat": 8.1411789,
          "lng": 7.5637241
        }
      },
      "formatted_address": "962103, Angewa, Nigeria",
      "google_map_url": "https://maps.google.com?q=8.1496896,7.565011600000001",
      "google_place_id": "ChIJ-9XRrIHDTxAR_qs9-SsnSTI"
    }
  },
  {
    "id": "333589",
    "name": "AZA - OP",
    "registration_area_id": "16933",
    "precise_location": null,
    "abbreviation": "006",
    "units": "006",
    "delimitation": "25/09/06/006",
    "remark": "EXISTING PU",
    "ward_id": "16933",
    "ward_name": "GUTO/AISA",
    "local_government_id": "771",
    "local_government_name": "NASARAWA",
    "state_id": "25",
    "state_name": "NASARAWA",
    "location": {
      "latitude": 8.935071599999999,
      "longitude": 8.401766,
      "viewport": {
        "northeast": {
          "lat": 8.936579229892722,
          "lng": 8.403055779892723
        },
        "southwest": {
          "lat": 8.933879570107278,
          "lng": 8.40035612010728
        }
      },
      "formatted_address": "COEbAkwanga Cafeteria, Nasarawa State College of Education, Akwanga, Nigeria",
      "google_map_url": "https://maps.google.com?q=8.935071599999999,8.401766",
      "google_place_id": "ChIJxwjxpl6DURARKCE74qGlobo"
    }
  },
  {
    "id": "333590",
    "name": "AZA II - OP",
    "registration_area_id": "16933",
    "precise_location": null,
    "abbreviation": "007",
    "units": "007",
    "delimitation": "25/09/06/007",
    "remark": "EXISTING PU",
    "ward_id": "16933",
    "ward_name": "GUTO/AISA",
    "local_government_id": "771",
    "local_government_name": "NASARAWA",
    "state_id": "25",
    "state_name": "NASARAWA",
    "location": {
      "latitude": 8.8471213,
      "longitude": 7.8776023,
      "viewport": {
        "northeast": {
          "lat": 8.848300629892721,
          "lng": 7.879032079892722
        },
        "southwest": {
          "lat": 8.845600970107277,
          "lng": 7.876332420107278
        }
      },
      "formatted_address": "NASARAWA STATE UNIVERSITY, 911019, Keffi, Nigeria",
      "google_map_url": "https://maps.google.com?q=8.8471213,7.8776023",
      "google_place_id": "ChIJeyBwSijkURARPVbSxse_J90"
    }
  },
  {
    "id": "333591",
    "name": "KWATAN GUTO-OP",
    "registration_area_id": "16933",
    "precise_location": null,
    "abbreviation": "008",
    "units": "008",
    "delimitation": "25/09/06/008",
    "remark": "NEW PU",
    "ward_id": "16933",
    "ward_name": "GUTO/AISA",
    "local_government_id": "771",
    "local_government_name": "NASARAWA",
    "state_id": "25",
    "state_name": "NASARAWA",
    "location": null
  },
  {
    "id": "333592",
    "name": "ABATUKU",
    "registration_area_id": "16933",
    "precise_location": null,
    "abbreviation": "009",
    "units": "009",
    "delimitation": "25/09/06/009",
    "remark": "NEW PU",
    "ward_id": "16933",
    "ward_name": "GUTO/AISA",
    "local_government_id": "771",
    "local_government_name": "NASARAWA",
    "state_id": "25",
    "state_name": "NASARAWA",
    "location": {
      "latitude": 8.935071599999999,
      "longitude": 8.401766,
      "viewport": {
        "northeast": {
          "lat": 8.936579229892722,
          "lng": 8.403055779892723
        },
        "southwest": {
          "lat": 8.933879570107278,
          "lng": 8.40035612010728
        }
      },
      "formatted_address": "COEbAkwanga Cafeteria, Nasarawa State College of Education, Akwanga, Nigeria",
      "google_map_url": "https://maps.google.com?q=8.935071599999999,8.401766",
      "google_place_id": "ChIJxwjxpl6DURARKCE74qGlobo"
    }
  },
  {
    "id": "333593",
    "name": "IGYEM",
    "registration_area_id": "16933",
    "precise_location": null,
    "abbreviation": "010",
    "units": "010",
    "delimitation": "25/09/06/010",
    "remark": "NEW PU",
    "ward_id": "16933",
    "ward_name": "GUTO/AISA",
    "local_government_id": "771",
    "local_government_name": "NASARAWA",
    "state_id": "25",
    "state_name": "NASARAWA",
    "location": {
      "latitude": 8.170301499999999,
      "longitude": 7.6765157,
      "viewport": {
        "northeast": {
          "lat": 8.276134599999999,
          "lng": 7.7497939
        },
        "southwest": {
          "lat": 8.0271586,
          "lng": 7.5836133
        }
      },
      "formatted_address": "Guto/Aisa, Nigeria",
      "google_map_url": "https://maps.google.com?q=8.170301499999999,7.6765157",
      "google_place_id": "ChIJ49cuiojbTxARl-8dyha1KOc"
    }
  },
  {
    "id": "333594",
    "name": "UWHE",
    "registration_area_id": "16933",
    "precise_location": null,
    "abbreviation": "011",
    "units": "011",
    "delimitation": "25/09/06/011",
    "remark": "NEW PU",
    "ward_id": "16933",
    "ward_name": "GUTO/AISA",
    "local_government_id": "771",
    "local_government_name": "NASARAWA",
    "state_id": "25",
    "state_name": "NASARAWA",
    "location": {
      "latitude": 8.935071599999999,
      "longitude": 8.401766,
      "viewport": {
        "northeast": {
          "lat": 8.936579229892722,
          "lng": 8.403055779892723
        },
        "southwest": {
          "lat": 8.933879570107278,
          "lng": 8.40035612010728
        }
      },
      "formatted_address": "COEbAkwanga Cafeteria, Nasarawa State College of Education, Akwanga, Nigeria",
      "google_map_url": "https://maps.google.com?q=8.935071599999999,8.401766",
      "google_place_id": "ChIJxwjxpl6DURARKCE74qGlobo"
    }
  },
  {
    "id": "333595",
    "name": "VILLAGE SQUARE-OP",
    "registration_area_id": "16933",
    "precise_location": null,
    "abbreviation": "012",
    "units": "012",
    "delimitation": "25/09/06/012",
    "remark": "NEW PU",
    "ward_id": "16933",
    "ward_name": "GUTO/AISA",
    "local_government_id": "771",
    "local_government_name": "NASARAWA",
    "state_id": "25",
    "state_name": "NASARAWA",
    "location": {
      "latitude": 8.5470283,
      "longitude": 7.712308800000001,
      "viewport": {
        "northeast": {
          "lat": 8.548471729892722,
          "lng": 7.713743579892721
        },
        "southwest": {
          "lat": 8.545772070107278,
          "lng": 7.711043920107277
        }
      },
      "formatted_address": "GPW6+RW7, 962101, Nasarawa, Nigeria",
      "google_map_url": "https://maps.google.com?q=8.5470283,7.712308800000001",
      "google_place_id": "ChIJXeutJtooThAReA5vjW88ddg"
    }
  },
  {
    "id": "333596",
    "name": "HAMSIN-HAMSIN",
    "registration_area_id": "16933",
    "precise_location": null,
    "abbreviation": "013",
    "units": "013",
    "delimitation": "25/09/06/013",
    "remark": "NEW PU",
    "ward_id": "16933",
    "ward_name": "GUTO/AISA",
    "local_government_id": "771",
    "local_government_name": "NASARAWA",
    "state_id": "25",
    "state_name": "NASARAWA",
    "location": null
  },
  {
    "id": "333597",
    "name": "OPU-OP",
    "registration_area_id": "16933",
    "precise_location": null,
    "abbreviation": "014",
    "units": "014",
    "delimitation": "25/09/06/014",
    "remark": "NEW PU",
    "ward_id": "16933",
    "ward_name": "GUTO/AISA",
    "local_government_id": "771",
    "local_government_name": "NASARAWA",
    "state_id": "25",
    "state_name": "NASARAWA",
    "location": null
  }
]