[
  {
    "id": "20982",
    "name": "SHAMAKI ,  LIBRARY I",
    "registration_area_id": "1172",
    "precise_location": null,
    "abbreviation": "001",
    "units": "001",
    "delimitation": "05/11/01/001",
    "remark": "EXISTING PU",
    "ward_id": "1172",
    "ward_name": "JAMA'ARE 'A'",
    "local_government_id": "101",
    "local_government_name": "JAMA'ARE",
    "state_id": "5",
    "state_name": "BAUCHI",
    "location": {
      "latitude": 11.6695457,
      "longitude": 9.9200951,
      "viewport": {
        "northeast": {
          "lat": 11.67088862989272,
          "lng": 9.921361179892722
        },
        "southwest": {
          "lat": 11.66818897010728,
          "lng": 9.918661520107278
        }
      },
      "formatted_address": "MW9C+R29, 751106, Jamaare, Nigeria",
      "google_map_url": "https://maps.google.com?q=11.6695457,9.9200951",
      "google_place_id": "ChIJyx1rV_IzqhERNoRbeXcWoyk"
    }
  },
  {
    "id": "20983",
    "name": "SHAMAKI,   LIBRARY II",
    "registration_area_id": "1172",
    "precise_location": null,
    "abbreviation": "002",
    "units": "002",
    "delimitation": "05/11/01/002",
    "remark": "EXISTING PU",
    "ward_id": "1172",
    "ward_name": "JAMA'ARE 'A'",
    "local_government_id": "101",
    "local_government_name": "JAMA'ARE",
    "state_id": "5",
    "state_name": "BAUCHI",
    "location": {
      "latitude": 11.6695457,
      "longitude": 9.9200951,
      "viewport": {
        "northeast": {
          "lat": 11.67088862989272,
          "lng": 9.921361179892722
        },
        "southwest": {
          "lat": 11.66818897010728,
          "lng": 9.918661520107278
        }
      },
      "formatted_address": "MW9C+R29, 751106, Jamaare, Nigeria",
      "google_map_url": "https://maps.google.com?q=11.6695457,9.9200951",
      "google_place_id": "ChIJyx1rV_IzqhERNoRbeXcWoyk"
    }
  },
  {
    "id": "20984",
    "name": "HARDORI,  A    GINDIN KARGO",
    "registration_area_id": "1172",
    "precise_location": null,
    "abbreviation": "003",
    "units": "003",
    "delimitation": "05/11/01/003",
    "remark": "EXISTING PU",
    "ward_id": "1172",
    "ward_name": "JAMA'ARE 'A'",
    "local_government_id": "101",
    "local_government_name": "JAMA'ARE",
    "state_id": "5",
    "state_name": "BAUCHI",
    "location": null
  },
  {
    "id": "20985",
    "name": "HARDORI,  B    TSANGAYAR  J.",
    "registration_area_id": "1172",
    "precise_location": null,
    "abbreviation": "004",
    "units": "004",
    "delimitation": "05/11/01/004",
    "remark": "EXISTING PU",
    "ward_id": "1172",
    "ward_name": "JAMA'ARE 'A'",
    "local_government_id": "101",
    "local_government_name": "JAMA'ARE",
    "state_id": "5",
    "state_name": "BAUCHI",
    "location": {
      "latitude": 11.6695457,
      "longitude": 9.9200951,
      "viewport": {
        "northeast": {
          "lat": 11.67088862989272,
          "lng": 9.921361179892722
        },
        "southwest": {
          "lat": 11.66818897010728,
          "lng": 9.918661520107278
        }
      },
      "formatted_address": "MW9C+R29, 751106, Jamaare, Nigeria",
      "google_map_url": "https://maps.google.com?q=11.6695457,9.9200951",
      "google_place_id": "ChIJyx1rV_IzqhERNoRbeXcWoyk"
    }
  },
  {
    "id": "20986",
    "name": "TUDUN WADA,  YOUTH CENTRE",
    "registration_area_id": "1172",
    "precise_location": null,
    "abbreviation": "005",
    "units": "005",
    "delimitation": "05/11/01/005",
    "remark": "EXISTING PU",
    "ward_id": "1172",
    "ward_name": "JAMA'ARE 'A'",
    "local_government_id": "101",
    "local_government_name": "JAMA'ARE",
    "state_id": "5",
    "state_name": "BAUCHI",
    "location": {
      "latitude": 11.9633001,
      "longitude": 8.5890656,
      "viewport": {
        "northeast": {
          "lat": 11.96464992989272,
          "lng": 8.59041542989272
        },
        "southwest": {
          "lat": 11.96195027010728,
          "lng": 8.587715770107277
        }
      },
      "formatted_address": "Maiduguri Road, Hotoro 700102, Kano, Nigeria",
      "google_map_url": "https://maps.google.com?q=11.9633001,8.5890656",
      "google_place_id": "ChIJYSJoOZSBrhERB8GJOcJPZG4"
    }
  },
  {
    "id": "20987",
    "name": "BEGUWA,  GINDIN PAMPO",
    "registration_area_id": "1172",
    "precise_location": null,
    "abbreviation": "006",
    "units": "006",
    "delimitation": "05/11/01/006",
    "remark": "EXISTING PU",
    "ward_id": "1172",
    "ward_name": "JAMA'ARE 'A'",
    "local_government_id": "101",
    "local_government_name": "JAMA'ARE",
    "state_id": "5",
    "state_name": "BAUCHI",
    "location": null
  },
  {
    "id": "20988",
    "name": "GALDIMA,  A    MOH'D  W.  STORE",
    "registration_area_id": "1172",
    "precise_location": null,
    "abbreviation": "007",
    "units": "007",
    "delimitation": "05/11/01/007",
    "remark": "EXISTING PU",
    "ward_id": "1172",
    "ward_name": "JAMA'ARE 'A'",
    "local_government_id": "101",
    "local_government_name": "JAMA'ARE",
    "state_id": "5",
    "state_name": "BAUCHI",
    "location": {
      "latitude": 11.6824023,
      "longitude": 9.932195799999999,
      "viewport": {
        "northeast": {
          "lat": 11.68354052989272,
          "lng": 9.93336397989272
        },
        "southwest": {
          "lat": 11.68084087010728,
          "lng": 9.930664320107276
        }
      },
      "formatted_address": "MWJJ+XV8, Jama'are D, 751106, Jamaare, Nigeria",
      "google_map_url": "https://maps.google.com?q=11.6824023,9.932195799999999",
      "google_place_id": "ChIJWUspfO8yqhER2e_jjdAIMws"
    }
  },
  {
    "id": "20989",
    "name": "YARI MARI,  CENTRAL PRIMARY SCHOOL",
    "registration_area_id": "1172",
    "precise_location": null,
    "abbreviation": "008",
    "units": "008",
    "delimitation": "05/11/01/008",
    "remark": "EXISTING PU",
    "ward_id": "1172",
    "ward_name": "JAMA'ARE 'A'",
    "local_government_id": "101",
    "local_government_name": "JAMA'ARE",
    "state_id": "5",
    "state_name": "BAUCHI",
    "location": {
      "latitude": 11.6695457,
      "longitude": 9.9200951,
      "viewport": {
        "northeast": {
          "lat": 11.67088862989272,
          "lng": 9.921361179892722
        },
        "southwest": {
          "lat": 11.66818897010728,
          "lng": 9.918661520107278
        }
      },
      "formatted_address": "MW9C+R29, 751106, Jamaare, Nigeria",
      "google_map_url": "https://maps.google.com?q=11.6695457,9.9200951",
      "google_place_id": "ChIJyx1rV_IzqhERNoRbeXcWoyk"
    }
  },
  {
    "id": "20990",
    "name": "SHAMAKI IBRARY II",
    "registration_area_id": "1172",
    "precise_location": null,
    "abbreviation": "009",
    "units": "009",
    "delimitation": "05/11/01/009",
    "remark": "NEW PU",
    "ward_id": "1172",
    "ward_name": "JAMA'ARE 'A'",
    "local_government_id": "101",
    "local_government_name": "JAMA'ARE",
    "state_id": "5",
    "state_name": "BAUCHI",
    "location": {
      "latitude": 11.6824023,
      "longitude": 9.932195799999999,
      "viewport": {
        "northeast": {
          "lat": 11.68354052989272,
          "lng": 9.93336397989272
        },
        "southwest": {
          "lat": 11.68084087010728,
          "lng": 9.930664320107276
        }
      },
      "formatted_address": "MWJJ+XV8, Jama'are D, 751106, Jamaare, Nigeria",
      "google_map_url": "https://maps.google.com?q=11.6824023,9.932195799999999",
      "google_place_id": "ChIJWUspfO8yqhER2e_jjdAIMws"
    }
  },
  {
    "id": "20991",
    "name": "HARDORI A GINDIN KARGO",
    "registration_area_id": "1172",
    "precise_location": null,
    "abbreviation": "010",
    "units": "010",
    "delimitation": "05/11/01/010",
    "remark": "NEW PU",
    "ward_id": "1172",
    "ward_name": "JAMA'ARE 'A'",
    "local_government_id": "101",
    "local_government_name": "JAMA'ARE",
    "state_id": "5",
    "state_name": "BAUCHI",
    "location": null
  },
  {
    "id": "20992",
    "name": "HARDORI 'B' TSANGAYAR JAKA",
    "registration_area_id": "1172",
    "precise_location": null,
    "abbreviation": "011",
    "units": "011",
    "delimitation": "05/11/01/011",
    "remark": "NEW PU",
    "ward_id": "1172",
    "ward_name": "JAMA'ARE 'A'",
    "local_government_id": "101",
    "local_government_name": "JAMA'ARE",
    "state_id": "5",
    "state_name": "BAUCHI",
    "location": {
      "latitude": 11.6642565,
      "longitude": 9.922760799999999,
      "viewport": {
        "northeast": {
          "lat": 11.6701724,
          "lng": 9.931723999999999
        },
        "southwest": {
          "lat": 11.6615517,
          "lng": 9.9193528
        }
      },
      "formatted_address": "Jama'are A, 751110, Nigeria",
      "google_map_url": "https://maps.google.com?q=11.6642565,9.922760799999999",
      "google_place_id": "ChIJ0R8JSh8zqhERqSE1u722V8M"
    }
  },
  {
    "id": "20993",
    "name": "TUDUN WADA YOUTH CENTER",
    "registration_area_id": "1172",
    "precise_location": null,
    "abbreviation": "012",
    "units": "012",
    "delimitation": "05/11/01/012",
    "remark": "NEW PU",
    "ward_id": "1172",
    "ward_name": "JAMA'ARE 'A'",
    "local_government_id": "101",
    "local_government_name": "JAMA'ARE",
    "state_id": "5",
    "state_name": "BAUCHI",
    "location": {
      "latitude": 11.9633001,
      "longitude": 8.5890656,
      "viewport": {
        "northeast": {
          "lat": 11.96464992989272,
          "lng": 8.59041542989272
        },
        "southwest": {
          "lat": 11.96195027010728,
          "lng": 8.587715770107277
        }
      },
      "formatted_address": "Maiduguri Road, Hotoro 700102, Kano, Nigeria",
      "google_map_url": "https://maps.google.com?q=11.9633001,8.5890656",
      "google_place_id": "ChIJYSJoOZSBrhERB8GJOcJPZG4"
    }
  },
  {
    "id": "20994",
    "name": "BEGUWA GINDIN PAMPO",
    "registration_area_id": "1172",
    "precise_location": null,
    "abbreviation": "013",
    "units": "013",
    "delimitation": "05/11/01/013",
    "remark": "NEW PU",
    "ward_id": "1172",
    "ward_name": "JAMA'ARE 'A'",
    "local_government_id": "101",
    "local_government_name": "JAMA'ARE",
    "state_id": "5",
    "state_name": "BAUCHI",
    "location": null
  },
  {
    "id": "20995",
    "name": "YARIMARI CENTRAL PRIMARY SCHOOL",
    "registration_area_id": "1172",
    "precise_location": null,
    "abbreviation": "014",
    "units": "014",
    "delimitation": "05/11/01/014",
    "remark": "NEW PU",
    "ward_id": "1172",
    "ward_name": "JAMA'ARE 'A'",
    "local_government_id": "101",
    "local_government_name": "JAMA'ARE",
    "state_id": "5",
    "state_name": "BAUCHI",
    "location": {
      "latitude": 11.6695457,
      "longitude": 9.9200951,
      "viewport": {
        "northeast": {
          "lat": 11.67088862989272,
          "lng": 9.921361179892722
        },
        "southwest": {
          "lat": 11.66818897010728,
          "lng": 9.918661520107278
        }
      },
      "formatted_address": "MW9C+R29, 751106, Jamaare, Nigeria",
      "google_map_url": "https://maps.google.com?q=11.6695457,9.9200951",
      "google_place_id": "ChIJyx1rV_IzqhERNoRbeXcWoyk"
    }
  }
]