[
  {
    "id": "57337",
    "name": "UMUGBABE VILLAGE HALL I",
    "registration_area_id": "3107",
    "precise_location": null,
    "abbreviation": "001",
    "units": "001",
    "delimitation": "14/09/14/001",
    "remark": "EXISTING PU",
    "ward_id": "3107",
    "ward_name": "OVOKO (UMULOLO WARD)",
    "local_government_id": "267",
    "local_government_name": "IGBO EZE SOUTH",
    "state_id": "14",
    "state_name": "ENUGU",
    "location": {
      "latitude": 7.0663081,
      "longitude": 7.4475654,
      "viewport": {
        "northeast": {
          "lat": 7.06780822989272,
          "lng": 7.448949979892722
        },
        "southwest": {
          "lat": 7.065108570107276,
          "lng": 7.446250320107278
        }
      },
      "formatted_address": "Nsuka, 413105, Enugu, Nigeria",
      "google_map_url": "https://maps.google.com?q=7.0663081,7.4475654",
      "google_place_id": "ChIJY_ZQjS8gRRARpcHVQcZkjhQ"
    }
  },
  {
    "id": "57338",
    "name": "AMEBODA VILLAGE HALL",
    "registration_area_id": "3107",
    "precise_location": null,
    "abbreviation": "002",
    "units": "002",
    "delimitation": "14/09/14/002",
    "remark": "EXISTING PU",
    "ward_id": "3107",
    "ward_name": "OVOKO (UMULOLO WARD)",
    "local_government_id": "267",
    "local_government_name": "IGBO EZE SOUTH",
    "state_id": "14",
    "state_name": "ENUGU",
    "location": null
  },
  {
    "id": "57339",
    "name": "UMUOGBURUGBU",
    "registration_area_id": "3107",
    "precise_location": null,
    "abbreviation": "003",
    "units": "003",
    "delimitation": "14/09/14/003",
    "remark": "EXISTING PU",
    "ward_id": "3107",
    "ward_name": "OVOKO (UMULOLO WARD)",
    "local_government_id": "267",
    "local_government_name": "IGBO EZE SOUTH",
    "state_id": "14",
    "state_name": "ENUGU",
    "location": {
      "latitude": 6.9835975,
      "longitude": 7.4565347,
      "viewport": {
        "northeast": {
          "lat": 6.984878179892722,
          "lng": 7.457847229892722
        },
        "southwest": {
          "lat": 6.982178520107278,
          "lng": 7.455147570107278
        }
      },
      "formatted_address": "XFM4+CHF, Ogurute to Igogoro Road,, Enugu-ezike, Nigeria",
      "google_map_url": "https://maps.google.com?q=6.9835975,7.4565347",
      "google_place_id": "ChIJ9YcJ8DbeRBARTJY0Q3maNio"
    }
  },
  {
    "id": "57340",
    "name": "OTOBO UMULOLO",
    "registration_area_id": "3107",
    "precise_location": null,
    "abbreviation": "004",
    "units": "004",
    "delimitation": "14/09/14/004",
    "remark": "EXISTING PU",
    "ward_id": "3107",
    "ward_name": "OVOKO (UMULOLO WARD)",
    "local_government_id": "267",
    "local_government_name": "IGBO EZE SOUTH",
    "state_id": "14",
    "state_name": "ENUGU",
    "location": {
      "latitude": 6.893700399999999,
      "longitude": 7.447600800000001,
      "viewport": {
        "northeast": {
          "lat": 6.9137643,
          "lng": 7.469813899999999
        },
        "southwest": {
          "lat": 6.8788704,
          "lng": 7.435650900000001
        }
      },
      "formatted_address": "Ovoko (Umulolo Ward), Nigeria",
      "google_map_url": "https://maps.google.com?q=6.893700399999999,7.447600800000001",
      "google_place_id": "ChIJuW9bv3HdRBARdJ7PcJPysyI"
    }
  },
  {
    "id": "57341",
    "name": "AMOFIA VILLAGE HALL",
    "registration_area_id": "3107",
    "precise_location": null,
    "abbreviation": "005",
    "units": "005",
    "delimitation": "14/09/14/005",
    "remark": "EXISTING PU",
    "ward_id": "3107",
    "ward_name": "OVOKO (UMULOLO WARD)",
    "local_government_id": "267",
    "local_government_name": "IGBO EZE SOUTH",
    "state_id": "14",
    "state_name": "ENUGU",
    "location": {
      "latitude": 7.0663081,
      "longitude": 7.4475654,
      "viewport": {
        "northeast": {
          "lat": 7.06780822989272,
          "lng": 7.448949979892722
        },
        "southwest": {
          "lat": 7.065108570107276,
          "lng": 7.446250320107278
        }
      },
      "formatted_address": "Nsuka, 413105, Enugu, Nigeria",
      "google_map_url": "https://maps.google.com?q=7.0663081,7.4475654",
      "google_place_id": "ChIJY_ZQjS8gRRARpcHVQcZkjhQ"
    }
  },
  {
    "id": "57342",
    "name": "C.P.S. OVOKO ULO I",
    "registration_area_id": "3107",
    "precise_location": null,
    "abbreviation": "006",
    "units": "006",
    "delimitation": "14/09/14/006",
    "remark": "EXISTING PU",
    "ward_id": "3107",
    "ward_name": "OVOKO (UMULOLO WARD)",
    "local_government_id": "267",
    "local_government_name": "IGBO EZE SOUTH",
    "state_id": "14",
    "state_name": "ENUGU",
    "location": {
      "latitude": 6.893700399999999,
      "longitude": 7.447600800000001,
      "viewport": {
        "northeast": {
          "lat": 6.9137643,
          "lng": 7.469813899999999
        },
        "southwest": {
          "lat": 6.8788704,
          "lng": 7.435650900000001
        }
      },
      "formatted_address": "Ovoko (Umulolo Ward), Nigeria",
      "google_map_url": "https://maps.google.com?q=6.893700399999999,7.447600800000001",
      "google_place_id": "ChIJuW9bv3HdRBARdJ7PcJPysyI"
    }
  },
  {
    "id": "57343",
    "name": "OTOBO AMEBODA",
    "registration_area_id": "3107",
    "precise_location": null,
    "abbreviation": "007",
    "units": "007",
    "delimitation": "14/09/14/007",
    "remark": "EXISTING PU",
    "ward_id": "3107",
    "ward_name": "OVOKO (UMULOLO WARD)",
    "local_government_id": "267",
    "local_government_name": "IGBO EZE SOUTH",
    "state_id": "14",
    "state_name": "ENUGU",
    "location": {
      "latitude": 6.9835975,
      "longitude": 7.4565347,
      "viewport": {
        "northeast": {
          "lat": 6.984878179892722,
          "lng": 7.457847229892722
        },
        "southwest": {
          "lat": 6.982178520107278,
          "lng": 7.455147570107278
        }
      },
      "formatted_address": "XFM4+CHF, Ogurute to Igogoro Road,, Enugu-ezike, Nigeria",
      "google_map_url": "https://maps.google.com?q=6.9835975,7.4565347",
      "google_place_id": "ChIJ9YcJ8DbeRBARTJY0Q3maNio"
    }
  },
  {
    "id": "57344",
    "name": "UMUGBABE HALL II",
    "registration_area_id": "3107",
    "precise_location": null,
    "abbreviation": "008",
    "units": "008",
    "delimitation": "14/09/14/008",
    "remark": "EXISTING PU",
    "ward_id": "3107",
    "ward_name": "OVOKO (UMULOLO WARD)",
    "local_government_id": "267",
    "local_government_name": "IGBO EZE SOUTH",
    "state_id": "14",
    "state_name": "ENUGU",
    "location": {
      "latitude": 7.0663081,
      "longitude": 7.4475654,
      "viewport": {
        "northeast": {
          "lat": 7.06780822989272,
          "lng": 7.448949979892722
        },
        "southwest": {
          "lat": 7.065108570107276,
          "lng": 7.446250320107278
        }
      },
      "formatted_address": "Nsuka, 413105, Enugu, Nigeria",
      "google_map_url": "https://maps.google.com?q=7.0663081,7.4475654",
      "google_place_id": "ChIJY_ZQjS8gRRARpcHVQcZkjhQ"
    }
  },
  {
    "id": "57345",
    "name": "C.P.S. OVOKO ULO II",
    "registration_area_id": "3107",
    "precise_location": null,
    "abbreviation": "009",
    "units": "009",
    "delimitation": "14/09/14/009",
    "remark": "EXISTING PU",
    "ward_id": "3107",
    "ward_name": "OVOKO (UMULOLO WARD)",
    "local_government_id": "267",
    "local_government_name": "IGBO EZE SOUTH",
    "state_id": "14",
    "state_name": "ENUGU",
    "location": {
      "latitude": 6.893700399999999,
      "longitude": 7.447600800000001,
      "viewport": {
        "northeast": {
          "lat": 6.9137643,
          "lng": 7.469813899999999
        },
        "southwest": {
          "lat": 6.8788704,
          "lng": 7.435650900000001
        }
      },
      "formatted_address": "Ovoko (Umulolo Ward), Nigeria",
      "google_map_url": "https://maps.google.com?q=6.893700399999999,7.447600800000001",
      "google_place_id": "ChIJuW9bv3HdRBARdJ7PcJPysyI"
    }
  },
  {
    "id": "57346",
    "name": "OTOBO UDUNWAGU HALL",
    "registration_area_id": "3107",
    "precise_location": null,
    "abbreviation": "010",
    "units": "010",
    "delimitation": "14/09/14/010",
    "remark": "NEW PU",
    "ward_id": "3107",
    "ward_name": "OVOKO (UMULOLO WARD)",
    "local_government_id": "267",
    "local_government_name": "IGBO EZE SOUTH",
    "state_id": "14",
    "state_name": "ENUGU",
    "location": {
      "latitude": 6.9835975,
      "longitude": 7.4565347,
      "viewport": {
        "northeast": {
          "lat": 6.984878179892722,
          "lng": 7.457847229892722
        },
        "southwest": {
          "lat": 6.982178520107278,
          "lng": 7.455147570107278
        }
      },
      "formatted_address": "XFM4+CHF, Ogurute to Igogoro Road,, Enugu-ezike, Nigeria",
      "google_map_url": "https://maps.google.com?q=6.9835975,7.4565347",
      "google_place_id": "ChIJ9YcJ8DbeRBARTJY0Q3maNio"
    }
  },
  {
    "id": "57347",
    "name": "OTOBO ETITI",
    "registration_area_id": "3107",
    "precise_location": null,
    "abbreviation": "011",
    "units": "011",
    "delimitation": "14/09/14/011",
    "remark": "NEW PU",
    "ward_id": "3107",
    "ward_name": "OVOKO (UMULOLO WARD)",
    "local_government_id": "267",
    "local_government_name": "IGBO EZE SOUTH",
    "state_id": "14",
    "state_name": "ENUGU",
    "location": {
      "latitude": 6.9835975,
      "longitude": 7.4565347,
      "viewport": {
        "northeast": {
          "lat": 6.984878179892722,
          "lng": 7.457847229892722
        },
        "southwest": {
          "lat": 6.982178520107278,
          "lng": 7.455147570107278
        }
      },
      "formatted_address": "XFM4+CHF, Ogurute to Igogoro Road,, Enugu-ezike, Nigeria",
      "google_map_url": "https://maps.google.com?q=6.9835975,7.4565347",
      "google_place_id": "ChIJ9YcJ8DbeRBARTJY0Q3maNio"
    }
  },
  {
    "id": "57348",
    "name": "OTOBO UMUOGUDA",
    "registration_area_id": "3107",
    "precise_location": null,
    "abbreviation": "012",
    "units": "012",
    "delimitation": "14/09/14/012",
    "remark": "NEW PU",
    "ward_id": "3107",
    "ward_name": "OVOKO (UMULOLO WARD)",
    "local_government_id": "267",
    "local_government_name": "IGBO EZE SOUTH",
    "state_id": "14",
    "state_name": "ENUGU",
    "location": {
      "latitude": 6.9835975,
      "longitude": 7.4565347,
      "viewport": {
        "northeast": {
          "lat": 6.984878179892722,
          "lng": 7.457847229892722
        },
        "southwest": {
          "lat": 6.982178520107278,
          "lng": 7.455147570107278
        }
      },
      "formatted_address": "XFM4+CHF, Ogurute to Igogoro Road,, Enugu-ezike, Nigeria",
      "google_map_url": "https://maps.google.com?q=6.9835975,7.4565347",
      "google_place_id": "ChIJ9YcJ8DbeRBARTJY0Q3maNio"
    }
  },
  {
    "id": "57349",
    "name": "OTOBO UMUOGENE HALL",
    "registration_area_id": "3107",
    "precise_location": null,
    "abbreviation": "013",
    "units": "013",
    "delimitation": "14/09/14/013",
    "remark": "NEW PU",
    "ward_id": "3107",
    "ward_name": "OVOKO (UMULOLO WARD)",
    "local_government_id": "267",
    "local_government_name": "IGBO EZE SOUTH",
    "state_id": "14",
    "state_name": "ENUGU",
    "location": {
      "latitude": 6.9835975,
      "longitude": 7.4565347,
      "viewport": {
        "northeast": {
          "lat": 6.984878179892722,
          "lng": 7.457847229892722
        },
        "southwest": {
          "lat": 6.982178520107278,
          "lng": 7.455147570107278
        }
      },
      "formatted_address": "XFM4+CHF, Ogurute to Igogoro Road,, Enugu-ezike, Nigeria",
      "google_map_url": "https://maps.google.com?q=6.9835975,7.4565347",
      "google_place_id": "ChIJ9YcJ8DbeRBARTJY0Q3maNio"
    }
  },
  {
    "id": "57350",
    "name": "AMOFIA CIVIC CENTRE",
    "registration_area_id": "3107",
    "precise_location": null,
    "abbreviation": "014",
    "units": "014",
    "delimitation": "14/09/14/014",
    "remark": "NEW PU",
    "ward_id": "3107",
    "ward_name": "OVOKO (UMULOLO WARD)",
    "local_government_id": "267",
    "local_government_name": "IGBO EZE SOUTH",
    "state_id": "14",
    "state_name": "ENUGU",
    "location": {
      "latitude": 6.9835975,
      "longitude": 7.4565347,
      "viewport": {
        "northeast": {
          "lat": 6.984878179892722,
          "lng": 7.457847229892722
        },
        "southwest": {
          "lat": 6.982178520107278,
          "lng": 7.455147570107278
        }
      },
      "formatted_address": "XFM4+CHF, Ogurute to Igogoro Road,, Enugu-ezike, Nigeria",
      "google_map_url": "https://maps.google.com?q=6.9835975,7.4565347",
      "google_place_id": "ChIJ9YcJ8DbeRBARTJY0Q3maNio"
    }
  },
  {
    "id": "57351",
    "name": "OTOBO IMILIKE AMEBO",
    "registration_area_id": "3107",
    "precise_location": null,
    "abbreviation": "015",
    "units": "015",
    "delimitation": "14/09/14/015",
    "remark": "NEW PU",
    "ward_id": "3107",
    "ward_name": "OVOKO (UMULOLO WARD)",
    "local_government_id": "267",
    "local_government_name": "IGBO EZE SOUTH",
    "state_id": "14",
    "state_name": "ENUGU",
    "location": {
      "latitude": 6.9835975,
      "longitude": 7.4565347,
      "viewport": {
        "northeast": {
          "lat": 6.984878179892722,
          "lng": 7.457847229892722
        },
        "southwest": {
          "lat": 6.982178520107278,
          "lng": 7.455147570107278
        }
      },
      "formatted_address": "XFM4+CHF, Ogurute to Igogoro Road,, Enugu-ezike, Nigeria",
      "google_map_url": "https://maps.google.com?q=6.9835975,7.4565347",
      "google_place_id": "ChIJ9YcJ8DbeRBARTJY0Q3maNio"
    }
  },
  {
    "id": "57352",
    "name": "ISIUJA VILLAGE HALL",
    "registration_area_id": "3107",
    "precise_location": null,
    "abbreviation": "016",
    "units": "016",
    "delimitation": "14/09/14/016",
    "remark": "NEW PU",
    "ward_id": "3107",
    "ward_name": "OVOKO (UMULOLO WARD)",
    "local_government_id": "267",
    "local_government_name": "IGBO EZE SOUTH",
    "state_id": "14",
    "state_name": "ENUGU",
    "location": {
      "latitude": 7.0663081,
      "longitude": 7.4475654,
      "viewport": {
        "northeast": {
          "lat": 7.06780822989272,
          "lng": 7.448949979892722
        },
        "southwest": {
          "lat": 7.065108570107276,
          "lng": 7.446250320107278
        }
      },
      "formatted_address": "Nsuka, 413105, Enugu, Nigeria",
      "google_map_url": "https://maps.google.com?q=7.0663081,7.4475654",
      "google_place_id": "ChIJY_ZQjS8gRRARpcHVQcZkjhQ"
    }
  },
  {
    "id": "57353",
    "name": "AMEBODA VILL BORE HOLE",
    "registration_area_id": "3107",
    "precise_location": null,
    "abbreviation": "017",
    "units": "017",
    "delimitation": "14/09/14/017",
    "remark": "NEW PU",
    "ward_id": "3107",
    "ward_name": "OVOKO (UMULOLO WARD)",
    "local_government_id": "267",
    "local_government_name": "IGBO EZE SOUTH",
    "state_id": "14",
    "state_name": "ENUGU",
    "location": {
      "latitude": 6.9835975,
      "longitude": 7.4565347,
      "viewport": {
        "northeast": {
          "lat": 6.984878179892722,
          "lng": 7.457847229892722
        },
        "southwest": {
          "lat": 6.982178520107278,
          "lng": 7.455147570107278
        }
      },
      "formatted_address": "XFM4+CHF, Ogurute to Igogoro Road,, Enugu-ezike, Nigeria",
      "google_map_url": "https://maps.google.com?q=6.9835975,7.4565347",
      "google_place_id": "ChIJ9YcJ8DbeRBARTJY0Q3maNio"
    }
  },
  {
    "id": "57354",
    "name": "UMUKADA VILL HALL",
    "registration_area_id": "3107",
    "precise_location": null,
    "abbreviation": "018",
    "units": "018",
    "delimitation": "14/09/14/018",
    "remark": "NEW PU",
    "ward_id": "3107",
    "ward_name": "OVOKO (UMULOLO WARD)",
    "local_government_id": "267",
    "local_government_name": "IGBO EZE SOUTH",
    "state_id": "14",
    "state_name": "ENUGU",
    "location": {
      "latitude": 6.893700399999999,
      "longitude": 7.447600800000001,
      "viewport": {
        "northeast": {
          "lat": 6.9137643,
          "lng": 7.469813899999999
        },
        "southwest": {
          "lat": 6.8788704,
          "lng": 7.435650900000001
        }
      },
      "formatted_address": "Ovoko (Umulolo Ward), Nigeria",
      "google_map_url": "https://maps.google.com?q=6.893700399999999,7.447600800000001",
      "google_place_id": "ChIJuW9bv3HdRBARdJ7PcJPysyI"
    }
  },
  {
    "id": "57355",
    "name": "OTOBO AMAUKWA",
    "registration_area_id": "3107",
    "precise_location": null,
    "abbreviation": "019",
    "units": "019",
    "delimitation": "14/09/14/019",
    "remark": "NEW PU",
    "ward_id": "3107",
    "ward_name": "OVOKO (UMULOLO WARD)",
    "local_government_id": "267",
    "local_government_name": "IGBO EZE SOUTH",
    "state_id": "14",
    "state_name": "ENUGU",
    "location": {
      "latitude": 6.9261446,
      "longitude": 7.5080354,
      "viewport": {
        "northeast": {
          "lat": 6.927467379892723,
          "lng": 7.50935022989272
        },
        "southwest": {
          "lat": 6.924767720107279,
          "lng": 7.506650570107277
        }
      },
      "formatted_address": "WGG5+F6F Enugu Ezike, Road, 412107, Obolo, Nigeria",
      "google_map_url": "https://maps.google.com?q=6.9261446,7.5080354",
      "google_place_id": "ChIJcwImrRTcRBARXqs3JDYSO_g"
    }
  }
]