[
  {
    "id": "32465",
    "name": "AISARAM  I",
    "registration_area_id": "1756",
    "precise_location": null,
    "abbreviation": "001",
    "units": "001",
    "delimitation": "08/09/09/001",
    "remark": "EXISTING PU",
    "ward_id": "1756",
    "ward_name": "NGETRA",
    "local_government_id": "150",
    "local_government_name": "GUBIO",
    "state_id": "8",
    "state_name": "BORNO",
    "location": {
      "latitude": 11.8278889,
      "longitude": 13.1396182,
      "viewport": {
        "northeast": {
          "lat": 11.82929577989272,
          "lng": 13.14091937989272
        },
        "southwest": {
          "lat": 11.82659612010728,
          "lng": 13.13821972010728
        }
      },
      "formatted_address": "No. 156,Maisandari Layout, Maduganari Bypass, Maiduguri, Nigeria",
      "google_map_url": "https://maps.google.com?q=11.8278889,13.1396182",
      "google_place_id": "ChIJGc9t0fufBBERSUJUd5aaqgU"
    }
  },
  {
    "id": "32466",
    "name": "AISARAM  II",
    "registration_area_id": "1756",
    "precise_location": null,
    "abbreviation": "002",
    "units": "002",
    "delimitation": "08/09/09/002",
    "remark": "EXISTING PU",
    "ward_id": "1756",
    "ward_name": "NGETRA",
    "local_government_id": "150",
    "local_government_name": "GUBIO",
    "state_id": "8",
    "state_name": "BORNO",
    "location": null
  },
  {
    "id": "32467",
    "name": "AWANARI  I",
    "registration_area_id": "1756",
    "precise_location": null,
    "abbreviation": "003",
    "units": "003",
    "delimitation": "08/09/09/003",
    "remark": "EXISTING PU",
    "ward_id": "1756",
    "ward_name": "NGETRA",
    "local_government_id": "150",
    "local_government_name": "GUBIO",
    "state_id": "8",
    "state_name": "BORNO",
    "location": {
      "latitude": 12.5912346,
      "longitude": 13.2805975,
      "viewport": {
        "northeast": {
          "lat": 12.59238532989272,
          "lng": 13.28211832989272
        },
        "southwest": {
          "lat": 12.58968567010728,
          "lng": 13.27941867010728
        }
      },
      "formatted_address": "612103, Awanari, Nigeria",
      "google_map_url": "https://maps.google.com?q=12.5912346,13.2805975",
      "google_place_id": "ChIJY_FUzW0kBRERGYzC2uZ5yWo"
    }
  },
  {
    "id": "32468",
    "name": "AWANARI  II",
    "registration_area_id": "1756",
    "precise_location": null,
    "abbreviation": "004",
    "units": "004",
    "delimitation": "08/09/09/004",
    "remark": "EXISTING PU",
    "ward_id": "1756",
    "ward_name": "NGETRA",
    "local_government_id": "150",
    "local_government_name": "GUBIO",
    "state_id": "8",
    "state_name": "BORNO",
    "location": {
      "latitude": 12.5912346,
      "longitude": 13.2805975,
      "viewport": {
        "northeast": {
          "lat": 12.59238532989272,
          "lng": 13.28211832989272
        },
        "southwest": {
          "lat": 12.58968567010728,
          "lng": 13.27941867010728
        }
      },
      "formatted_address": "612103, Awanari, Nigeria",
      "google_map_url": "https://maps.google.com?q=12.5912346,13.2805975",
      "google_place_id": "ChIJY_FUzW0kBRERGYzC2uZ5yWo"
    }
  },
  {
    "id": "32469",
    "name": "DIFFAN",
    "registration_area_id": "1756",
    "precise_location": null,
    "abbreviation": "005",
    "units": "005",
    "delimitation": "08/09/09/005",
    "remark": "EXISTING PU",
    "ward_id": "1756",
    "ward_name": "NGETRA",
    "local_government_id": "150",
    "local_government_name": "GUBIO",
    "state_id": "8",
    "state_name": "BORNO",
    "location": {
      "latitude": 11.8292373,
      "longitude": 13.1182464,
      "viewport": {
        "northeast": {
          "lat": 11.83058837989272,
          "lng": 13.11965772989272
        },
        "southwest": {
          "lat": 11.82788872010728,
          "lng": 13.11695807010728
        }
      },
      "formatted_address": "R4H9+M7X, Damboa-Biu Road, 600282, Maiduguri, Nigeria",
      "google_map_url": "https://maps.google.com?q=11.8292373,13.1182464",
      "google_place_id": "ChIJUeCuA9mfBBER-W7QbXd5KLE"
    }
  },
  {
    "id": "32470",
    "name": "GANDASKO  I",
    "registration_area_id": "1756",
    "precise_location": null,
    "abbreviation": "006",
    "units": "006",
    "delimitation": "08/09/09/006",
    "remark": "EXISTING PU",
    "ward_id": "1756",
    "ward_name": "NGETRA",
    "local_government_id": "150",
    "local_government_name": "GUBIO",
    "state_id": "8",
    "state_name": "BORNO",
    "location": null
  },
  {
    "id": "32471",
    "name": "GANDASKO  II",
    "registration_area_id": "1756",
    "precise_location": null,
    "abbreviation": "007",
    "units": "007",
    "delimitation": "08/09/09/007",
    "remark": "EXISTING PU",
    "ward_id": "1756",
    "ward_name": "NGETRA",
    "local_government_id": "150",
    "local_government_name": "GUBIO",
    "state_id": "8",
    "state_name": "BORNO",
    "location": {
      "latitude": 11.8292373,
      "longitude": 13.1182464,
      "viewport": {
        "northeast": {
          "lat": 11.83058837989272,
          "lng": 13.11965772989272
        },
        "southwest": {
          "lat": 11.82788872010728,
          "lng": 13.11695807010728
        }
      },
      "formatted_address": "R4H9+M7X, Damboa-Biu Road, 600282, Maiduguri, Nigeria",
      "google_map_url": "https://maps.google.com?q=11.8292373,13.1182464",
      "google_place_id": "ChIJUeCuA9mfBBER-W7QbXd5KLE"
    }
  },
  {
    "id": "32472",
    "name": "GONI KADIRTI  I",
    "registration_area_id": "1756",
    "precise_location": null,
    "abbreviation": "008",
    "units": "008",
    "delimitation": "08/09/09/008",
    "remark": "EXISTING PU",
    "ward_id": "1756",
    "ward_name": "NGETRA",
    "local_government_id": "150",
    "local_government_name": "GUBIO",
    "state_id": "8",
    "state_name": "BORNO",
    "location": null
  },
  {
    "id": "32473",
    "name": "GONI KADIRTI  II",
    "registration_area_id": "1756",
    "precise_location": null,
    "abbreviation": "009",
    "units": "009",
    "delimitation": "08/09/09/009",
    "remark": "EXISTING PU",
    "ward_id": "1756",
    "ward_name": "NGETRA",
    "local_government_id": "150",
    "local_government_name": "GUBIO",
    "state_id": "8",
    "state_name": "BORNO",
    "location": null
  },
  {
    "id": "32474",
    "name": "GONI KADIRTI  III",
    "registration_area_id": "1756",
    "precise_location": null,
    "abbreviation": "010",
    "units": "010",
    "delimitation": "08/09/09/010",
    "remark": "EXISTING PU",
    "ward_id": "1756",
    "ward_name": "NGETRA",
    "local_government_id": "150",
    "local_government_name": "GUBIO",
    "state_id": "8",
    "state_name": "BORNO",
    "location": null
  },
  {
    "id": "32475",
    "name": "KAYOWA  I",
    "registration_area_id": "1756",
    "precise_location": null,
    "abbreviation": "011",
    "units": "011",
    "delimitation": "08/09/09/011",
    "remark": "EXISTING PU",
    "ward_id": "1756",
    "ward_name": "NGETRA",
    "local_government_id": "150",
    "local_government_name": "GUBIO",
    "state_id": "8",
    "state_name": "BORNO",
    "location": null
  },
  {
    "id": "32476",
    "name": "KAYOWA  II",
    "registration_area_id": "1756",
    "precise_location": null,
    "abbreviation": "012",
    "units": "012",
    "delimitation": "08/09/09/012",
    "remark": "EXISTING PU",
    "ward_id": "1756",
    "ward_name": "NGETRA",
    "local_government_id": "150",
    "local_government_name": "GUBIO",
    "state_id": "8",
    "state_name": "BORNO",
    "location": null
  },
  {
    "id": "32477",
    "name": "LAWANTI  I",
    "registration_area_id": "1756",
    "precise_location": null,
    "abbreviation": "013",
    "units": "013",
    "delimitation": "08/09/09/013",
    "remark": "EXISTING PU",
    "ward_id": "1756",
    "ward_name": "NGETRA",
    "local_government_id": "150",
    "local_government_name": "GUBIO",
    "state_id": "8",
    "state_name": "BORNO",
    "location": {
      "latitude": 12.6703487,
      "longitude": 12.5769581,
      "viewport": {
        "northeast": {
          "lat": 12.671852,
          "lng": 12.57836892989272
        },
        "southwest": {
          "lat": 12.668303,
          "lng": 12.57566927010728
        }
      },
      "formatted_address": "602102, Lawanti Mutiri, Nigeria",
      "google_map_url": "https://maps.google.com?q=12.6703487,12.5769581",
      "google_place_id": "ChIJ1z4T62GwBRER0edV0aClP-U"
    }
  },
  {
    "id": "32478",
    "name": "LAWANTI  II",
    "registration_area_id": "1756",
    "precise_location": null,
    "abbreviation": "014",
    "units": "014",
    "delimitation": "08/09/09/014",
    "remark": "EXISTING PU",
    "ward_id": "1756",
    "ward_name": "NGETRA",
    "local_government_id": "150",
    "local_government_name": "GUBIO",
    "state_id": "8",
    "state_name": "BORNO",
    "location": {
      "latitude": 12.6703487,
      "longitude": 12.5769581,
      "viewport": {
        "northeast": {
          "lat": 12.671852,
          "lng": 12.57836892989272
        },
        "southwest": {
          "lat": 12.668303,
          "lng": 12.57566927010728
        }
      },
      "formatted_address": "602102, Lawanti Mutiri, Nigeria",
      "google_map_url": "https://maps.google.com?q=12.6703487,12.5769581",
      "google_place_id": "ChIJ1z4T62GwBRER0edV0aClP-U"
    }
  },
  {
    "id": "32479",
    "name": "MALLAM SULUMTI  I",
    "registration_area_id": "1756",
    "precise_location": null,
    "abbreviation": "015",
    "units": "015",
    "delimitation": "08/09/09/015",
    "remark": "EXISTING PU",
    "ward_id": "1756",
    "ward_name": "NGETRA",
    "local_government_id": "150",
    "local_government_name": "GUBIO",
    "state_id": "8",
    "state_name": "BORNO",
    "location": {
      "latitude": 12.7967523,
      "longitude": 12.6538814,
      "viewport": {
        "northeast": {
          "lat": 12.79810212989272,
          "lng": 12.65523122989272
        },
        "southwest": {
          "lat": 12.79540247010728,
          "lng": 12.65253157010728
        }
      },
      "formatted_address": "QMW3+PH2, 602102, Karelto Kanguri, Nigeria",
      "google_map_url": "https://maps.google.com?q=12.7967523,12.6538814",
      "google_place_id": "ChIJ9TIFLm2jBRERLzlCUYvCb3g"
    }
  },
  {
    "id": "32480",
    "name": "MALLAM SULUMTI  II",
    "registration_area_id": "1756",
    "precise_location": null,
    "abbreviation": "016",
    "units": "016",
    "delimitation": "08/09/09/016",
    "remark": "EXISTING PU",
    "ward_id": "1756",
    "ward_name": "NGETRA",
    "local_government_id": "150",
    "local_government_name": "GUBIO",
    "state_id": "8",
    "state_name": "BORNO",
    "location": {
      "latitude": 12.7967523,
      "longitude": 12.6538814,
      "viewport": {
        "northeast": {
          "lat": 12.79810212989272,
          "lng": 12.65523122989272
        },
        "southwest": {
          "lat": 12.79540247010728,
          "lng": 12.65253157010728
        }
      },
      "formatted_address": "QMW3+PH2, 602102, Karelto Kanguri, Nigeria",
      "google_map_url": "https://maps.google.com?q=12.7967523,12.6538814",
      "google_place_id": "ChIJ9TIFLm2jBRERLzlCUYvCb3g"
    }
  },
  {
    "id": "32481",
    "name": "MUSARI  I",
    "registration_area_id": "1756",
    "precise_location": null,
    "abbreviation": "017",
    "units": "017",
    "delimitation": "08/09/09/017",
    "remark": "EXISTING PU",
    "ward_id": "1756",
    "ward_name": "NGETRA",
    "local_government_id": "150",
    "local_government_name": "GUBIO",
    "state_id": "8",
    "state_name": "BORNO",
    "location": {
      "latitude": 12.8045117,
      "longitude": 12.6146245,
      "viewport": {
        "northeast": {
          "lat": 12.806492,
          "lng": 12.61578087989272
        },
        "southwest": {
          "lat": 12.8029549,
          "lng": 12.61308122010728
        }
      },
      "formatted_address": "602101, Goni Musari, Nigeria",
      "google_map_url": "https://maps.google.com?q=12.8045117,12.6146245",
      "google_place_id": "ChIJ_W2pys68BRERFhII5wrfRtE"
    }
  },
  {
    "id": "32482",
    "name": "MUSARI  II",
    "registration_area_id": "1756",
    "precise_location": null,
    "abbreviation": "018",
    "units": "018",
    "delimitation": "08/09/09/018",
    "remark": "EXISTING PU",
    "ward_id": "1756",
    "ward_name": "NGETRA",
    "local_government_id": "150",
    "local_government_name": "GUBIO",
    "state_id": "8",
    "state_name": "BORNO",
    "location": {
      "latitude": 12.5612009,
      "longitude": 12.5770626,
      "viewport": {
        "northeast": {
          "lat": 12.56266287989272,
          "lng": 12.57844887989272
        },
        "southwest": {
          "lat": 12.55996322010728,
          "lng": 12.57574922010728
        }
      },
      "formatted_address": "602102, Musari, Nigeria",
      "google_map_url": "https://maps.google.com?q=12.5612009,12.5770626",
      "google_place_id": "ChIJ18LqWE6yBRERQgvAEmF9mTc"
    }
  },
  {
    "id": "32483",
    "name": "NGETRA LAWANTI",
    "registration_area_id": "1756",
    "precise_location": null,
    "abbreviation": "019",
    "units": "019",
    "delimitation": "08/09/09/019",
    "remark": "EXISTING PU",
    "ward_id": "1756",
    "ward_name": "NGETRA",
    "local_government_id": "150",
    "local_government_name": "GUBIO",
    "state_id": "8",
    "state_name": "BORNO",
    "location": {
      "latitude": 12.6475394,
      "longitude": 12.740447,
      "viewport": {
        "northeast": {
          "lat": 12.6504801,
          "lng": 12.74197972989272
        },
        "southwest": {
          "lat": 12.645758,
          "lng": 12.73928007010728
        }
      },
      "formatted_address": "602102, Zowo Lawanti, Nigeria",
      "google_map_url": "https://maps.google.com?q=12.6475394,12.740447",
      "google_place_id": "ChIJZbhM6uioBRERqpqNxMZqaR8"
    }
  }
]