[
  {
    "id": "57488",
    "name": "UMUJIOVU ALU",
    "registration_area_id": "3119",
    "precise_location": null,
    "abbreviation": "001",
    "units": "001",
    "delimitation": "14/10/10/001",
    "remark": "EXISTING PU",
    "ward_id": "3119",
    "ward_name": "EHAMUFU III",
    "local_government_id": "268",
    "local_government_name": "ISI UZO",
    "state_id": "14",
    "state_name": "ENUGU",
    "location": {
      "latitude": 6.7928871,
      "longitude": 7.850395099999999,
      "viewport": {
        "northeast": {
          "lat": 6.880725399999999,
          "lng": 7.903395600000001
        },
        "southwest": {
          "lat": 6.6418937,
          "lng": 7.749527899999999
        }
      },
      "formatted_address": "Ehamufu III, Nigeria",
      "google_map_url": "https://maps.google.com?q=6.7928871,7.850395099999999",
      "google_place_id": "ChIJ0_xceIg0WxARbbVeTyZSh9w"
    }
  },
  {
    "id": "57489",
    "name": "AMA-OGBU",
    "registration_area_id": "3119",
    "precise_location": null,
    "abbreviation": "002",
    "units": "002",
    "delimitation": "14/10/10/002",
    "remark": "EXISTING PU",
    "ward_id": "3119",
    "ward_name": "EHAMUFU III",
    "local_government_id": "268",
    "local_government_name": "ISI UZO",
    "state_id": "14",
    "state_name": "ENUGU",
    "location": {
      "latitude": 6.4630357,
      "longitude": 7.408395799999999,
      "viewport": {
        "northeast": {
          "lat": 6.464197729892722,
          "lng": 7.409591879892721
        },
        "southwest": {
          "lat": 6.461498070107278,
          "lng": 7.406892220107277
        }
      },
      "formatted_address": "31 Ama-Ogbu, Umuavulu 401118, Abor, Nigeria",
      "google_map_url": "https://maps.google.com?q=6.4630357,7.408395799999999",
      "google_place_id": "ChIJZQXXePGZRBARg3j0FBtBjbU"
    }
  },
  {
    "id": "57490",
    "name": "AMAOBELEBE",
    "registration_area_id": "3119",
    "precise_location": null,
    "abbreviation": "003",
    "units": "003",
    "delimitation": "14/10/10/003",
    "remark": "EXISTING PU",
    "ward_id": "3119",
    "ward_name": "EHAMUFU III",
    "local_government_id": "268",
    "local_government_name": "ISI UZO",
    "state_id": "14",
    "state_name": "ENUGU",
    "location": {
      "latitude": 6.7928871,
      "longitude": 7.850395099999999,
      "viewport": {
        "northeast": {
          "lat": 6.880725399999999,
          "lng": 7.903395600000001
        },
        "southwest": {
          "lat": 6.6418937,
          "lng": 7.749527899999999
        }
      },
      "formatted_address": "Ehamufu III, Nigeria",
      "google_map_url": "https://maps.google.com?q=6.7928871,7.850395099999999",
      "google_place_id": "ChIJ0_xceIg0WxARbbVeTyZSh9w"
    }
  },
  {
    "id": "57491",
    "name": "AMAKPAKA",
    "registration_area_id": "3119",
    "precise_location": null,
    "abbreviation": "004",
    "units": "004",
    "delimitation": "14/10/10/004",
    "remark": "EXISTING PU",
    "ward_id": "3119",
    "ward_name": "EHAMUFU III",
    "local_government_id": "268",
    "local_government_name": "ISI UZO",
    "state_id": "14",
    "state_name": "ENUGU",
    "location": {
      "latitude": 6.7928871,
      "longitude": 7.850395099999999,
      "viewport": {
        "northeast": {
          "lat": 6.880725399999999,
          "lng": 7.903395600000001
        },
        "southwest": {
          "lat": 6.6418937,
          "lng": 7.749527899999999
        }
      },
      "formatted_address": "Ehamufu III, Nigeria",
      "google_map_url": "https://maps.google.com?q=6.7928871,7.850395099999999",
      "google_place_id": "ChIJ0_xceIg0WxARbbVeTyZSh9w"
    }
  },
  {
    "id": "57492",
    "name": "OBIBI UMUOGIRI",
    "registration_area_id": "3119",
    "precise_location": null,
    "abbreviation": "005",
    "units": "005",
    "delimitation": "14/10/10/005",
    "remark": "EXISTING PU",
    "ward_id": "3119",
    "ward_name": "EHAMUFU III",
    "local_government_id": "268",
    "local_government_name": "ISI UZO",
    "state_id": "14",
    "state_name": "ENUGU",
    "location": {
      "latitude": 6.7928871,
      "longitude": 7.850395099999999,
      "viewport": {
        "northeast": {
          "lat": 6.880725399999999,
          "lng": 7.903395600000001
        },
        "southwest": {
          "lat": 6.6418937,
          "lng": 7.749527899999999
        }
      },
      "formatted_address": "Ehamufu III, Nigeria",
      "google_map_url": "https://maps.google.com?q=6.7928871,7.850395099999999",
      "google_place_id": "ChIJ0_xceIg0WxARbbVeTyZSh9w"
    }
  },
  {
    "id": "57493",
    "name": "OMULOR",
    "registration_area_id": "3119",
    "precise_location": null,
    "abbreviation": "006",
    "units": "006",
    "delimitation": "14/10/10/006",
    "remark": "EXISTING PU",
    "ward_id": "3119",
    "ward_name": "EHAMUFU III",
    "local_government_id": "268",
    "local_government_name": "ISI UZO",
    "state_id": "14",
    "state_name": "ENUGU",
    "location": {
      "latitude": 6.663337200000001,
      "longitude": 7.762074399999999,
      "viewport": {
        "northeast": {
          "lat": 6.664854779892723,
          "lng": 7.763812379892721
        },
        "southwest": {
          "lat": 6.662155120107279,
          "lng": 7.761112720107278
        }
      },
      "formatted_address": "MQ76+8RJ, 412102, Eha Amufu, Nigeria",
      "google_map_url": "https://maps.google.com?q=6.663337200000001,7.762074399999999",
      "google_place_id": "ChIJz1ByTXi1RBAR4raNcCs1gXI"
    }
  },
  {
    "id": "57494",
    "name": "UMOKE AMASOGIJI",
    "registration_area_id": "3119",
    "precise_location": null,
    "abbreviation": "007",
    "units": "007",
    "delimitation": "14/10/10/007",
    "remark": "EXISTING PU",
    "ward_id": "3119",
    "ward_name": "EHAMUFU III",
    "local_government_id": "268",
    "local_government_name": "ISI UZO",
    "state_id": "14",
    "state_name": "ENUGU",
    "location": {
      "latitude": 6.663337200000001,
      "longitude": 7.762074399999999,
      "viewport": {
        "northeast": {
          "lat": 6.664854779892723,
          "lng": 7.763812379892721
        },
        "southwest": {
          "lat": 6.662155120107279,
          "lng": 7.761112720107278
        }
      },
      "formatted_address": "MQ76+8RJ, 412102, Eha Amufu, Nigeria",
      "google_map_url": "https://maps.google.com?q=6.663337200000001,7.762074399999999",
      "google_place_id": "ChIJz1ByTXi1RBAR4raNcCs1gXI"
    }
  },
  {
    "id": "57495",
    "name": "COLLEGE OF EDUCATION",
    "registration_area_id": "3119",
    "precise_location": null,
    "abbreviation": "008",
    "units": "008",
    "delimitation": "14/10/10/008",
    "remark": "EXISTING PU",
    "ward_id": "3119",
    "ward_name": "EHAMUFU III",
    "local_government_id": "268",
    "local_government_name": "ISI UZO",
    "state_id": "14",
    "state_name": "ENUGU",
    "location": {
      "latitude": 6.6739082,
      "longitude": 7.769963499999999,
      "viewport": {
        "northeast": {
          "lat": 6.675226929892721,
          "lng": 7.771348229892723
        },
        "southwest": {
          "lat": 6.672527270107278,
          "lng": 7.768648570107279
        }
      },
      "formatted_address": "College of Education, 402137, Eha Amufu, Nigeria",
      "google_map_url": "https://maps.google.com?q=6.6739082,7.769963499999999",
      "google_place_id": "ChIJN1QuKU61RBARd6MXVpw21p4"
    }
  },
  {
    "id": "57496",
    "name": "ORTU",
    "registration_area_id": "3119",
    "precise_location": null,
    "abbreviation": "009",
    "units": "009",
    "delimitation": "14/10/10/009",
    "remark": "EXISTING PU",
    "ward_id": "3119",
    "ward_name": "EHAMUFU III",
    "local_government_id": "268",
    "local_government_name": "ISI UZO",
    "state_id": "14",
    "state_name": "ENUGU",
    "location": {
      "latitude": 6.663337200000001,
      "longitude": 7.762074399999999,
      "viewport": {
        "northeast": {
          "lat": 6.664854779892723,
          "lng": 7.763812379892721
        },
        "southwest": {
          "lat": 6.662155120107279,
          "lng": 7.761112720107278
        }
      },
      "formatted_address": "MQ76+8RJ, 412102, Eha Amufu, Nigeria",
      "google_map_url": "https://maps.google.com?q=6.663337200000001,7.762074399999999",
      "google_place_id": "ChIJz1ByTXi1RBAR4raNcCs1gXI"
    }
  },
  {
    "id": "57497",
    "name": "APE",
    "registration_area_id": "3119",
    "precise_location": null,
    "abbreviation": "010",
    "units": "010",
    "delimitation": "14/10/10/010",
    "remark": "EXISTING PU",
    "ward_id": "3119",
    "ward_name": "EHAMUFU III",
    "local_government_id": "268",
    "local_government_name": "ISI UZO",
    "state_id": "14",
    "state_name": "ENUGU",
    "location": {
      "latitude": 6.663337200000001,
      "longitude": 7.762074399999999,
      "viewport": {
        "northeast": {
          "lat": 6.664854779892723,
          "lng": 7.763812379892721
        },
        "southwest": {
          "lat": 6.662155120107279,
          "lng": 7.761112720107278
        }
      },
      "formatted_address": "MQ76+8RJ, 412102, Eha Amufu, Nigeria",
      "google_map_url": "https://maps.google.com?q=6.663337200000001,7.762074399999999",
      "google_place_id": "ChIJz1ByTXi1RBAR4raNcCs1gXI"
    }
  },
  {
    "id": "57498",
    "name": "OKPOKWU MGBUJI",
    "registration_area_id": "3119",
    "precise_location": null,
    "abbreviation": "011",
    "units": "011",
    "delimitation": "14/10/10/011",
    "remark": "EXISTING PU",
    "ward_id": "3119",
    "ward_name": "EHAMUFU III",
    "local_government_id": "268",
    "local_government_name": "ISI UZO",
    "state_id": "14",
    "state_name": "ENUGU",
    "location": {
      "latitude": 6.7928871,
      "longitude": 7.850395099999999,
      "viewport": {
        "northeast": {
          "lat": 6.880725399999999,
          "lng": 7.903395600000001
        },
        "southwest": {
          "lat": 6.6418937,
          "lng": 7.749527899999999
        }
      },
      "formatted_address": "Ehamufu III, Nigeria",
      "google_map_url": "https://maps.google.com?q=6.7928871,7.850395099999999",
      "google_place_id": "ChIJ0_xceIg0WxARbbVeTyZSh9w"
    }
  },
  {
    "id": "57499",
    "name": "OKPIRIGWU",
    "registration_area_id": "3119",
    "precise_location": null,
    "abbreviation": "012",
    "units": "012",
    "delimitation": "14/10/10/012",
    "remark": "EXISTING PU",
    "ward_id": "3119",
    "ward_name": "EHAMUFU III",
    "local_government_id": "268",
    "local_government_name": "ISI UZO",
    "state_id": "14",
    "state_name": "ENUGU",
    "location": {
      "latitude": 6.663337200000001,
      "longitude": 7.762074399999999,
      "viewport": {
        "northeast": {
          "lat": 6.664854779892723,
          "lng": 7.763812379892721
        },
        "southwest": {
          "lat": 6.662155120107279,
          "lng": 7.761112720107278
        }
      },
      "formatted_address": "MQ76+8RJ, 412102, Eha Amufu, Nigeria",
      "google_map_url": "https://maps.google.com?q=6.663337200000001,7.762074399999999",
      "google_place_id": "ChIJz1ByTXi1RBAR4raNcCs1gXI"
    }
  },
  {
    "id": "57500",
    "name": "NGELE AGUIYI",
    "registration_area_id": "3119",
    "precise_location": null,
    "abbreviation": "013",
    "units": "013",
    "delimitation": "14/10/10/013",
    "remark": "EXISTING PU",
    "ward_id": "3119",
    "ward_name": "EHAMUFU III",
    "local_government_id": "268",
    "local_government_name": "ISI UZO",
    "state_id": "14",
    "state_name": "ENUGU",
    "location": {
      "latitude": 6.7928871,
      "longitude": 7.850395099999999,
      "viewport": {
        "northeast": {
          "lat": 6.880725399999999,
          "lng": 7.903395600000001
        },
        "southwest": {
          "lat": 6.6418937,
          "lng": 7.749527899999999
        }
      },
      "formatted_address": "Ehamufu III, Nigeria",
      "google_map_url": "https://maps.google.com?q=6.7928871,7.850395099999999",
      "google_place_id": "ChIJ0_xceIg0WxARbbVeTyZSh9w"
    }
  },
  {
    "id": "57501",
    "name": "MGBEDE",
    "registration_area_id": "3119",
    "precise_location": null,
    "abbreviation": "014",
    "units": "014",
    "delimitation": "14/10/10/014",
    "remark": "EXISTING PU",
    "ward_id": "3119",
    "ward_name": "EHAMUFU III",
    "local_government_id": "268",
    "local_government_name": "ISI UZO",
    "state_id": "14",
    "state_name": "ENUGU",
    "location": {
      "latitude": 6.663337200000001,
      "longitude": 7.762074399999999,
      "viewport": {
        "northeast": {
          "lat": 6.664854779892723,
          "lng": 7.763812379892721
        },
        "southwest": {
          "lat": 6.662155120107279,
          "lng": 7.761112720107278
        }
      },
      "formatted_address": "MQ76+8RJ, 412102, Eha Amufu, Nigeria",
      "google_map_url": "https://maps.google.com?q=6.663337200000001,7.762074399999999",
      "google_place_id": "ChIJz1ByTXi1RBAR4raNcCs1gXI"
    }
  },
  {
    "id": "57502",
    "name": "OGBETE EHA",
    "registration_area_id": "3119",
    "precise_location": null,
    "abbreviation": "015",
    "units": "015",
    "delimitation": "14/10/10/015",
    "remark": "EXISTING PU",
    "ward_id": "3119",
    "ward_name": "EHAMUFU III",
    "local_government_id": "268",
    "local_government_name": "ISI UZO",
    "state_id": "14",
    "state_name": "ENUGU",
    "location": {
      "latitude": 6.7928871,
      "longitude": 7.850395099999999,
      "viewport": {
        "northeast": {
          "lat": 6.880725399999999,
          "lng": 7.903395600000001
        },
        "southwest": {
          "lat": 6.6418937,
          "lng": 7.749527899999999
        }
      },
      "formatted_address": "Ehamufu III, Nigeria",
      "google_map_url": "https://maps.google.com?q=6.7928871,7.850395099999999",
      "google_place_id": "ChIJ0_xceIg0WxARbbVeTyZSh9w"
    }
  },
  {
    "id": "57503",
    "name": "UMUJIOVU ELU",
    "registration_area_id": "3119",
    "precise_location": null,
    "abbreviation": "016",
    "units": "016",
    "delimitation": "14/10/10/016",
    "remark": "EXISTING PU",
    "ward_id": "3119",
    "ward_name": "EHAMUFU III",
    "local_government_id": "268",
    "local_government_name": "ISI UZO",
    "state_id": "14",
    "state_name": "ENUGU",
    "location": {
      "latitude": 6.663337200000001,
      "longitude": 7.762074399999999,
      "viewport": {
        "northeast": {
          "lat": 6.664854779892723,
          "lng": 7.763812379892721
        },
        "southwest": {
          "lat": 6.662155120107279,
          "lng": 7.761112720107278
        }
      },
      "formatted_address": "MQ76+8RJ, 412102, Eha Amufu, Nigeria",
      "google_map_url": "https://maps.google.com?q=6.663337200000001,7.762074399999999",
      "google_place_id": "ChIJz1ByTXi1RBAR4raNcCs1gXI"
    }
  },
  {
    "id": "57504",
    "name": "NDIAGU AMAOGBU VILL SQUARE",
    "registration_area_id": "3119",
    "precise_location": null,
    "abbreviation": "017",
    "units": "017",
    "delimitation": "14/10/10/017",
    "remark": "NEW PU",
    "ward_id": "3119",
    "ward_name": "EHAMUFU III",
    "local_government_id": "268",
    "local_government_name": "ISI UZO",
    "state_id": "14",
    "state_name": "ENUGU",
    "location": {
      "latitude": 6.2864927,
      "longitude": 7.378668900000001,
      "viewport": {
        "northeast": {
          "lat": 6.2957581,
          "lng": 7.389380000000001
        },
        "southwest": {
          "lat": 6.256886000000001,
          "lng": 7.3676349
        }
      },
      "formatted_address": "Umuabi, Nigeria",
      "google_map_url": "https://maps.google.com?q=6.2864927,7.378668900000001",
      "google_place_id": "ChIJwz9N8cpmQxARAgQXeK3Zalc"
    }
  },
  {
    "id": "57505",
    "name": "UMUODE HALL",
    "registration_area_id": "3119",
    "precise_location": null,
    "abbreviation": "018",
    "units": "018",
    "delimitation": "14/10/10/018",
    "remark": "NEW PU",
    "ward_id": "3119",
    "ward_name": "EHAMUFU III",
    "local_government_id": "268",
    "local_government_name": "ISI UZO",
    "state_id": "14",
    "state_name": "ENUGU",
    "location": {
      "latitude": 6.4254777,
      "longitude": 7.4520537,
      "viewport": {
        "northeast": {
          "lat": 6.426853329892722,
          "lng": 7.453424629892721
        },
        "southwest": {
          "lat": 6.424153670107279,
          "lng": 7.450724970107277
        }
      },
      "formatted_address": "CFG2+5RV, 401107, Ngwo-Asaa, Nigeria",
      "google_map_url": "https://maps.google.com?q=6.4254777,7.4520537",
      "google_place_id": "ChIJDV5sVu6hRBART3dSEQtNqOs"
    }
  },
  {
    "id": "57506",
    "name": "OGOMGO ABOR PRIMARY SCHOOL",
    "registration_area_id": "3119",
    "precise_location": null,
    "abbreviation": "019",
    "units": "019",
    "delimitation": "14/10/10/019",
    "remark": "NEW PU",
    "ward_id": "3119",
    "ward_name": "EHAMUFU III",
    "local_government_id": "268",
    "local_government_name": "ISI UZO",
    "state_id": "14",
    "state_name": "ENUGU",
    "location": {
      "latitude": 6.7871151,
      "longitude": 7.7099079,
      "viewport": {
        "northeast": {
          "lat": 6.788300229892722,
          "lng": 7.711562579892723
        },
        "southwest": {
          "lat": 6.785600570107278,
          "lng": 7.708862920107279
        }
      },
      "formatted_address": "QPP5+RXV, I, Ikem, Nigeria",
      "google_map_url": "https://maps.google.com?q=6.7871151,7.7099079",
      "google_place_id": "ChIJM8KOYhDMRBARaCvU1_jXHJQ"
    }
  },
  {
    "id": "57507",
    "name": "UMUOGIRI HALL",
    "registration_area_id": "3119",
    "precise_location": null,
    "abbreviation": "020",
    "units": "020",
    "delimitation": "14/10/10/020",
    "remark": "NEW PU",
    "ward_id": "3119",
    "ward_name": "EHAMUFU III",
    "local_government_id": "268",
    "local_government_name": "ISI UZO",
    "state_id": "14",
    "state_name": "ENUGU",
    "location": {
      "latitude": 6.663337200000001,
      "longitude": 7.762074399999999,
      "viewport": {
        "northeast": {
          "lat": 6.664854779892723,
          "lng": 7.763812379892721
        },
        "southwest": {
          "lat": 6.662155120107279,
          "lng": 7.761112720107278
        }
      },
      "formatted_address": "MQ76+8RJ, 412102, Eha Amufu, Nigeria",
      "google_map_url": "https://maps.google.com?q=6.663337200000001,7.762074399999999",
      "google_place_id": "ChIJz1ByTXi1RBAR4raNcCs1gXI"
    }
  },
  {
    "id": "57508",
    "name": "OBODO OGO HALL",
    "registration_area_id": "3119",
    "precise_location": null,
    "abbreviation": "021",
    "units": "021",
    "delimitation": "14/10/10/021",
    "remark": "NEW PU",
    "ward_id": "3119",
    "ward_name": "EHAMUFU III",
    "local_government_id": "268",
    "local_government_name": "ISI UZO",
    "state_id": "14",
    "state_name": "ENUGU",
    "location": {
      "latitude": 6.455572,
      "longitude": 7.484857,
      "viewport": {
        "northeast": {
          "lat": 6.456876779892722,
          "lng": 7.486286679892724
        },
        "southwest": {
          "lat": 6.454177120107278,
          "lng": 7.48358702010728
        }
      },
      "formatted_address": "No 7 Park Ln, GRA 400102, Enugu, Nigeria",
      "google_map_url": "https://maps.google.com?q=6.455572,7.484857",
      "google_place_id": "ChIJc0K5vMujRBAR7_VH0p3XoAo"
    }
  },
  {
    "id": "57509",
    "name": "UMUOGIRI OMULOR HALL",
    "registration_area_id": "3119",
    "precise_location": null,
    "abbreviation": "022",
    "units": "022",
    "delimitation": "14/10/10/022",
    "remark": "NEW PU",
    "ward_id": "3119",
    "ward_name": "EHAMUFU III",
    "local_government_id": "268",
    "local_government_name": "ISI UZO",
    "state_id": "14",
    "state_name": "ENUGU",
    "location": {
      "latitude": 6.663337200000001,
      "longitude": 7.762074399999999,
      "viewport": {
        "northeast": {
          "lat": 6.664854779892723,
          "lng": 7.763812379892721
        },
        "southwest": {
          "lat": 6.662155120107279,
          "lng": 7.761112720107278
        }
      },
      "formatted_address": "MQ76+8RJ, 412102, Eha Amufu, Nigeria",
      "google_map_url": "https://maps.google.com?q=6.663337200000001,7.762074399999999",
      "google_place_id": "ChIJz1ByTXi1RBAR4raNcCs1gXI"
    }
  },
  {
    "id": "57510",
    "name": "UMUOKE HALL",
    "registration_area_id": "3119",
    "precise_location": null,
    "abbreviation": "023",
    "units": "023",
    "delimitation": "14/10/10/023",
    "remark": "NEW PU",
    "ward_id": "3119",
    "ward_name": "EHAMUFU III",
    "local_government_id": "268",
    "local_government_name": "ISI UZO",
    "state_id": "14",
    "state_name": "ENUGU",
    "location": {
      "latitude": 6.663337200000001,
      "longitude": 7.762074399999999,
      "viewport": {
        "northeast": {
          "lat": 6.664854779892723,
          "lng": 7.763812379892721
        },
        "southwest": {
          "lat": 6.662155120107279,
          "lng": 7.761112720107278
        }
      },
      "formatted_address": "MQ76+8RJ, 412102, Eha Amufu, Nigeria",
      "google_map_url": "https://maps.google.com?q=6.663337200000001,7.762074399999999",
      "google_place_id": "ChIJz1ByTXi1RBAR4raNcCs1gXI"
    }
  },
  {
    "id": "57511",
    "name": "F C E COMMON ROOM",
    "registration_area_id": "3119",
    "precise_location": null,
    "abbreviation": "024",
    "units": "024",
    "delimitation": "14/10/10/024",
    "remark": "NEW PU",
    "ward_id": "3119",
    "ward_name": "EHAMUFU III",
    "local_government_id": "268",
    "local_government_name": "ISI UZO",
    "state_id": "14",
    "state_name": "ENUGU",
    "location": {
      "latitude": 6.696042100000001,
      "longitude": 7.5853337,
      "viewport": {
        "northeast": {
          "lat": 6.697684929892722,
          "lng": 7.586767729892722
        },
        "southwest": {
          "lat": 6.694985270107277,
          "lng": 7.584068070107278
        }
      },
      "formatted_address": "MHWP+C48 Opi Agu, 412104, Agudene Mbu, Nigeria",
      "google_map_url": "https://maps.google.com?q=6.696042100000001,7.5853337",
      "google_place_id": "ChIJPx7W9YvHRBARbq05o3vKuIY"
    }
  },
  {
    "id": "57512",
    "name": "ORTU  UMUEGBE CIVIC HALL",
    "registration_area_id": "3119",
    "precise_location": null,
    "abbreviation": "025",
    "units": "025",
    "delimitation": "14/10/10/025",
    "remark": "NEW PU",
    "ward_id": "3119",
    "ward_name": "EHAMUFU III",
    "local_government_id": "268",
    "local_government_name": "ISI UZO",
    "state_id": "14",
    "state_name": "ENUGU",
    "location": {
      "latitude": 6.376612600000001,
      "longitude": 7.3597835,
      "viewport": {
        "northeast": {
          "lat": 6.377906229892722,
          "lng": 7.361089629892723
        },
        "southwest": {
          "lat": 6.375206570107278,
          "lng": 7.358389970107279
        }
      },
      "formatted_address": "Km 3 Abakaliki Rd, New Haven 401122, Enugu, Nigeria",
      "google_map_url": "https://maps.google.com?q=6.376612600000001,7.3597835",
      "google_place_id": "ChIJE2oB1XKeRBARHviQ5bzaxSM"
    }
  }
]