[
  {
    "id": "96876",
    "name": "SHARIFAWA I KOFAR MAI UNGUWA",
    "registration_area_id": "4932",
    "precise_location": null,
    "abbreviation": "001",
    "units": "001",
    "delimitation": "20/10/07/001",
    "remark": "EXISTING PU",
    "ward_id": "4932",
    "ward_name": "MAZOJI B",
    "local_government_id": "423",
    "local_government_name": "DAURA",
    "state_id": "20",
    "state_name": "KATSINA",
    "location": null
  },
  {
    "id": "96877",
    "name": "SHARIFAWA II PRI.SCHOOL",
    "registration_area_id": "4932",
    "precise_location": null,
    "abbreviation": "002",
    "units": "002",
    "delimitation": "20/10/07/002",
    "remark": "EXISTING PU",
    "ward_id": "4932",
    "ward_name": "MAZOJI B",
    "local_government_id": "423",
    "local_government_name": "DAURA",
    "state_id": "20",
    "state_name": "KATSINA",
    "location": {
      "latitude": 13.0327324,
      "longitude": 8.317499,
      "viewport": {
        "northeast": {
          "lat": 13.03401487989272,
          "lng": 8.318863029892722
        },
        "southwest": {
          "lat": 13.03131522010728,
          "lng": 8.316163370107278
        }
      },
      "formatted_address": "28M8+3XX, 824101, Daura, Nigeria",
      "google_map_url": "https://maps.google.com?q=13.0327324,8.317499",
      "google_place_id": "ChIJI8dhGa-irxERv3hXRzH7GW8"
    }
  },
  {
    "id": "96878",
    "name": "DANNAKOLA A PRI. SCHOOL",
    "registration_area_id": "4932",
    "precise_location": null,
    "abbreviation": "003",
    "units": "003",
    "delimitation": "20/10/07/003",
    "remark": "EXISTING PU",
    "ward_id": "4932",
    "ward_name": "MAZOJI B",
    "local_government_id": "423",
    "local_government_name": "DAURA",
    "state_id": "20",
    "state_name": "KATSINA",
    "location": {
      "latitude": 13.0327324,
      "longitude": 8.317499,
      "viewport": {
        "northeast": {
          "lat": 13.03401487989272,
          "lng": 8.318863029892722
        },
        "southwest": {
          "lat": 13.03131522010728,
          "lng": 8.316163370107278
        }
      },
      "formatted_address": "28M8+3XX, 824101, Daura, Nigeria",
      "google_map_url": "https://maps.google.com?q=13.0327324,8.317499",
      "google_place_id": "ChIJI8dhGa-irxERv3hXRzH7GW8"
    }
  },
  {
    "id": "96879",
    "name": "DAN NAKOLA B PRI. SCHOOL",
    "registration_area_id": "4932",
    "precise_location": null,
    "abbreviation": "004",
    "units": "004",
    "delimitation": "20/10/07/004",
    "remark": "EXISTING PU",
    "ward_id": "4932",
    "ward_name": "MAZOJI B",
    "local_government_id": "423",
    "local_government_name": "DAURA",
    "state_id": "20",
    "state_name": "KATSINA",
    "location": {
      "latitude": 13.0428008,
      "longitude": 8.321089599999999,
      "viewport": {
        "northeast": {
          "lat": 13.04386322989272,
          "lng": 8.32254727989272
        },
        "southwest": {
          "lat": 13.04116357010728,
          "lng": 8.319847620107275
        }
      },
      "formatted_address": "28VC+4C8, 824101, Daura, Nigeria",
      "google_map_url": "https://maps.google.com?q=13.0428008,8.321089599999999",
      "google_place_id": "ChIJi_bxUHuZrxERIYHwCzVzdPg"
    }
  },
  {
    "id": "96880",
    "name": "DANNAKOLA KAYE KOFAR MAI GARI",
    "registration_area_id": "4932",
    "precise_location": null,
    "abbreviation": "005",
    "units": "005",
    "delimitation": "20/10/07/005",
    "remark": "EXISTING PU",
    "ward_id": "4932",
    "ward_name": "MAZOJI B",
    "local_government_id": "423",
    "local_government_name": "DAURA",
    "state_id": "20",
    "state_name": "KATSINA",
    "location": {
      "latitude": 12.9758507,
      "longitude": 8.2208811,
      "viewport": {
        "northeast": {
          "lat": 12.97720062989272,
          "lng": 8.22223087989272
        },
        "southwest": {
          "lat": 12.97450097010728,
          "lng": 8.219531220107276
        }
      },
      "formatted_address": "X6GC+89R, 824101, Katsina, Nigeria",
      "google_map_url": "https://maps.google.com?q=12.9758507,8.2208811",
      "google_place_id": "ChIJK7Ab5J--rxERWFOPejV27Ng"
    }
  },
  {
    "id": "96881",
    "name": "KAMFAWA I PRI.SCHOOL",
    "registration_area_id": "4932",
    "precise_location": null,
    "abbreviation": "006",
    "units": "006",
    "delimitation": "20/10/07/006",
    "remark": "EXISTING PU",
    "ward_id": "4932",
    "ward_name": "MAZOJI B",
    "local_government_id": "423",
    "local_government_name": "DAURA",
    "state_id": "20",
    "state_name": "KATSINA",
    "location": {
      "latitude": 13.0256089,
      "longitude": 8.332920999999999,
      "viewport": {
        "northeast": {
          "lat": 13.02693972989272,
          "lng": 8.334330129892722
        },
        "southwest": {
          "lat": 13.02424007010728,
          "lng": 8.331630470107278
        }
      },
      "formatted_address": "28GM+65V, 824101, Daura, Nigeria",
      "google_map_url": "https://maps.google.com?q=13.0256089,8.332920999999999",
      "google_place_id": "ChIJScMIrZeirxERJWsj1yMBmMQ"
    }
  },
  {
    "id": "96882",
    "name": "DANHEJI I KOFAR GIDAN MAIGARI",
    "registration_area_id": "4932",
    "precise_location": null,
    "abbreviation": "007",
    "units": "007",
    "delimitation": "20/10/07/007",
    "remark": "EXISTING PU",
    "ward_id": "4932",
    "ward_name": "MAZOJI B",
    "local_government_id": "423",
    "local_government_name": "DAURA",
    "state_id": "20",
    "state_name": "KATSINA",
    "location": {
      "latitude": 13.005362,
      "longitude": 7.673692299999999,
      "viewport": {
        "northeast": {
          "lat": 13.00673142989272,
          "lng": 7.675016829892721
        },
        "southwest": {
          "lat": 13.00403177010728,
          "lng": 7.672317170107277
        }
      },
      "formatted_address": "820101, Katsina, Nigeria",
      "google_map_url": "https://maps.google.com?q=13.005362,7.673692299999999",
      "google_place_id": "ChIJyVIaE0kjsBERQbyH_jY6Enc"
    }
  },
  {
    "id": "96883",
    "name": "KAMFAWA II CIKIN GARI",
    "registration_area_id": "4932",
    "precise_location": null,
    "abbreviation": "008",
    "units": "008",
    "delimitation": "20/10/07/008",
    "remark": "EXISTING PU",
    "ward_id": "4932",
    "ward_name": "MAZOJI B",
    "local_government_id": "423",
    "local_government_name": "DAURA",
    "state_id": "20",
    "state_name": "KATSINA",
    "location": {
      "latitude": 13.0365524,
      "longitude": 8.3235321,
      "viewport": {
        "northeast": {
          "lat": 13.03789312989272,
          "lng": 8.32484362989272
        },
        "southwest": {
          "lat": 13.03519347010728,
          "lng": 8.322143970107277
        }
      },
      "formatted_address": "opposite Sarki tafida house, 824101, Daura, Nigeria",
      "google_map_url": "https://maps.google.com?q=13.0365524,8.3235321",
      "google_place_id": "ChIJu_klEaeirxER51UVyfdCum4"
    }
  },
  {
    "id": "96884",
    "name": "SHARIFAWA / BELA GIDAN TABA",
    "registration_area_id": "4932",
    "precise_location": null,
    "abbreviation": "009",
    "units": "009",
    "delimitation": "20/10/07/009",
    "remark": "EXISTING PU",
    "ward_id": "4932",
    "ward_name": "MAZOJI B",
    "local_government_id": "423",
    "local_government_name": "DAURA",
    "state_id": "20",
    "state_name": "KATSINA",
    "location": {
      "latitude": 13.0371064,
      "longitude": 8.3120289,
      "viewport": {
        "northeast": {
          "lat": 13.03854557989272,
          "lng": 8.313377379892723
        },
        "southwest": {
          "lat": 13.03584592010728,
          "lng": 8.310677720107279
        }
      },
      "formatted_address": "Unnamed Road, 824101, Daura, Nigeria",
      "google_map_url": "https://maps.google.com?q=13.0371064,8.3120289",
      "google_place_id": "ChIJEapjcfWjrxERk1HkpyOEog0"
    }
  },
  {
    "id": "96885",
    "name": "DANHEJI PRI SCHOOL",
    "registration_area_id": "4932",
    "precise_location": null,
    "abbreviation": "010",
    "units": "010",
    "delimitation": "20/10/07/010",
    "remark": "EXISTING PU",
    "ward_id": "4932",
    "ward_name": "MAZOJI B",
    "local_government_id": "423",
    "local_government_name": "DAURA",
    "state_id": "20",
    "state_name": "KATSINA",
    "location": {
      "latitude": 13.0256089,
      "longitude": 8.332920999999999,
      "viewport": {
        "northeast": {
          "lat": 13.02693972989272,
          "lng": 8.334330129892722
        },
        "southwest": {
          "lat": 13.02424007010728,
          "lng": 8.331630470107278
        }
      },
      "formatted_address": "28GM+65V, 824101, Daura, Nigeria",
      "google_map_url": "https://maps.google.com?q=13.0256089,8.332920999999999",
      "google_place_id": "ChIJScMIrZeirxERJWsj1yMBmMQ"
    }
  },
  {
    "id": "96886",
    "name": "TV VIEWING CENTRE DANNAKOLA",
    "registration_area_id": "4932",
    "precise_location": null,
    "abbreviation": "011",
    "units": "011",
    "delimitation": "20/10/07/011",
    "remark": "NEW PU",
    "ward_id": "4932",
    "ward_name": "MAZOJI B",
    "local_government_id": "423",
    "local_government_name": "DAURA",
    "state_id": "20",
    "state_name": "KATSINA",
    "location": null
  },
  {
    "id": "96887",
    "name": "OPEN SPACE S/UNG DANHEJI",
    "registration_area_id": "4932",
    "precise_location": null,
    "abbreviation": "012",
    "units": "012",
    "delimitation": "20/10/07/012",
    "remark": "NEW PU",
    "ward_id": "4932",
    "ward_name": "MAZOJI B",
    "local_government_id": "423",
    "local_government_name": "DAURA",
    "state_id": "20",
    "state_name": "KATSINA",
    "location": {
      "latitude": 13.0317489,
      "longitude": 8.3157033,
      "viewport": {
        "northeast": {
          "lat": 13.03315997989272,
          "lng": 8.31713297989272
        },
        "southwest": {
          "lat": 13.03046032010728,
          "lng": 8.314433320107277
        }
      },
      "formatted_address": "No 2 Ungwar Kara, Daura-Katsina Road, Katsina, Nigeria",
      "google_map_url": "https://maps.google.com?q=13.0317489,8.3157033",
      "google_place_id": "ChIJ_--x4HyjrxEROl7NO5hRp1c"
    }
  }
]