[
  {
    "id": "66073",
    "name": "COMMUNITY PRIMARY SCHOOL I",
    "registration_area_id": "3616",
    "precise_location": null,
    "abbreviation": "001",
    "units": "001",
    "delimitation": "16/24/03/001",
    "remark": "EXISTING PU",
    "ward_id": "3616",
    "ward_name": "AJI",
    "local_government_id": "316",
    "local_government_name": "ORU WEST (MGBIDI)",
    "state_id": "16",
    "state_name": "IMO",
    "location": {
      "latitude": 5.7160359,
      "longitude": 6.8686627,
      "viewport": {
        "northeast": {
          "lat": 5.717674929892723,
          "lng": 6.869844929892722
        },
        "southwest": {
          "lat": 5.714975270107279,
          "lng": 6.867145270107279
        }
      },
      "formatted_address": "Oguta-Mgbidi Rd, 474104, Mgbidi, Nigeria",
      "google_map_url": "https://maps.google.com?q=5.7160359,6.8686627",
      "google_place_id": "ChIJv7Ra6HyzQxAR4r5ag-ls3S4"
    }
  },
  {
    "id": "66074",
    "name": "COMMUNITY PRIMARY SCHOOL II",
    "registration_area_id": "3616",
    "precise_location": null,
    "abbreviation": "002",
    "units": "002",
    "delimitation": "16/24/03/002",
    "remark": "EXISTING PU",
    "ward_id": "3616",
    "ward_name": "AJI",
    "local_government_id": "316",
    "local_government_name": "ORU WEST (MGBIDI)",
    "state_id": "16",
    "state_name": "IMO",
    "location": {
      "latitude": 5.7160359,
      "longitude": 6.8686627,
      "viewport": {
        "northeast": {
          "lat": 5.717674929892723,
          "lng": 6.869844929892722
        },
        "southwest": {
          "lat": 5.714975270107279,
          "lng": 6.867145270107279
        }
      },
      "formatted_address": "Oguta-Mgbidi Rd, 474104, Mgbidi, Nigeria",
      "google_map_url": "https://maps.google.com?q=5.7160359,6.8686627",
      "google_place_id": "ChIJv7Ra6HyzQxAR4r5ag-ls3S4"
    }
  },
  {
    "id": "66075",
    "name": "CENTRAL SCHOOL AJI",
    "registration_area_id": "3616",
    "precise_location": null,
    "abbreviation": "003",
    "units": "003",
    "delimitation": "16/24/03/003",
    "remark": "EXISTING PU",
    "ward_id": "3616",
    "ward_name": "AJI",
    "local_government_id": "316",
    "local_government_name": "ORU WEST (MGBIDI)",
    "state_id": "16",
    "state_name": "IMO",
    "location": {
      "latitude": 5.740935899999999,
      "longitude": 6.910180599999999,
      "viewport": {
        "northeast": {
          "lat": 5.742385879892721,
          "lng": 6.911626729892721
        },
        "southwest": {
          "lat": 5.739686220107277,
          "lng": 6.908927070107277
        }
      },
      "formatted_address": "PWR6+93F, 474108, Mgbidi, Nigeria",
      "google_map_url": "https://maps.google.com?q=5.740935899999999,6.910180599999999",
      "google_place_id": "ChIJVVVVVWWyQxARkpHLTXC_Cbw"
    }
  },
  {
    "id": "66076",
    "name": "UBAHAEZE OLD TREASURY",
    "registration_area_id": "3616",
    "precise_location": null,
    "abbreviation": "004",
    "units": "004",
    "delimitation": "16/24/03/004",
    "remark": "EXISTING PU",
    "ward_id": "3616",
    "ward_name": "AJI",
    "local_government_id": "316",
    "local_government_name": "ORU WEST (MGBIDI)",
    "state_id": "16",
    "state_name": "IMO",
    "location": {
      "latitude": 5.7274463,
      "longitude": 6.8983734,
      "viewport": {
        "northeast": {
          "lat": 5.728827579892722,
          "lng": 6.899738529892722
        },
        "southwest": {
          "lat": 5.726127920107278,
          "lng": 6.897038870107278
        }
      },
      "formatted_address": "PVGX+X8H, 474108, Mgbidi, Nigeria",
      "google_map_url": "https://maps.google.com?q=5.7274463,6.8983734",
      "google_place_id": "ChIJL4iT3PSyQxAR4pvlHX9xjkE"
    }
  },
  {
    "id": "66077",
    "name": "UBUHUMPAM VILLAGE SQUARE",
    "registration_area_id": "3616",
    "precise_location": null,
    "abbreviation": "005",
    "units": "005",
    "delimitation": "16/24/03/005",
    "remark": "EXISTING PU",
    "ward_id": "3616",
    "ward_name": "AJI",
    "local_government_id": "316",
    "local_government_name": "ORU WEST (MGBIDI)",
    "state_id": "16",
    "state_name": "IMO",
    "location": {
      "latitude": 5.7274463,
      "longitude": 6.8983734,
      "viewport": {
        "northeast": {
          "lat": 5.728827579892722,
          "lng": 6.899738529892722
        },
        "southwest": {
          "lat": 5.726127920107278,
          "lng": 6.897038870107278
        }
      },
      "formatted_address": "PVGX+X8H, 474108, Mgbidi, Nigeria",
      "google_map_url": "https://maps.google.com?q=5.7274463,6.8983734",
      "google_place_id": "ChIJL4iT3PSyQxAR4pvlHX9xjkE"
    }
  },
  {
    "id": "66078",
    "name": "AMA EZE OBIDIKE",
    "registration_area_id": "3616",
    "precise_location": null,
    "abbreviation": "006",
    "units": "006",
    "delimitation": "16/24/03/006",
    "remark": "EXISTING PU",
    "ward_id": "3616",
    "ward_name": "AJI",
    "local_government_id": "316",
    "local_government_name": "ORU WEST (MGBIDI)",
    "state_id": "16",
    "state_name": "IMO",
    "location": {
      "latitude": 5.7274463,
      "longitude": 6.8983734,
      "viewport": {
        "northeast": {
          "lat": 5.728827579892722,
          "lng": 6.899738529892722
        },
        "southwest": {
          "lat": 5.726127920107278,
          "lng": 6.897038870107278
        }
      },
      "formatted_address": "PVGX+X8H, 474108, Mgbidi, Nigeria",
      "google_map_url": "https://maps.google.com?q=5.7274463,6.8983734",
      "google_place_id": "ChIJL4iT3PSyQxAR4pvlHX9xjkE"
    }
  },
  {
    "id": "66079",
    "name": "UBAHA-NLERE AJI SQAURE",
    "registration_area_id": "3616",
    "precise_location": null,
    "abbreviation": "007",
    "units": "007",
    "delimitation": "16/24/03/007",
    "remark": "NEW PU",
    "ward_id": "3616",
    "ward_name": "AJI",
    "local_government_id": "316",
    "local_government_name": "ORU WEST (MGBIDI)",
    "state_id": "16",
    "state_name": "IMO",
    "location": {
      "latitude": 5.7274463,
      "longitude": 6.8983734,
      "viewport": {
        "northeast": {
          "lat": 5.728827579892722,
          "lng": 6.899738529892722
        },
        "southwest": {
          "lat": 5.726127920107278,
          "lng": 6.897038870107278
        }
      },
      "formatted_address": "PVGX+X8H, 474108, Mgbidi, Nigeria",
      "google_map_url": "https://maps.google.com?q=5.7274463,6.8983734",
      "google_place_id": "ChIJL4iT3PSyQxAR4pvlHX9xjkE"
    }
  }
]