[
  {
    "id": "38524",
    "name": "SECONDARY SCHOOL, CREEK TOWN",
    "registration_area_id": "2119",
    "precise_location": null,
    "abbreviation": "001",
    "units": "001",
    "delimitation": "09/15/03/001",
    "remark": "EXISTING PU",
    "ward_id": "2119",
    "ward_name": "CREEK TOWN I",
    "local_government_id": "183",
    "local_government_name": "ODUKPANI",
    "state_id": "9",
    "state_name": "CROSS RIVER",
    "location": {
      "latitude": 4.9876588,
      "longitude": 8.274577299999999,
      "viewport": {
        "northeast": {
          "lat": 4.989128979892722,
          "lng": 8.275948279892724
        },
        "southwest": {
          "lat": 4.986429320107278,
          "lng": 8.27324862010728
        }
      },
      "formatted_address": "X7QF+3R8, 541106, Creek Town, Nigeria",
      "google_map_url": "https://maps.google.com?q=4.9876588,8.274577299999999",
      "google_place_id": "ChIJ0bqJwjeIZxARN9ow6ySOCaM"
    }
  },
  {
    "id": "38525",
    "name": "PRIMARY SCHOOL, CREEK TOWN",
    "registration_area_id": "2119",
    "precise_location": null,
    "abbreviation": "002",
    "units": "002",
    "delimitation": "09/15/03/002",
    "remark": "EXISTING PU",
    "ward_id": "2119",
    "ward_name": "CREEK TOWN I",
    "local_government_id": "183",
    "local_government_name": "ODUKPANI",
    "state_id": "9",
    "state_name": "CROSS RIVER",
    "location": null
  },
  {
    "id": "38526",
    "name": "PRIMARY SCHOOL, UKIM ITA",
    "registration_area_id": "2119",
    "precise_location": null,
    "abbreviation": "003",
    "units": "003",
    "delimitation": "09/15/03/003",
    "remark": "EXISTING PU",
    "ward_id": "2119",
    "ward_name": "CREEK TOWN I",
    "local_government_id": "183",
    "local_government_name": "ODUKPANI",
    "state_id": "9",
    "state_name": "CROSS RIVER",
    "location": {
      "latitude": 5.071067,
      "longitude": 8.252542300000002,
      "viewport": {
        "northeast": {
          "lat": 5.072329329892722,
          "lng": 8.253882429892721
        },
        "southwest": {
          "lat": 5.069629670107278,
          "lng": 8.251182770107278
        }
      },
      "formatted_address": "37C3+C2F, 541106, Adiabo Ikot Ukpa, Nigeria",
      "google_map_url": "https://maps.google.com?q=5.071067,8.252542300000002",
      "google_place_id": "ChIJz4L8vpdjXRARTI0agR89qXM"
    }
  },
  {
    "id": "38527",
    "name": "VILLAGE SQUARE, UKIM ITA",
    "registration_area_id": "2119",
    "precise_location": null,
    "abbreviation": "004",
    "units": "004",
    "delimitation": "09/15/03/004",
    "remark": "EXISTING PU",
    "ward_id": "2119",
    "ward_name": "CREEK TOWN I",
    "local_government_id": "183",
    "local_government_name": "ODUKPANI",
    "state_id": "9",
    "state_name": "CROSS RIVER",
    "location": {
      "latitude": 5.0141249,
      "longitude": 7.945652600000001,
      "viewport": {
        "northeast": {
          "lat": 5.015419629892722,
          "lng": 7.946902129892721
        },
        "southwest": {
          "lat": 5.012719970107278,
          "lng": 7.944202470107277
        }
      },
      "formatted_address": "Plot 69, Unit C, Ewet Housing Estate, Uyo, Nigeria",
      "google_map_url": "https://maps.google.com?q=5.0141249,7.945652600000001",
      "google_place_id": "ChIJh0ZLiCdXXRARcNphfkqfCB8"
    }
  },
  {
    "id": "38528",
    "name": "PRIMARY SCHOOL, USEKU",
    "registration_area_id": "2119",
    "precise_location": null,
    "abbreviation": "005",
    "units": "005",
    "delimitation": "09/15/03/005",
    "remark": "EXISTING PU",
    "ward_id": "2119",
    "ward_name": "CREEK TOWN I",
    "local_government_id": "183",
    "local_government_name": "ODUKPANI",
    "state_id": "9",
    "state_name": "CROSS RIVER",
    "location": {
      "latitude": 5.0812193,
      "longitude": 8.349859,
      "viewport": {
        "northeast": {
          "lat": 5.082558679892721,
          "lng": 8.35108957989272
        },
        "southwest": {
          "lat": 5.079859020107278,
          "lng": 8.348389920107277
        }
      },
      "formatted_address": "Local Government Council, 100001, Odukpani, Nigeria",
      "google_map_url": "https://maps.google.com?q=5.0812193,8.349859",
      "google_place_id": "ChIJ9456yUd9XRARHr8N57aVTGY"
    }
  },
  {
    "id": "38529",
    "name": "PRIMARY SCHOOL, FIVE TOWNS",
    "registration_area_id": "2119",
    "precise_location": null,
    "abbreviation": "006",
    "units": "006",
    "delimitation": "09/15/03/006",
    "remark": "EXISTING PU",
    "ward_id": "2119",
    "ward_name": "CREEK TOWN I",
    "local_government_id": "183",
    "local_government_name": "ODUKPANI",
    "state_id": "9",
    "state_name": "CROSS RIVER",
    "location": {
      "latitude": 5.0812193,
      "longitude": 8.349859,
      "viewport": {
        "northeast": {
          "lat": 5.082558679892721,
          "lng": 8.35108957989272
        },
        "southwest": {
          "lat": 5.079859020107278,
          "lng": 8.348389920107277
        }
      },
      "formatted_address": "Local Government Council, 100001, Odukpani, Nigeria",
      "google_map_url": "https://maps.google.com?q=5.0812193,8.349859",
      "google_place_id": "ChIJ9456yUd9XRARHr8N57aVTGY"
    }
  },
  {
    "id": "38530",
    "name": "PRIMARY SCHOOL, IKOT ESU",
    "registration_area_id": "2119",
    "precise_location": null,
    "abbreviation": "007",
    "units": "007",
    "delimitation": "09/15/03/007",
    "remark": "EXISTING PU",
    "ward_id": "2119",
    "ward_name": "CREEK TOWN I",
    "local_government_id": "183",
    "local_government_name": "ODUKPANI",
    "state_id": "9",
    "state_name": "CROSS RIVER",
    "location": {
      "latitude": 5.0186772,
      "longitude": 8.2251053,
      "viewport": {
        "northeast": {
          "lat": 5.020012879892722,
          "lng": 8.226467579892722
        },
        "southwest": {
          "lat": 5.017313220107278,
          "lng": 8.223767920107278
        }
      },
      "formatted_address": "269G+F2H, 541106, Ikot Obong Eno, Nigeria",
      "google_map_url": "https://maps.google.com?q=5.0186772,8.2251053",
      "google_place_id": "ChIJjULlyxxiXRAR-6_gejhV9m0"
    }
  },
  {
    "id": "38531",
    "name": "PRIMARY SCHOOL, ESINE UFOT",
    "registration_area_id": "2119",
    "precise_location": null,
    "abbreviation": "008",
    "units": "008",
    "delimitation": "09/15/03/008",
    "remark": "EXISTING PU",
    "ward_id": "2119",
    "ward_name": "CREEK TOWN I",
    "local_government_id": "183",
    "local_government_name": "ODUKPANI",
    "state_id": "9",
    "state_name": "CROSS RIVER",
    "location": {
      "latitude": 5.0812193,
      "longitude": 8.349859,
      "viewport": {
        "northeast": {
          "lat": 5.082558679892721,
          "lng": 8.35108957989272
        },
        "southwest": {
          "lat": 5.079859020107278,
          "lng": 8.348389920107277
        }
      },
      "formatted_address": "Local Government Council, 100001, Odukpani, Nigeria",
      "google_map_url": "https://maps.google.com?q=5.0812193,8.349859",
      "google_place_id": "ChIJ9456yUd9XRARHr8N57aVTGY"
    }
  },
  {
    "id": "38532",
    "name": "VILLAGE SQUARE, ESINE UFOT",
    "registration_area_id": "2119",
    "precise_location": null,
    "abbreviation": "009",
    "units": "009",
    "delimitation": "09/15/03/009",
    "remark": "EXISTING PU",
    "ward_id": "2119",
    "ward_name": "CREEK TOWN I",
    "local_government_id": "183",
    "local_government_name": "ODUKPANI",
    "state_id": "9",
    "state_name": "CROSS RIVER",
    "location": {
      "latitude": 5.0812193,
      "longitude": 8.349859,
      "viewport": {
        "northeast": {
          "lat": 5.082558679892721,
          "lng": 8.35108957989272
        },
        "southwest": {
          "lat": 5.079859020107278,
          "lng": 8.348389920107277
        }
      },
      "formatted_address": "Local Government Council, 100001, Odukpani, Nigeria",
      "google_map_url": "https://maps.google.com?q=5.0812193,8.349859",
      "google_place_id": "ChIJ9456yUd9XRARHr8N57aVTGY"
    }
  },
  {
    "id": "38533",
    "name": "PRIMARY SCHOOL, EFUT IFAKO",
    "registration_area_id": "2119",
    "precise_location": null,
    "abbreviation": "010",
    "units": "010",
    "delimitation": "09/15/03/010",
    "remark": "EXISTING PU",
    "ward_id": "2119",
    "ward_name": "CREEK TOWN I",
    "local_government_id": "183",
    "local_government_name": "ODUKPANI",
    "state_id": "9",
    "state_name": "CROSS RIVER",
    "location": {
      "latitude": 5.015648,
      "longitude": 8.2589695,
      "viewport": {
        "northeast": {
          "lat": 5.017131179892722,
          "lng": 8.260402879892723
        },
        "southwest": {
          "lat": 5.014431520107278,
          "lng": 8.25770322010728
        }
      },
      "formatted_address": "2785+7H5, 541106, Creek Town, Nigeria",
      "google_map_url": "https://maps.google.com?q=5.015648,8.2589695",
      "google_place_id": "ChIJCfDreXtiXRARPOBDst-2hDo"
    }
  },
  {
    "id": "38534",
    "name": "PLAY GROUND, MBOMBORI",
    "registration_area_id": "2119",
    "precise_location": null,
    "abbreviation": "011",
    "units": "011",
    "delimitation": "09/15/03/011",
    "remark": "EXISTING PU",
    "ward_id": "2119",
    "ward_name": "CREEK TOWN I",
    "local_government_id": "183",
    "local_government_name": "ODUKPANI",
    "state_id": "9",
    "state_name": "CROSS RIVER",
    "location": {
      "latitude": 5.184201799999999,
      "longitude": 8.2524785,
      "viewport": {
        "northeast": {
          "lat": 5.185525229892722,
          "lng": 8.253840979892722
        },
        "southwest": {
          "lat": 5.182825570107278,
          "lng": 8.251141320107278
        }
      },
      "formatted_address": "57M2+MXQ, 541101, Njahasang, Nigeria",
      "google_map_url": "https://maps.google.com?q=5.184201799999999,8.2524785",
      "google_place_id": "ChIJl5kTlG9vXRARq-XwZtVrvg4"
    }
  }
]