[
  {
    "id": "350609",
    "name": "ST. JOHN PRY. SCHOOL  'A'",
    "registration_area_id": "17888",
    "precise_location": null,
    "abbreviation": "001",
    "units": "001",
    "delimitation": "29/18/07/001",
    "remark": "EXISTING PU",
    "ward_id": "17888",
    "ward_name": "ILORO/ROYE",
    "local_government_id": "616",
    "local_government_name": "ILESA EAST",
    "state_id": "29",
    "state_name": "OSUN",
    "location": {
      "latitude": 7.6225555,
      "longitude": 4.749143699999999,
      "viewport": {
        "northeast": {
          "lat": 7.62380282989272,
          "lng": 4.750509279892722
        },
        "southwest": {
          "lat": 7.621103170107276,
          "lng": 4.747809620107278
        }
      },
      "formatted_address": "JPFX+2MJ, Akure Rd, 233111, Ilesa, Nigeria",
      "google_map_url": "https://maps.google.com?q=7.6225555,4.749143699999999",
      "google_place_id": "ChIJmwq41vMZOBARSR7u0DhzuWY"
    }
  },
  {
    "id": "350610",
    "name": "LORIOMO ODUNDUN",
    "registration_area_id": "17888",
    "precise_location": null,
    "abbreviation": "002",
    "units": "002",
    "delimitation": "29/18/07/002",
    "remark": "EXISTING PU",
    "ward_id": "17888",
    "ward_name": "ILORO/ROYE",
    "local_government_id": "616",
    "local_government_name": "ILESA EAST",
    "state_id": "29",
    "state_name": "OSUN",
    "location": {
      "latitude": 7.621914399999999,
      "longitude": 4.7506561,
      "viewport": {
        "northeast": {
          "lat": 7.623255679892722,
          "lng": 4.752006129892721
        },
        "southwest": {
          "lat": 7.620556020107278,
          "lng": 4.749306470107277
        }
      },
      "formatted_address": "Br 2, Iloro Street, Ilesa, Nigeria",
      "google_map_url": "https://maps.google.com?q=7.621914399999999,4.7506561",
      "google_place_id": "ChIJu-Vgtl0YOBARoti0TcNlL1o"
    }
  },
  {
    "id": "350611",
    "name": "IDIO AREA",
    "registration_area_id": "17888",
    "precise_location": null,
    "abbreviation": "003",
    "units": "003",
    "delimitation": "29/18/07/003",
    "remark": "EXISTING PU",
    "ward_id": "17888",
    "ward_name": "ILORO/ROYE",
    "local_government_id": "616",
    "local_government_name": "ILESA EAST",
    "state_id": "29",
    "state_name": "OSUN",
    "location": {
      "latitude": 7.616639499999999,
      "longitude": 4.7333871,
      "viewport": {
        "northeast": {
          "lat": 7.617982679892722,
          "lng": 4.734680979892722
        },
        "southwest": {
          "lat": 7.615283020107278,
          "lng": 4.731981320107277
        }
      },
      "formatted_address": "Ogbon Idio Street, Round About Area, Ilesa, Nigeria",
      "google_map_url": "https://maps.google.com?q=7.616639499999999,4.7333871",
      "google_place_id": "ChIJoVwZIxcZOBARjlpLXHBXjJc"
    }
  },
  {
    "id": "350612",
    "name": "LORIOMO ANAYE",
    "registration_area_id": "17888",
    "precise_location": null,
    "abbreviation": "004",
    "units": "004",
    "delimitation": "29/18/07/004",
    "remark": "EXISTING PU",
    "ward_id": "17888",
    "ward_name": "ILORO/ROYE",
    "local_government_id": "616",
    "local_government_name": "ILESA EAST",
    "state_id": "29",
    "state_name": "OSUN",
    "location": {
      "latitude": 7.666077599999999,
      "longitude": 4.7470501,
      "viewport": {
        "northeast": {
          "lat": 7.667522229892722,
          "lng": 4.748374279892722
        },
        "southwest": {
          "lat": 7.664822570107278,
          "lng": 4.745674620107279
        }
      },
      "formatted_address": "LOCAL GOVERNMENT, ZONE ONE B5 OLOWOGBOWO COMMUNITY SAWMILL ALFA IBALA RD ILESA OSUN STATE LORIOMO LINE, 133001, Ilesa, Nigeria",
      "google_map_url": "https://maps.google.com?q=7.666077599999999,4.7470501",
      "google_place_id": "ChIJh5A6_X4ZOBARNiDt6tqUGyU"
    }
  },
  {
    "id": "350613",
    "name": "DUROJAYE  MATERNITY",
    "registration_area_id": "17888",
    "precise_location": null,
    "abbreviation": "005",
    "units": "005",
    "delimitation": "29/18/07/005",
    "remark": "EXISTING PU",
    "ward_id": "17888",
    "ward_name": "ILORO/ROYE",
    "local_government_id": "616",
    "local_government_name": "ILESA EAST",
    "state_id": "29",
    "state_name": "OSUN",
    "location": {
      "latitude": 7.633604000000001,
      "longitude": 4.7279309,
      "viewport": {
        "northeast": {
          "lat": 7.635014129892723,
          "lng": 4.729324579892721
        },
        "southwest": {
          "lat": 7.632314470107278,
          "lng": 4.726624920107278
        }
      },
      "formatted_address": "JPMH+C5V, Oja Aba 233285, Ilesa, Nigeria",
      "google_map_url": "https://maps.google.com?q=7.633604000000001,4.7279309",
      "google_place_id": "ChIJYXHC_oEYOBAR-fEYKGFXols"
    }
  },
  {
    "id": "350614",
    "name": "IROYE STREET  I",
    "registration_area_id": "17888",
    "precise_location": null,
    "abbreviation": "006",
    "units": "006",
    "delimitation": "29/18/07/006",
    "remark": "EXISTING PU",
    "ward_id": "17888",
    "ward_name": "ILORO/ROYE",
    "local_government_id": "616",
    "local_government_name": "ILESA EAST",
    "state_id": "29",
    "state_name": "OSUN",
    "location": {
      "latitude": 7.625420699999999,
      "longitude": 4.7532339,
      "viewport": {
        "northeast": {
          "lat": 7.62670042989272,
          "lng": 4.7555422
        },
        "southwest": {
          "lat": 7.624000770107276,
          "lng": 4.750874599999999
        }
      },
      "formatted_address": "Iroye Street, 233285, Ilerin, Nigeria",
      "google_map_url": "https://maps.google.com?q=7.625420699999999,4.7532339",
      "google_place_id": "EiVJcm95ZSBTdHJlZXQsIDIzMzI4NSwgSWxlcmluLCBOaWdlcmlhIi4qLAoUChIJt6rh0V4YOBARjSmAEGyOylcSFAoSCVmuDuVGGDgQETUAmE6enRfP"
    }
  },
  {
    "id": "350615",
    "name": "IROYE STREET II",
    "registration_area_id": "17888",
    "precise_location": null,
    "abbreviation": "007",
    "units": "007",
    "delimitation": "29/18/07/007",
    "remark": "EXISTING PU",
    "ward_id": "17888",
    "ward_name": "ILORO/ROYE",
    "local_government_id": "616",
    "local_government_name": "ILESA EAST",
    "state_id": "29",
    "state_name": "OSUN",
    "location": {
      "latitude": 7.622074599999999,
      "longitude": 4.7497457,
      "viewport": {
        "northeast": {
          "lat": 7.628386599999999,
          "lng": 4.761468499999999
        },
        "southwest": {
          "lat": 7.6153945,
          "lng": 4.7447488
        }
      },
      "formatted_address": "Iloro/Roye, Nigeria",
      "google_map_url": "https://maps.google.com?q=7.622074599999999,4.7497457",
      "google_place_id": "ChIJHyf6clwYOBARXemQjXMemZA"
    }
  },
  {
    "id": "350616",
    "name": "IDIFI OPEN SPACE",
    "registration_area_id": "17888",
    "precise_location": null,
    "abbreviation": "008",
    "units": "008",
    "delimitation": "29/18/07/008",
    "remark": "EXISTING PU",
    "ward_id": "17888",
    "ward_name": "ILORO/ROYE",
    "local_government_id": "616",
    "local_government_name": "ILESA EAST",
    "state_id": "29",
    "state_name": "OSUN",
    "location": {
      "latitude": 7.621914399999999,
      "longitude": 4.7506561,
      "viewport": {
        "northeast": {
          "lat": 7.623255679892722,
          "lng": 4.752006129892721
        },
        "southwest": {
          "lat": 7.620556020107278,
          "lng": 4.749306470107277
        }
      },
      "formatted_address": "Br 2, Iloro Street, Ilesa, Nigeria",
      "google_map_url": "https://maps.google.com?q=7.621914399999999,4.7506561",
      "google_place_id": "ChIJu-Vgtl0YOBARoti0TcNlL1o"
    }
  },
  {
    "id": "350617",
    "name": "OPEN SPACE AT OGEDENGBE HALL, ANAYE STREET",
    "registration_area_id": "17888",
    "precise_location": null,
    "abbreviation": "009",
    "units": "009",
    "delimitation": "29/18/07/009",
    "remark": "NEW PU",
    "ward_id": "17888",
    "ward_name": "ILORO/ROYE",
    "local_government_id": "616",
    "local_government_name": "ILESA EAST",
    "state_id": "29",
    "state_name": "OSUN",
    "location": {
      "latitude": 7.6444493,
      "longitude": 4.7373784,
      "viewport": {
        "northeast": {
          "lat": 7.645812379892722,
          "lng": 4.738706179892723
        },
        "southwest": {
          "lat": 7.643112720107278,
          "lng": 4.736006520107279
        }
      },
      "formatted_address": "JPVP+QXC, Ilaje street, Oja Aba 233285, Ilesa, Nigeria",
      "google_map_url": "https://maps.google.com?q=7.6444493,4.7373784",
      "google_place_id": "ChIJHVUYe5MZOBARZTOZUA_x37M"
    }
  },
  {
    "id": "350618",
    "name": "OPEN SPACE INFRONT OF PRY HEALTH CENTRE, ANAYE",
    "registration_area_id": "17888",
    "precise_location": null,
    "abbreviation": "010",
    "units": "010",
    "delimitation": "29/18/07/010",
    "remark": "NEW PU",
    "ward_id": "17888",
    "ward_name": "ILORO/ROYE",
    "local_government_id": "616",
    "local_government_name": "ILESA EAST",
    "state_id": "29",
    "state_name": "OSUN",
    "location": {
      "latitude": 7.637349299999999,
      "longitude": 4.742802699999999,
      "viewport": {
        "northeast": {
          "lat": 7.638813229892722,
          "lng": 4.744120079892721
        },
        "southwest": {
          "lat": 7.636113570107278,
          "lng": 4.741420420107278
        }
      },
      "formatted_address": "JPPV+W4M, 233285, Ilesa, Nigeria",
      "google_map_url": "https://maps.google.com?q=7.637349299999999,4.742802699999999",
      "google_place_id": "ChIJwwN_fI4YOBARFhqOrkHvA44"
    }
  }
]