[
  {
    "id": "53047",
    "name": "AYEGUNLE ST. / AYEGUNLE",
    "registration_area_id": "2821",
    "precise_location": null,
    "abbreviation": "001",
    "units": "001",
    "delimitation": "13/03/01/001",
    "remark": "EXISTING PU",
    "ward_id": "2821",
    "ward_name": "OMUO - OKE  I",
    "local_government_id": "245",
    "local_government_name": "EKITI EAST",
    "state_id": "13",
    "state_name": "EKITI",
    "location": {
      "latitude": 7.7155163,
      "longitude": 5.7792841,
      "viewport": {
        "northeast": {
          "lat": 7.716975829892721,
          "lng": 5.780678629892722
        },
        "southwest": {
          "lat": 7.714276170107278,
          "lng": 5.777978970107278
        }
      },
      "formatted_address": "PQ8H+5PR, Araromi Igbesi / Ahan Ayegunle, Igasi-Akoko, Nigeria",
      "google_map_url": "https://maps.google.com?q=7.7155163,5.7792841",
      "google_place_id": "ChIJu0003uorRhAR1eScmb873KI"
    }
  },
  {
    "id": "53048",
    "name": "ARAGBA ST. / OKELEBOJO / ILEBOJO  I",
    "registration_area_id": "2821",
    "precise_location": null,
    "abbreviation": "002",
    "units": "002",
    "delimitation": "13/03/01/002",
    "remark": "EXISTING PU",
    "ward_id": "2821",
    "ward_name": "OMUO - OKE  I",
    "local_government_id": "245",
    "local_government_name": "EKITI EAST",
    "state_id": "13",
    "state_name": "EKITI",
    "location": {
      "latitude": 7.753151900000001,
      "longitude": 5.7289948,
      "viewport": {
        "northeast": {
          "lat": 7.75645,
          "lng": 5.7348781
        },
        "southwest": {
          "lat": 7.750954,
          "lng": 5.7251789
        }
      },
      "formatted_address": "362221, Omuo, Nigeria",
      "google_map_url": "https://maps.google.com?q=7.753151900000001,5.7289948",
      "google_place_id": "ChIJBfpWF_l_SBAR5WFGso5wYpI"
    }
  },
  {
    "id": "53049",
    "name": "ARAGBA ST. / OKELEBOJO / ILEBOJO   II",
    "registration_area_id": "2821",
    "precise_location": null,
    "abbreviation": "003",
    "units": "003",
    "delimitation": "13/03/01/003",
    "remark": "EXISTING PU",
    "ward_id": "2821",
    "ward_name": "OMUO - OKE  I",
    "local_government_id": "245",
    "local_government_name": "EKITI EAST",
    "state_id": "13",
    "state_name": "EKITI",
    "location": {
      "latitude": 7.753151900000001,
      "longitude": 5.7289948,
      "viewport": {
        "northeast": {
          "lat": 7.75645,
          "lng": 5.7348781
        },
        "southwest": {
          "lat": 7.750954,
          "lng": 5.7251789
        }
      },
      "formatted_address": "362221, Omuo, Nigeria",
      "google_map_url": "https://maps.google.com?q=7.753151900000001,5.7289948",
      "google_place_id": "ChIJBfpWF_l_SBAR5WFGso5wYpI"
    }
  },
  {
    "id": "53050",
    "name": "BESIDE ST. / OKELEBOJO / ARAGBA ODOLEBOJO",
    "registration_area_id": "2821",
    "precise_location": null,
    "abbreviation": "004",
    "units": "004",
    "delimitation": "13/03/01/004",
    "remark": "EXISTING PU",
    "ward_id": "2821",
    "ward_name": "OMUO - OKE  I",
    "local_government_id": "245",
    "local_government_name": "EKITI EAST",
    "state_id": "13",
    "state_name": "EKITI",
    "location": {
      "latitude": 7.775030600000001,
      "longitude": 5.7365642,
      "viewport": {
        "northeast": {
          "lat": 7.786432999999999,
          "lng": 5.752658299999999
        },
        "southwest": {
          "lat": 7.763396800000001,
          "lng": 5.7286242
        }
      },
      "formatted_address": "Omuo-Oke I, 362221, Nigeria",
      "google_map_url": "https://maps.google.com?q=7.775030600000001,5.7365642",
      "google_place_id": "ChIJVxeaH26ASBARMnZoKkLfVTo"
    }
  },
  {
    "id": "53051",
    "name": "A. U. D. PRY. SCH. / OKE ARE / EBIDORE",
    "registration_area_id": "2821",
    "precise_location": null,
    "abbreviation": "005",
    "units": "005",
    "delimitation": "13/03/01/005",
    "remark": "EXISTING PU",
    "ward_id": "2821",
    "ward_name": "OMUO - OKE  I",
    "local_government_id": "245",
    "local_government_name": "EKITI EAST",
    "state_id": "13",
    "state_name": "EKITI",
    "location": null
  },
  {
    "id": "53052",
    "name": "OKE AFIN S. / OKE AFIN",
    "registration_area_id": "2821",
    "precise_location": null,
    "abbreviation": "006",
    "units": "006",
    "delimitation": "13/03/01/006",
    "remark": "EXISTING PU",
    "ward_id": "2821",
    "ward_name": "OMUO - OKE  I",
    "local_government_id": "245",
    "local_government_name": "EKITI EAST",
    "state_id": "13",
    "state_name": "EKITI",
    "location": {
      "latitude": 7.775030600000001,
      "longitude": 5.7365642,
      "viewport": {
        "northeast": {
          "lat": 7.786432999999999,
          "lng": 5.752658299999999
        },
        "southwest": {
          "lat": 7.763396800000001,
          "lng": 5.7286242
        }
      },
      "formatted_address": "Omuo-Oke I, 362221, Nigeria",
      "google_map_url": "https://maps.google.com?q=7.775030600000001,5.7365642",
      "google_place_id": "ChIJVxeaH26ASBARMnZoKkLfVTo"
    }
  },
  {
    "id": "53053",
    "name": "EMOBA HALL / OKE AFIN",
    "registration_area_id": "2821",
    "precise_location": null,
    "abbreviation": "007",
    "units": "007",
    "delimitation": "13/03/01/007",
    "remark": "EXISTING PU",
    "ward_id": "2821",
    "ward_name": "OMUO - OKE  I",
    "local_government_id": "245",
    "local_government_name": "EKITI EAST",
    "state_id": "13",
    "state_name": "EKITI",
    "location": {
      "latitude": 7.603643099999998,
      "longitude": 5.104449,
      "viewport": {
        "northeast": {
          "lat": 7.605001779892722,
          "lng": 5.105843229892722
        },
        "southwest": {
          "lat": 7.602302120107278,
          "lng": 5.103143570107278
        }
      },
      "formatted_address": "Oke Emo Hall, Ilawe Ekiti, Nigeria",
      "google_map_url": "https://maps.google.com?q=7.603643099999998,5.104449",
      "google_place_id": "ChIJAyAMoKj5RxAR6VzfM7P3Gvg"
    }
  },
  {
    "id": "53054",
    "name": "SURULERE ST. / OKEBOLA / SURULERE",
    "registration_area_id": "2821",
    "precise_location": null,
    "abbreviation": "008",
    "units": "008",
    "delimitation": "13/03/01/008",
    "remark": "EXISTING PU",
    "ward_id": "2821",
    "ward_name": "OMUO - OKE  I",
    "local_government_id": "245",
    "local_government_name": "EKITI EAST",
    "state_id": "13",
    "state_name": "EKITI",
    "location": {
      "latitude": 7.745553,
      "longitude": 5.717355,
      "viewport": {
        "northeast": {
          "lat": 7.746952679892721,
          "lng": 5.718935129892722
        },
        "southwest": {
          "lat": 7.744253020107277,
          "lng": 5.716235470107279
        }
      },
      "formatted_address": "PPW8+6WH, 362221, Omuo, Nigeria",
      "google_map_url": "https://maps.google.com?q=7.745553,5.717355",
      "google_place_id": "ChIJfRaIZ1jVRxARzAMoLWKb0ck"
    }
  },
  {
    "id": "53055",
    "name": "OPEN SPACE NEAR YEYE EWI'S HOUSE, AYEGUNLE",
    "registration_area_id": "2821",
    "precise_location": null,
    "abbreviation": "009",
    "units": "009",
    "delimitation": "13/03/01/009",
    "remark": "NEW PU",
    "ward_id": "2821",
    "ward_name": "OMUO - OKE  I",
    "local_government_id": "245",
    "local_government_name": "EKITI EAST",
    "state_id": "13",
    "state_name": "EKITI",
    "location": {
      "latitude": 7.7613124,
      "longitude": 5.7543978,
      "viewport": {
        "northeast": {
          "lat": 7.76268527989272,
          "lng": 5.755767129892722
        },
        "southwest": {
          "lat": 7.759985620107276,
          "lng": 5.753067470107278
        }
      },
      "formatted_address": "QQ63+GQC, 362221, Omuo-Oke, Nigeria",
      "google_map_url": "https://maps.google.com?q=7.7613124,5.7543978",
      "google_place_id": "ChIJgUL8-4eBSBARfxJg4au4nRA"
    }
  },
  {
    "id": "53056",
    "name": "OPEN SPACE AT IDI MANGO BUS STOP",
    "registration_area_id": "2821",
    "precise_location": null,
    "abbreviation": "010",
    "units": "010",
    "delimitation": "13/03/01/010",
    "remark": "NEW PU",
    "ward_id": "2821",
    "ward_name": "OMUO - OKE  I",
    "local_government_id": "245",
    "local_government_name": "EKITI EAST",
    "state_id": "13",
    "state_name": "EKITI",
    "location": {
      "latitude": 7.770023499999999,
      "longitude": 5.7213468,
      "viewport": {
        "northeast": {
          "lat": 7.77137542989272,
          "lng": 5.722602929892721
        },
        "southwest": {
          "lat": 7.768675770107277,
          "lng": 5.719903270107277
        }
      },
      "formatted_address": "KLM 1, IKOLE - OMUO EXPRESS WAY, ISAYA, Nigeria",
      "google_map_url": "https://maps.google.com?q=7.770023499999999,5.7213468",
      "google_place_id": "ChIJPfQsiR9_SBARoxL3TuqLTGw"
    }
  }
]