[
  {
    "id": "84517",
    "name": "BALLEN BOYI",
    "registration_area_id": "4383",
    "precise_location": null,
    "abbreviation": "001",
    "units": "001",
    "delimitation": "19/04/09/001",
    "remark": "EXISTING PU",
    "ward_id": "4383",
    "ward_name": "KUKI",
    "local_government_id": "373",
    "local_government_name": "BEBEJI",
    "state_id": "19",
    "state_name": "KANO",
    "location": null
  },
  {
    "id": "84518",
    "name": "BALLEN SARKI",
    "registration_area_id": "4383",
    "precise_location": null,
    "abbreviation": "002",
    "units": "002",
    "delimitation": "19/04/09/002",
    "remark": "EXISTING PU",
    "ward_id": "4383",
    "ward_name": "KUKI",
    "local_government_id": "373",
    "local_government_name": "BEBEJI",
    "state_id": "19",
    "state_name": "KANO",
    "location": {
      "latitude": 12.0068579,
      "longitude": 8.523871600000001,
      "viewport": {
        "northeast": {
          "lat": 12.00812397989272,
          "lng": 8.525340379892723
        },
        "southwest": {
          "lat": 12.00542432010728,
          "lng": 8.52264072010728
        }
      },
      "formatted_address": "Flat K Waika Waje Kano, Nigeria",
      "google_map_url": "https://maps.google.com?q=12.0068579,8.523871600000001",
      "google_place_id": "ChIJMZHKnBeBrhERNCo6LF6_Y-k"
    }
  },
  {
    "id": "84519",
    "name": "KADONO",
    "registration_area_id": "4383",
    "precise_location": null,
    "abbreviation": "003",
    "units": "003",
    "delimitation": "19/04/09/003",
    "remark": "EXISTING PU",
    "ward_id": "4383",
    "ward_name": "KUKI",
    "local_government_id": "373",
    "local_government_name": "BEBEJI",
    "state_id": "19",
    "state_name": "KANO",
    "location": {
      "latitude": 12.0068579,
      "longitude": 8.523871600000001,
      "viewport": {
        "northeast": {
          "lat": 12.00812397989272,
          "lng": 8.525340379892723
        },
        "southwest": {
          "lat": 12.00542432010728,
          "lng": 8.52264072010728
        }
      },
      "formatted_address": "Flat K Waika Waje Kano, Nigeria",
      "google_map_url": "https://maps.google.com?q=12.0068579,8.523871600000001",
      "google_place_id": "ChIJMZHKnBeBrhERNCo6LF6_Y-k"
    }
  },
  {
    "id": "84520",
    "name": "KARGO",
    "registration_area_id": "4383",
    "precise_location": null,
    "abbreviation": "004",
    "units": "004",
    "delimitation": "19/04/09/004",
    "remark": "EXISTING PU",
    "ward_id": "4383",
    "ward_name": "KUKI",
    "local_government_id": "373",
    "local_government_name": "BEBEJI",
    "state_id": "19",
    "state_name": "KANO",
    "location": {
      "latitude": 11.4153325,
      "longitude": 8.3784247,
      "viewport": {
        "northeast": {
          "lat": 11.41666582989272,
          "lng": 8.379830879892722
        },
        "southwest": {
          "lat": 11.41396617010728,
          "lng": 8.377131220107279
        }
      },
      "formatted_address": "711104, Kargo, Nigeria",
      "google_map_url": "https://maps.google.com?q=11.4153325,8.3784247",
      "google_place_id": "ChIJWe82POaxrRER2EXQ2xfob7M"
    }
  },
  {
    "id": "84521",
    "name": "KWANAR MALAM TUKUR",
    "registration_area_id": "4383",
    "precise_location": null,
    "abbreviation": "005",
    "units": "005",
    "delimitation": "19/04/09/005",
    "remark": "EXISTING PU",
    "ward_id": "4383",
    "ward_name": "KUKI",
    "local_government_id": "373",
    "local_government_name": "BEBEJI",
    "state_id": "19",
    "state_name": "KANO",
    "location": null
  },
  {
    "id": "84522",
    "name": "KUKI",
    "registration_area_id": "4383",
    "precise_location": null,
    "abbreviation": "006",
    "units": "006",
    "delimitation": "19/04/09/006",
    "remark": "EXISTING PU",
    "ward_id": "4383",
    "ward_name": "KUKI",
    "local_government_id": "373",
    "local_government_name": "BEBEJI",
    "state_id": "19",
    "state_name": "KANO",
    "location": {
      "latitude": 11.4352065,
      "longitude": 8.350773,
      "viewport": {
        "northeast": {
          "lat": 11.437035,
          "lng": 8.3527039
        },
        "southwest": {
          "lat": 11.4329909,
          "lng": 8.349449
        }
      },
      "formatted_address": "711104, Kuki, Nigeria",
      "google_map_url": "https://maps.google.com?q=11.4352065,8.350773",
      "google_place_id": "ChIJgduClkywrRERwC0tws9cKDA"
    }
  },
  {
    "id": "84523",
    "name": "KUKI,  CIKIN GARI",
    "registration_area_id": "4383",
    "precise_location": null,
    "abbreviation": "007",
    "units": "007",
    "delimitation": "19/04/09/007",
    "remark": "EXISTING PU",
    "ward_id": "4383",
    "ward_name": "KUKI",
    "local_government_id": "373",
    "local_government_name": "BEBEJI",
    "state_id": "19",
    "state_name": "KANO",
    "location": {
      "latitude": 12.0068579,
      "longitude": 8.523871600000001,
      "viewport": {
        "northeast": {
          "lat": 12.00812397989272,
          "lng": 8.525340379892723
        },
        "southwest": {
          "lat": 12.00542432010728,
          "lng": 8.52264072010728
        }
      },
      "formatted_address": "Flat K Waika Waje Kano, Nigeria",
      "google_map_url": "https://maps.google.com?q=12.0068579,8.523871600000001",
      "google_place_id": "ChIJMZHKnBeBrhERNCo6LF6_Y-k"
    }
  },
  {
    "id": "84524",
    "name": "NASARAWA,  KUKI I",
    "registration_area_id": "4383",
    "precise_location": null,
    "abbreviation": "008",
    "units": "008",
    "delimitation": "19/04/09/008",
    "remark": "EXISTING PU",
    "ward_id": "4383",
    "ward_name": "KUKI",
    "local_government_id": "373",
    "local_government_name": "BEBEJI",
    "state_id": "19",
    "state_name": "KANO",
    "location": null
  },
  {
    "id": "84525",
    "name": "NASARAWA,  KUKI II",
    "registration_area_id": "4383",
    "precise_location": null,
    "abbreviation": "009",
    "units": "009",
    "delimitation": "19/04/09/009",
    "remark": "EXISTING PU",
    "ward_id": "4383",
    "ward_name": "KUKI",
    "local_government_id": "373",
    "local_government_name": "BEBEJI",
    "state_id": "19",
    "state_name": "KANO",
    "location": null
  },
  {
    "id": "84526",
    "name": "WALAWA TUBABBU",
    "registration_area_id": "4383",
    "precise_location": null,
    "abbreviation": "010",
    "units": "010",
    "delimitation": "19/04/09/010",
    "remark": "EXISTING PU",
    "ward_id": "4383",
    "ward_name": "KUKI",
    "local_government_id": "373",
    "local_government_name": "BEBEJI",
    "state_id": "19",
    "state_name": "KANO",
    "location": null
  },
  {
    "id": "84527",
    "name": "GSS NASARAWAN KUKI",
    "registration_area_id": "4383",
    "precise_location": null,
    "abbreviation": "011",
    "units": "011",
    "delimitation": "19/04/09/011",
    "remark": "NEW PU",
    "ward_id": "4383",
    "ward_name": "KUKI",
    "local_government_id": "373",
    "local_government_name": "BEBEJI",
    "state_id": "19",
    "state_name": "KANO",
    "location": null
  }
]