[
  {
    "id": "36946",
    "name": "PLAYGROUND,  AGBA I",
    "registration_area_id": "2039",
    "precise_location": null,
    "abbreviation": "001",
    "units": "001",
    "delimitation": "09/07/08/001",
    "remark": "EXISTING PU",
    "ward_id": "2039",
    "ward_name": "EKPASHI",
    "local_government_id": "175",
    "local_government_name": "BOKI",
    "state_id": "9",
    "state_name": "CROSS RIVER",
    "location": {
      "latitude": 6.223728899999999,
      "longitude": 7.8802797,
      "viewport": {
        "northeast": {
          "lat": 6.225067429892722,
          "lng": 7.881648479892722
        },
        "southwest": {
          "lat": 6.222367770107278,
          "lng": 7.878948820107278
        }
      },
      "formatted_address": "6VFJ+F4R, 482120, Agba, Nigeria",
      "google_map_url": "https://maps.google.com?q=6.223728899999999,7.8802797",
      "google_place_id": "ChIJfy5jAIeuXBARjhaYUJtR1c0"
    }
  },
  {
    "id": "36947",
    "name": "PLAYGROUND,  AGBA II",
    "registration_area_id": "2039",
    "precise_location": null,
    "abbreviation": "002",
    "units": "002",
    "delimitation": "09/07/08/002",
    "remark": "EXISTING PU",
    "ward_id": "2039",
    "ward_name": "EKPASHI",
    "local_government_id": "175",
    "local_government_name": "BOKI",
    "state_id": "9",
    "state_name": "CROSS RIVER",
    "location": {
      "latitude": 6.223728899999999,
      "longitude": 7.8802797,
      "viewport": {
        "northeast": {
          "lat": 6.225067429892722,
          "lng": 7.881648479892722
        },
        "southwest": {
          "lat": 6.222367770107278,
          "lng": 7.878948820107278
        }
      },
      "formatted_address": "6VFJ+F4R, 482120, Agba, Nigeria",
      "google_map_url": "https://maps.google.com?q=6.223728899999999,7.8802797",
      "google_place_id": "ChIJfy5jAIeuXBARjhaYUJtR1c0"
    }
  },
  {
    "id": "36948",
    "name": "PLAYGROUND BATANG",
    "registration_area_id": "2039",
    "precise_location": null,
    "abbreviation": "003",
    "units": "003",
    "delimitation": "09/07/08/003",
    "remark": "EXISTING PU",
    "ward_id": "2039",
    "ward_name": "EKPASHI",
    "local_government_id": "175",
    "local_government_name": "BOKI",
    "state_id": "9",
    "state_name": "CROSS RIVER",
    "location": {
      "latitude": 6.405574499999999,
      "longitude": 8.7999713,
      "viewport": {
        "northeast": {
          "lat": 6.406924129892722,
          "lng": 8.801327879892721
        },
        "southwest": {
          "lat": 6.404224470107279,
          "lng": 8.798628220107277
        }
      },
      "formatted_address": "Opposite Okisam Filling station Boki local government area, 551177, Okundi, Nigeria",
      "google_map_url": "https://maps.google.com?q=6.405574499999999,8.7999713",
      "google_place_id": "ChIJo4HkNNOLWxARhyB3ZR9_PtA"
    }
  },
  {
    "id": "36949",
    "name": "PLAY GROUND NKIM OSOKOM I",
    "registration_area_id": "2039",
    "precise_location": null,
    "abbreviation": "004",
    "units": "004",
    "delimitation": "09/07/08/004",
    "remark": "EXISTING PU",
    "ward_id": "2039",
    "ward_name": "EKPASHI",
    "local_government_id": "175",
    "local_government_name": "BOKI",
    "state_id": "9",
    "state_name": "CROSS RIVER",
    "location": {
      "latitude": 6.405574499999999,
      "longitude": 8.7999713,
      "viewport": {
        "northeast": {
          "lat": 6.406924129892722,
          "lng": 8.801327879892721
        },
        "southwest": {
          "lat": 6.404224470107279,
          "lng": 8.798628220107277
        }
      },
      "formatted_address": "Opposite Okisam Filling station Boki local government area, 551177, Okundi, Nigeria",
      "google_map_url": "https://maps.google.com?q=6.405574499999999,8.7999713",
      "google_place_id": "ChIJo4HkNNOLWxARhyB3ZR9_PtA"
    }
  },
  {
    "id": "36950",
    "name": "PLAY GROUND,  NKIM OSOKOM II",
    "registration_area_id": "2039",
    "precise_location": null,
    "abbreviation": "005",
    "units": "005",
    "delimitation": "09/07/08/005",
    "remark": "EXISTING PU",
    "ward_id": "2039",
    "ward_name": "EKPASHI",
    "local_government_id": "175",
    "local_government_name": "BOKI",
    "state_id": "9",
    "state_name": "CROSS RIVER",
    "location": {
      "latitude": 6.405574499999999,
      "longitude": 8.7999713,
      "viewport": {
        "northeast": {
          "lat": 6.406924129892722,
          "lng": 8.801327879892721
        },
        "southwest": {
          "lat": 6.404224470107279,
          "lng": 8.798628220107277
        }
      },
      "formatted_address": "Opposite Okisam Filling station Boki local government area, 551177, Okundi, Nigeria",
      "google_map_url": "https://maps.google.com?q=6.405574499999999,8.7999713",
      "google_place_id": "ChIJo4HkNNOLWxARhyB3ZR9_PtA"
    }
  },
  {
    "id": "36951",
    "name": "PLAYGROUND NTAMANTE I & II",
    "registration_area_id": "2039",
    "precise_location": null,
    "abbreviation": "006",
    "units": "006",
    "delimitation": "09/07/08/006",
    "remark": "EXISTING PU",
    "ward_id": "2039",
    "ward_name": "EKPASHI",
    "local_government_id": "175",
    "local_government_name": "BOKI",
    "state_id": "9",
    "state_name": "CROSS RIVER",
    "location": {
      "latitude": 43.4035425,
      "longitude": -80.34115419999999,
      "viewport": {
        "northeast": {
          "lat": 43.40512337989272,
          "lng": -80.33935302010727
        },
        "southwest": {
          "lat": 43.40242372010728,
          "lng": -80.3420526798927
        }
      },
      "formatted_address": "630 Trico Dr, Cambridge, ON N3H 5S4, Canada",
      "google_map_url": "https://maps.google.com?q=43.4035425,-80.34115419999999",
      "google_place_id": "ChIJH3SFe8KJK4gRsf_vJwBCw64"
    }
  },
  {
    "id": "36952",
    "name": "PLAYGROUND NTAMANTE III",
    "registration_area_id": "2039",
    "precise_location": null,
    "abbreviation": "007",
    "units": "007",
    "delimitation": "09/07/08/007",
    "remark": "EXISTING PU",
    "ward_id": "2039",
    "ward_name": "EKPASHI",
    "local_government_id": "175",
    "local_government_name": "BOKI",
    "state_id": "9",
    "state_name": "CROSS RIVER",
    "location": {
      "latitude": 6.423615,
      "longitude": 8.751647,
      "viewport": {
        "northeast": {
          "lat": 6.425049179892723,
          "lng": 8.753061179892722
        },
        "southwest": {
          "lat": 6.42234952010728,
          "lng": 8.750361520107278
        }
      },
      "formatted_address": "CQF2+CM, 551111, Ntanante, Nigeria",
      "google_map_url": "https://maps.google.com?q=6.423615,8.751647",
      "google_place_id": "ChIJUyQCSViNWxARX6LZo9xu39w"
    }
  },
  {
    "id": "36953",
    "name": "PLAYGROUND NTAMANTE IV",
    "registration_area_id": "2039",
    "precise_location": null,
    "abbreviation": "008",
    "units": "008",
    "delimitation": "09/07/08/008",
    "remark": "EXISTING PU",
    "ward_id": "2039",
    "ward_name": "EKPASHI",
    "local_government_id": "175",
    "local_government_name": "BOKI",
    "state_id": "9",
    "state_name": "CROSS RIVER",
    "location": {
      "latitude": 6.423615,
      "longitude": 8.751647,
      "viewport": {
        "northeast": {
          "lat": 6.425049179892723,
          "lng": 8.753061179892722
        },
        "southwest": {
          "lat": 6.42234952010728,
          "lng": 8.750361520107278
        }
      },
      "formatted_address": "CQF2+CM, 551111, Ntanante, Nigeria",
      "google_map_url": "https://maps.google.com?q=6.423615,8.751647",
      "google_place_id": "ChIJUyQCSViNWxARX6LZo9xu39w"
    }
  },
  {
    "id": "36954",
    "name": "OBUBRA MKT. SQ. BY JUNCTION",
    "registration_area_id": "2039",
    "precise_location": null,
    "abbreviation": "009",
    "units": "009",
    "delimitation": "09/07/08/009",
    "remark": "NEW PU",
    "ward_id": "2039",
    "ward_name": "EKPASHI",
    "local_government_id": "175",
    "local_government_name": "BOKI",
    "state_id": "9",
    "state_name": "CROSS RIVER",
    "location": null
  },
  {
    "id": "36955",
    "name": "OSHIEKESE JUNCTION",
    "registration_area_id": "2039",
    "precise_location": null,
    "abbreviation": "010",
    "units": "010",
    "delimitation": "09/07/08/010",
    "remark": "NEW PU",
    "ward_id": "2039",
    "ward_name": "EKPASHI",
    "local_government_id": "175",
    "local_government_name": "BOKI",
    "state_id": "9",
    "state_name": "CROSS RIVER",
    "location": {
      "latitude": 6.405574499999999,
      "longitude": 8.7999713,
      "viewport": {
        "northeast": {
          "lat": 6.406924129892722,
          "lng": 8.801327879892721
        },
        "southwest": {
          "lat": 6.404224470107279,
          "lng": 8.798628220107277
        }
      },
      "formatted_address": "Opposite Okisam Filling station Boki local government area, 551177, Okundi, Nigeria",
      "google_map_url": "https://maps.google.com?q=6.405574499999999,8.7999713",
      "google_place_id": "ChIJo4HkNNOLWxARhyB3ZR9_PtA"
    }
  }
]