[
  {
    "id": "346133",
    "name": "ATOSIN TOWNSHIP, OKE ALUKO L.A PRY SCH, ATOSIN OKE ALUKO",
    "registration_area_id": "17582",
    "precise_location": null,
    "abbreviation": "001",
    "units": "001",
    "delimitation": "28/08/02/001",
    "remark": "EXISTING PU",
    "ward_id": "17582",
    "ward_name": "ALADE/ATOSIN",
    "local_government_id": "589",
    "local_government_name": "IDANRE",
    "state_id": "28",
    "state_name": "ONDO",
    "location": {
      "latitude": 7.1569539,
      "longitude": 5.079645699999999,
      "viewport": {
        "northeast": {
          "lat": 7.180693400000049,
          "lng": 5.124918650000001
        },
        "southwest": {
          "lat": 7.12056979999995,
          "lng": 5.03278005
        }
      },
      "formatted_address": "Atosin Rd, 351105, Nigeria",
      "google_map_url": "https://maps.google.com?q=7.1569539,5.079645699999999",
      "google_place_id": "EhpBdG9zaW4gUmQsIDM1MTEwNSwgTmlnZXJpYSIuKiwKFAoSCd_9fkrKfkcQEWDHSlFoUdyFEhQKEgmPlTqTI4dHEBGDflYMgUNoeQ"
    }
  },
  {
    "id": "346134",
    "name": "OKE-ANIFON, YOUTH CENTRE ATOSIN",
    "registration_area_id": "17582",
    "precise_location": null,
    "abbreviation": "002",
    "units": "002",
    "delimitation": "28/08/02/002",
    "remark": "EXISTING PU",
    "ward_id": "17582",
    "ward_name": "ALADE/ATOSIN",
    "local_government_id": "589",
    "local_government_name": "IDANRE",
    "state_id": "28",
    "state_name": "ONDO",
    "location": {
      "latitude": 7.1037829,
      "longitude": 5.1094952,
      "viewport": {
        "northeast": {
          "lat": 7.109928549999998,
          "lng": 5.111075779892722
        },
        "southwest": {
          "lat": 7.101734350000001,
          "lng": 5.108376120107278
        }
      },
      "formatted_address": "Idanre Hills Idanre local government, 530002, Idanre, Nigeria",
      "google_map_url": "https://maps.google.com?q=7.1037829,5.1094952",
      "google_place_id": "ChIJo0bL36iBRxARzMAfxAlzITI"
    }
  },
  {
    "id": "346135",
    "name": "IDI AGBA, IDI AGBA HALL",
    "registration_area_id": "17582",
    "precise_location": null,
    "abbreviation": "003",
    "units": "003",
    "delimitation": "28/08/02/003",
    "remark": "EXISTING PU",
    "ward_id": "17582",
    "ward_name": "ALADE/ATOSIN",
    "local_government_id": "589",
    "local_government_name": "IDANRE",
    "state_id": "28",
    "state_name": "ONDO",
    "location": {
      "latitude": 7.1037829,
      "longitude": 5.1094952,
      "viewport": {
        "northeast": {
          "lat": 7.109928549999998,
          "lng": 5.111075779892722
        },
        "southwest": {
          "lat": 7.101734350000001,
          "lng": 5.108376120107278
        }
      },
      "formatted_address": "Idanre Hills Idanre local government, 530002, Idanre, Nigeria",
      "google_map_url": "https://maps.google.com?q=7.1037829,5.1094952",
      "google_place_id": "ChIJo0bL36iBRxARzMAfxAlzITI"
    }
  },
  {
    "id": "346136",
    "name": "TEJUGBOLA, TEJUGBOLA",
    "registration_area_id": "17582",
    "precise_location": null,
    "abbreviation": "004",
    "units": "004",
    "delimitation": "28/08/02/004",
    "remark": "EXISTING PU",
    "ward_id": "17582",
    "ward_name": "ALADE/ATOSIN",
    "local_government_id": "589",
    "local_government_name": "IDANRE",
    "state_id": "28",
    "state_name": "ONDO",
    "location": {
      "latitude": 7.0102536,
      "longitude": 5.1378318,
      "viewport": {
        "northeast": {
          "lat": 7.011801729892722,
          "lng": 5.139250279892721
        },
        "southwest": {
          "lat": 7.009102070107278,
          "lng": 5.136550620107277
        }
      },
      "formatted_address": "340109, Tejugbola, Nigeria",
      "google_map_url": "https://maps.google.com?q=7.0102536,5.1378318",
      "google_place_id": "ChIJIfjcB85-RxARPha3Zt2uBwI"
    }
  },
  {
    "id": "346137",
    "name": "ILAKO CAMP, O/SPACE AT ILAKO CAMP",
    "registration_area_id": "17582",
    "precise_location": null,
    "abbreviation": "005",
    "units": "005",
    "delimitation": "28/08/02/005",
    "remark": "EXISTING PU",
    "ward_id": "17582",
    "ward_name": "ALADE/ATOSIN",
    "local_government_id": "589",
    "local_government_name": "IDANRE",
    "state_id": "28",
    "state_name": "ONDO",
    "location": {
      "latitude": 7.1037829,
      "longitude": 5.1094952,
      "viewport": {
        "northeast": {
          "lat": 7.109928549999998,
          "lng": 5.111075779892722
        },
        "southwest": {
          "lat": 7.101734350000001,
          "lng": 5.108376120107278
        }
      },
      "formatted_address": "Idanre Hills Idanre local government, 530002, Idanre, Nigeria",
      "google_map_url": "https://maps.google.com?q=7.1037829,5.1094952",
      "google_place_id": "ChIJo0bL36iBRxARzMAfxAlzITI"
    }
  },
  {
    "id": "346138",
    "name": "ASEIGBO I & II, ST THOMAS PRY SCH ASEIGBO",
    "registration_area_id": "17582",
    "precise_location": null,
    "abbreviation": "006",
    "units": "006",
    "delimitation": "28/08/02/006",
    "remark": "EXISTING PU",
    "ward_id": "17582",
    "ward_name": "ALADE/ATOSIN",
    "local_government_id": "589",
    "local_government_name": "IDANRE",
    "state_id": "28",
    "state_name": "ONDO",
    "location": {
      "latitude": 7.4489412,
      "longitude": 3.8991054,
      "viewport": {
        "northeast": {
          "lat": 7.450388179892723,
          "lng": 3.900575829892721
        },
        "southwest": {
          "lat": 7.447688520107279,
          "lng": 3.897876170107277
        }
      },
      "formatted_address": "CVXX+FJX University of Ibadan, National Archive office, Ibadan, Nigeria",
      "google_map_url": "https://maps.google.com?q=7.4489412,3.8991054",
      "google_place_id": "ChIJNbq0z5vyORAR4fz9pNdhE6U"
    }
  },
  {
    "id": "346139",
    "name": "LAFERE/AGBAJO - IDANRE H/SCH, ALADE",
    "registration_area_id": "17582",
    "precise_location": null,
    "abbreviation": "007",
    "units": "007",
    "delimitation": "28/08/02/007",
    "remark": "EXISTING PU",
    "ward_id": "17582",
    "ward_name": "ALADE/ATOSIN",
    "local_government_id": "589",
    "local_government_name": "IDANRE",
    "state_id": "28",
    "state_name": "ONDO",
    "location": {
      "latitude": 7.1037829,
      "longitude": 5.1094952,
      "viewport": {
        "northeast": {
          "lat": 7.109928549999998,
          "lng": 5.111075779892722
        },
        "southwest": {
          "lat": 7.101734350000001,
          "lng": 5.108376120107278
        }
      },
      "formatted_address": "Idanre Hills Idanre local government, 530002, Idanre, Nigeria",
      "google_map_url": "https://maps.google.com?q=7.1037829,5.1094952",
      "google_place_id": "ChIJo0bL36iBRxARzMAfxAlzITI"
    }
  },
  {
    "id": "346140",
    "name": "OKE-IMIKAN, OPEN SPACE OPPOSITE ALADEOKUN COMP",
    "registration_area_id": "17582",
    "precise_location": null,
    "abbreviation": "008",
    "units": "008",
    "delimitation": "28/08/02/008",
    "remark": "EXISTING PU",
    "ward_id": "17582",
    "ward_name": "ALADE/ATOSIN",
    "local_government_id": "589",
    "local_government_name": "IDANRE",
    "state_id": "28",
    "state_name": "ONDO",
    "location": {
      "latitude": 7.1037829,
      "longitude": 5.1094952,
      "viewport": {
        "northeast": {
          "lat": 7.109928549999998,
          "lng": 5.111075779892722
        },
        "southwest": {
          "lat": 7.101734350000001,
          "lng": 5.108376120107278
        }
      },
      "formatted_address": "Idanre Hills Idanre local government, 530002, Idanre, Nigeria",
      "google_map_url": "https://maps.google.com?q=7.1037829,5.1094952",
      "google_place_id": "ChIJo0bL36iBRxARzMAfxAlzITI"
    }
  },
  {
    "id": "346141",
    "name": "ST ANDREWS AREA, YOUTH CENTRE ALADE",
    "registration_area_id": "17582",
    "precise_location": null,
    "abbreviation": "009",
    "units": "009",
    "delimitation": "28/08/02/009",
    "remark": "EXISTING PU",
    "ward_id": "17582",
    "ward_name": "ALADE/ATOSIN",
    "local_government_id": "589",
    "local_government_name": "IDANRE",
    "state_id": "28",
    "state_name": "ONDO",
    "location": {
      "latitude": 7.2129958,
      "longitude": 5.5592551,
      "viewport": {
        "northeast": {
          "lat": 7.214339979892721,
          "lng": 5.560609979892722
        },
        "southwest": {
          "lat": 7.211640320107277,
          "lng": 5.557910320107278
        }
      },
      "formatted_address": "6H75+5P5, 341104, Owo, Nigeria",
      "google_map_url": "https://maps.google.com?q=7.2129958,5.5592551",
      "google_place_id": "ChIJV9RWJgivRxAR4XN2609KVh0"
    }
  },
  {
    "id": "346142",
    "name": "MARKET ROAD, MATERNITY CENTRE ALADE",
    "registration_area_id": "17582",
    "precise_location": null,
    "abbreviation": "010",
    "units": "010",
    "delimitation": "28/08/02/010",
    "remark": "EXISTING PU",
    "ward_id": "17582",
    "ward_name": "ALADE/ATOSIN",
    "local_government_id": "589",
    "local_government_name": "IDANRE",
    "state_id": "28",
    "state_name": "ONDO",
    "location": {
      "latitude": 7.1088099,
      "longitude": 5.114983,
      "viewport": {
        "northeast": {
          "lat": 7.110121279892722,
          "lng": 5.116395179892721
        },
        "southwest": {
          "lat": 7.107421620107278,
          "lng": 5.113695520107277
        }
      },
      "formatted_address": "4457+GXH, 340108, Idanre, Nigeria",
      "google_map_url": "https://maps.google.com?q=7.1088099,5.114983",
      "google_place_id": "ChIJozvSzgmBRxARHvFVXfc_e08"
    }
  },
  {
    "id": "346143",
    "name": "OKELISA/OKE AGUNLA, O/SPACE BESIDE LISA CAMP",
    "registration_area_id": "17582",
    "precise_location": null,
    "abbreviation": "011",
    "units": "011",
    "delimitation": "28/08/02/011",
    "remark": "EXISTING PU",
    "ward_id": "17582",
    "ward_name": "ALADE/ATOSIN",
    "local_government_id": "589",
    "local_government_name": "IDANRE",
    "state_id": "28",
    "state_name": "ONDO",
    "location": {
      "latitude": 7.1037829,
      "longitude": 5.1094952,
      "viewport": {
        "northeast": {
          "lat": 7.109928549999998,
          "lng": 5.111075779892722
        },
        "southwest": {
          "lat": 7.101734350000001,
          "lng": 5.108376120107278
        }
      },
      "formatted_address": "Idanre Hills Idanre local government, 530002, Idanre, Nigeria",
      "google_map_url": "https://maps.google.com?q=7.1037829,5.1094952",
      "google_place_id": "ChIJo0bL36iBRxARzMAfxAlzITI"
    }
  },
  {
    "id": "346144",
    "name": "TEMIDIRE/AYO/OLORUNTEDO/OKEDO, O/S IN FRONT OF JONES HOUSE",
    "registration_area_id": "17582",
    "precise_location": null,
    "abbreviation": "012",
    "units": "012",
    "delimitation": "28/08/02/012",
    "remark": "EXISTING PU",
    "ward_id": "17582",
    "ward_name": "ALADE/ATOSIN",
    "local_government_id": "589",
    "local_government_name": "IDANRE",
    "state_id": "28",
    "state_name": "ONDO",
    "location": {
      "latitude": 7.1037829,
      "longitude": 5.1094952,
      "viewport": {
        "northeast": {
          "lat": 7.109928549999998,
          "lng": 5.111075779892722
        },
        "southwest": {
          "lat": 7.101734350000001,
          "lng": 5.108376120107278
        }
      },
      "formatted_address": "Idanre Hills Idanre local government, 530002, Idanre, Nigeria",
      "google_map_url": "https://maps.google.com?q=7.1037829,5.1094952",
      "google_place_id": "ChIJo0bL36iBRxARzMAfxAlzITI"
    }
  },
  {
    "id": "346145",
    "name": "AKINJO/OGUNTUGBIYELE/OBA AKINBORO, ST THERESA PRY SCH, ALADE",
    "registration_area_id": "17582",
    "precise_location": null,
    "abbreviation": "013",
    "units": "013",
    "delimitation": "28/08/02/013",
    "remark": "EXISTING PU",
    "ward_id": "17582",
    "ward_name": "ALADE/ATOSIN",
    "local_government_id": "589",
    "local_government_name": "IDANRE",
    "state_id": "28",
    "state_name": "ONDO",
    "location": {
      "latitude": 7.1037829,
      "longitude": 5.1094952,
      "viewport": {
        "northeast": {
          "lat": 7.109928549999998,
          "lng": 5.111075779892722
        },
        "southwest": {
          "lat": 7.101734350000001,
          "lng": 5.108376120107278
        }
      },
      "formatted_address": "Idanre Hills Idanre local government, 530002, Idanre, Nigeria",
      "google_map_url": "https://maps.google.com?q=7.1037829,5.1094952",
      "google_place_id": "ChIJo0bL36iBRxARzMAfxAlzITI"
    }
  },
  {
    "id": "346146",
    "name": "OFFICE RD/COURT/ILEBUKUN, O/S NEAR COURT HALL",
    "registration_area_id": "17582",
    "precise_location": null,
    "abbreviation": "014",
    "units": "014",
    "delimitation": "28/08/02/014",
    "remark": "EXISTING PU",
    "ward_id": "17582",
    "ward_name": "ALADE/ATOSIN",
    "local_government_id": "589",
    "local_government_name": "IDANRE",
    "state_id": "28",
    "state_name": "ONDO",
    "location": {
      "latitude": 7.1091972,
      "longitude": 5.1090447,
      "viewport": {
        "northeast": {
          "lat": 7.110548329892722,
          "lng": 5.110404479892722
        },
        "southwest": {
          "lat": 7.107848670107278,
          "lng": 5.107704820107277
        }
      },
      "formatted_address": "Ondo State, Ondo State Government Industrial Layout, Bolorunduro-Owo Rd, 340108, Idanre, Nigeria",
      "google_map_url": "https://maps.google.com?q=7.1091972,5.1090447",
      "google_place_id": "ChIJo920dAeBRxAR9ZD7qVkKcto"
    }
  },
  {
    "id": "346147",
    "name": "IPOBA OJOMU SCH, ST LUKES PRY SCH",
    "registration_area_id": "17582",
    "precise_location": null,
    "abbreviation": "015",
    "units": "015",
    "delimitation": "28/08/02/015",
    "remark": "EXISTING PU",
    "ward_id": "17582",
    "ward_name": "ALADE/ATOSIN",
    "local_government_id": "589",
    "local_government_name": "IDANRE",
    "state_id": "28",
    "state_name": "ONDO",
    "location": {
      "latitude": 7.0723799,
      "longitude": 4.842109199999999,
      "viewport": {
        "northeast": {
          "lat": 7.073808229892722,
          "lng": 4.843495979892722
        },
        "southwest": {
          "lat": 7.071108570107278,
          "lng": 4.840796320107278
        }
      },
      "formatted_address": "3RCR+WRG, 351106, Ondo, Nigeria",
      "google_map_url": "https://maps.google.com?q=7.0723799,4.842109199999999",
      "google_place_id": "ChIJA2yp0NNjOBARLVBq6IRt7Jc"
    }
  },
  {
    "id": "346148",
    "name": "IPOBA SAMA/OLU/AJEBAMBO, O/S AT IPOBA, AJEBAMBO",
    "registration_area_id": "17582",
    "precise_location": null,
    "abbreviation": "016",
    "units": "016",
    "delimitation": "28/08/02/016",
    "remark": "EXISTING PU",
    "ward_id": "17582",
    "ward_name": "ALADE/ATOSIN",
    "local_government_id": "589",
    "local_government_name": "IDANRE",
    "state_id": "28",
    "state_name": "ONDO",
    "location": {
      "latitude": 7.1037829,
      "longitude": 5.1094952,
      "viewport": {
        "northeast": {
          "lat": 7.109928549999998,
          "lng": 5.111075779892722
        },
        "southwest": {
          "lat": 7.101734350000001,
          "lng": 5.108376120107278
        }
      },
      "formatted_address": "Idanre Hills Idanre local government, 530002, Idanre, Nigeria",
      "google_map_url": "https://maps.google.com?q=7.1037829,5.1094952",
      "google_place_id": "ChIJo0bL36iBRxARzMAfxAlzITI"
    }
  },
  {
    "id": "346149",
    "name": "OPEN SPACE BESIDE AWUSOYE PALACE ATOSIN",
    "registration_area_id": "17582",
    "precise_location": null,
    "abbreviation": "017",
    "units": "017",
    "delimitation": "28/08/02/017",
    "remark": "NEW PU",
    "ward_id": "17582",
    "ward_name": "ALADE/ATOSIN",
    "local_government_id": "589",
    "local_government_name": "IDANRE",
    "state_id": "28",
    "state_name": "ONDO",
    "location": {
      "latitude": 7.1037829,
      "longitude": 5.1094952,
      "viewport": {
        "northeast": {
          "lat": 7.109928549999998,
          "lng": 5.111075779892722
        },
        "southwest": {
          "lat": 7.101734350000001,
          "lng": 5.108376120107278
        }
      },
      "formatted_address": "Idanre Hills Idanre local government, 530002, Idanre, Nigeria",
      "google_map_url": "https://maps.google.com?q=7.1037829,5.1094952",
      "google_place_id": "ChIJo0bL36iBRxARzMAfxAlzITI"
    }
  },
  {
    "id": "346150",
    "name": "OPEN SPACE INFRONT  OF OLAKUWINOWO'S COMP AGBAJO/LAFERE ALADE",
    "registration_area_id": "17582",
    "precise_location": null,
    "abbreviation": "018",
    "units": "018",
    "delimitation": "28/08/02/018",
    "remark": "NEW PU",
    "ward_id": "17582",
    "ward_name": "ALADE/ATOSIN",
    "local_government_id": "589",
    "local_government_name": "IDANRE",
    "state_id": "28",
    "state_name": "ONDO",
    "location": {
      "latitude": 7.1037829,
      "longitude": 5.1094952,
      "viewport": {
        "northeast": {
          "lat": 7.109928549999998,
          "lng": 5.111075779892722
        },
        "southwest": {
          "lat": 7.101734350000001,
          "lng": 5.108376120107278
        }
      },
      "formatted_address": "Idanre Hills Idanre local government, 530002, Idanre, Nigeria",
      "google_map_url": "https://maps.google.com?q=7.1037829,5.1094952",
      "google_place_id": "ChIJo0bL36iBRxARzMAfxAlzITI"
    }
  },
  {
    "id": "346151",
    "name": "ST ANDREW MEGA PRY SCHL ALADE",
    "registration_area_id": "17582",
    "precise_location": null,
    "abbreviation": "019",
    "units": "019",
    "delimitation": "28/08/02/019",
    "remark": "NEW PU",
    "ward_id": "17582",
    "ward_name": "ALADE/ATOSIN",
    "local_government_id": "589",
    "local_government_name": "IDANRE",
    "state_id": "28",
    "state_name": "ONDO",
    "location": {
      "latitude": 6.829418899999999,
      "longitude": 4.8604516,
      "viewport": {
        "northeast": {
          "lat": 6.830790679892723,
          "lng": 4.861743079892722
        },
        "southwest": {
          "lat": 6.828091020107279,
          "lng": 4.859043420107279
        }
      },
      "formatted_address": "Ore-Ondo Rd, 350107, Ominla, Nigeria",
      "google_map_url": "https://maps.google.com?q=6.829418899999999,4.8604516",
      "google_place_id": "ChIJMxoFpNSROBAR1ZdUXbtMPKs"
    }
  },
  {
    "id": "346152",
    "name": "OPEN SPACE OPP ST ANDREW PRY SCHL, BESIDE MTN MAST ATOSIN ROAD ALADE",
    "registration_area_id": "17582",
    "precise_location": null,
    "abbreviation": "020",
    "units": "020",
    "delimitation": "28/08/02/020",
    "remark": "NEW PU",
    "ward_id": "17582",
    "ward_name": "ALADE/ATOSIN",
    "local_government_id": "589",
    "local_government_name": "IDANRE",
    "state_id": "28",
    "state_name": "ONDO",
    "location": {
      "latitude": 7.145510199999999,
      "longitude": 5.0929838,
      "viewport": {
        "northeast": {
          "lat": 7.147018129892723,
          "lng": 5.094592229892722
        },
        "southwest": {
          "lat": 7.144318470107279,
          "lng": 5.091892570107278
        }
      },
      "formatted_address": "Atosin Rd, 351105, Alade, Nigeria",
      "google_map_url": "https://maps.google.com?q=7.145510199999999,5.0929838",
      "google_place_id": "ChIJXT9qiNGARxARHgleS_NElx0"
    }
  },
  {
    "id": "346153",
    "name": "OPEN SPACE INFRONT OF  AKINNOLA COMP OKE AGUNLA ALADE",
    "registration_area_id": "17582",
    "precise_location": null,
    "abbreviation": "021",
    "units": "021",
    "delimitation": "28/08/02/021",
    "remark": "NEW PU",
    "ward_id": "17582",
    "ward_name": "ALADE/ATOSIN",
    "local_government_id": "589",
    "local_government_name": "IDANRE",
    "state_id": "28",
    "state_name": "ONDO",
    "location": {
      "latitude": 7.1399313,
      "longitude": 5.100178,
      "viewport": {
        "northeast": {
          "lat": 7.141279129892721,
          "lng": 5.101529379892721
        },
        "southwest": {
          "lat": 7.138579470107278,
          "lng": 5.098829720107277
        }
      },
      "formatted_address": "44Q2+X3F, 351105, Alade, Nigeria",
      "google_map_url": "https://maps.google.com?q=7.1399313,5.100178",
      "google_place_id": "ChIJkfG-g6eBRxARpWY6wRUerfk"
    }
  },
  {
    "id": "346154",
    "name": "L. A PRY SCHL OLORUNTEDO ALADE",
    "registration_area_id": "17582",
    "precise_location": null,
    "abbreviation": "022",
    "units": "022",
    "delimitation": "28/08/02/022",
    "remark": "NEW PU",
    "ward_id": "17582",
    "ward_name": "ALADE/ATOSIN",
    "local_government_id": "589",
    "local_government_name": "IDANRE",
    "state_id": "28",
    "state_name": "ONDO",
    "location": {
      "latitude": 6.8578535,
      "longitude": 5.1053723,
      "viewport": {
        "northeast": {
          "lat": 6.859203329892721,
          "lng": 5.106722129892721
        },
        "southwest": {
          "lat": 6.856503670107277,
          "lng": 5.104022470107277
        }
      },
      "formatted_address": "V454+44X, 340109, Ofosu, Nigeria",
      "google_map_url": "https://maps.google.com?q=6.8578535,5.1053723",
      "google_place_id": "ChIJTwo6vgNjRxAR695fLrBtEr8"
    }
  },
  {
    "id": "346155",
    "name": "OPEN SPACE INFRONT OTOMAYO COMP ILE IBUKUN ALADE",
    "registration_area_id": "17582",
    "precise_location": null,
    "abbreviation": "023",
    "units": "023",
    "delimitation": "28/08/02/023",
    "remark": "NEW PU",
    "ward_id": "17582",
    "ward_name": "ALADE/ATOSIN",
    "local_government_id": "589",
    "local_government_name": "IDANRE",
    "state_id": "28",
    "state_name": "ONDO",
    "location": null
  },
  {
    "id": "346156",
    "name": "OPEN SPACE INFRONT OF COOPERATIVE COMP IPOBA RD ALADE",
    "registration_area_id": "17582",
    "precise_location": null,
    "abbreviation": "024",
    "units": "024",
    "delimitation": "28/08/02/024",
    "remark": "NEW PU",
    "ward_id": "17582",
    "ward_name": "ALADE/ATOSIN",
    "local_government_id": "589",
    "local_government_name": "IDANRE",
    "state_id": "28",
    "state_name": "ONDO",
    "location": {
      "latitude": 7.145290999999999,
      "longitude": 5.0988504,
      "viewport": {
        "northeast": {
          "lat": 7.146648829892722,
          "lng": 5.100136079892723
        },
        "southwest": {
          "lat": 7.143949170107278,
          "lng": 5.097436420107279
        }
      },
      "formatted_address": "Alade P.o Bok 15 Idanre, Nigeria",
      "google_map_url": "https://maps.google.com?q=7.145290999999999,5.0988504",
      "google_place_id": "ChIJcXDDgNaARxARZgPg2R1_uRo"
    }
  }
]