[
  {
    "id": "352966",
    "name": "COURT HALL AGO-AARE I",
    "registration_area_id": "18073",
    "precise_location": null,
    "abbreviation": "001",
    "units": "001",
    "delimitation": "30/04/08/001",
    "remark": "EXISTING PU",
    "ward_id": "18073",
    "ward_name": "AGO ARE II",
    "local_government_id": "631",
    "local_government_name": "ATISBO",
    "state_id": "30",
    "state_name": "OYO",
    "location": {
      "latitude": 7.3611871,
      "longitude": 3.8670033,
      "viewport": {
        "northeast": {
          "lat": 7.362676079892721,
          "lng": 3.868455929892722
        },
        "southwest": {
          "lat": 7.359976420107277,
          "lng": 3.865756270107279
        }
      },
      "formatted_address": "Aboderin Layout, Ring Road, PMB 5031, Nigeria",
      "google_map_url": "https://maps.google.com?q=7.3611871,3.8670033",
      "google_place_id": "ChIJ7RJPpLSNORAR68pm8ZJaGLg"
    }
  },
  {
    "id": "352967",
    "name": "COURT HALL AGO-AARE II",
    "registration_area_id": "18073",
    "precise_location": null,
    "abbreviation": "002",
    "units": "002",
    "delimitation": "30/04/08/002",
    "remark": "EXISTING PU",
    "ward_id": "18073",
    "ward_name": "AGO ARE II",
    "local_government_id": "631",
    "local_government_name": "ATISBO",
    "state_id": "30",
    "state_name": "OYO",
    "location": {
      "latitude": 7.3611871,
      "longitude": 3.8670033,
      "viewport": {
        "northeast": {
          "lat": 7.362676079892721,
          "lng": 3.868455929892722
        },
        "southwest": {
          "lat": 7.359976420107277,
          "lng": 3.865756270107279
        }
      },
      "formatted_address": "Aboderin Layout, Ring Road, PMB 5031, Nigeria",
      "google_map_url": "https://maps.google.com?q=7.3611871,3.8670033",
      "google_place_id": "ChIJ7RJPpLSNORAR68pm8ZJaGLg"
    }
  },
  {
    "id": "352968",
    "name": "COURT HALL AGO-AARE III",
    "registration_area_id": "18073",
    "precise_location": null,
    "abbreviation": "003",
    "units": "003",
    "delimitation": "30/04/08/003",
    "remark": "EXISTING PU",
    "ward_id": "18073",
    "ward_name": "AGO ARE II",
    "local_government_id": "631",
    "local_government_name": "ATISBO",
    "state_id": "30",
    "state_name": "OYO",
    "location": {
      "latitude": 8.4964773,
      "longitude": 3.4102063,
      "viewport": {
        "northeast": {
          "lat": 8.497361579892722,
          "lng": 3.411751929892723
        },
        "southwest": {
          "lat": 8.494661920107278,
          "lng": 3.409052270107278
        }
      },
      "formatted_address": "FCW6+H3R, Unnamed Road, 203106, Ago-Are, Nigeria",
      "google_map_url": "https://maps.google.com?q=8.4964773,3.4102063",
      "google_place_id": "ChIJAcetPTofMRARR85Y5YXFz7k"
    }
  },
  {
    "id": "352969",
    "name": "COURT HALL AGO-AARE IV",
    "registration_area_id": "18073",
    "precise_location": null,
    "abbreviation": "004",
    "units": "004",
    "delimitation": "30/04/08/004",
    "remark": "EXISTING PU",
    "ward_id": "18073",
    "ward_name": "AGO ARE II",
    "local_government_id": "631",
    "local_government_name": "ATISBO",
    "state_id": "30",
    "state_name": "OYO",
    "location": {
      "latitude": 7.3611871,
      "longitude": 3.8670033,
      "viewport": {
        "northeast": {
          "lat": 7.362676079892721,
          "lng": 3.868455929892722
        },
        "southwest": {
          "lat": 7.359976420107277,
          "lng": 3.865756270107279
        }
      },
      "formatted_address": "Aboderin Layout, Ring Road, PMB 5031, Nigeria",
      "google_map_url": "https://maps.google.com?q=7.3611871,3.8670033",
      "google_place_id": "ChIJ7RJPpLSNORAR68pm8ZJaGLg"
    }
  },
  {
    "id": "352970",
    "name": "ONILE NLA COMPOUND",
    "registration_area_id": "18073",
    "precise_location": null,
    "abbreviation": "005",
    "units": "005",
    "delimitation": "30/04/08/005",
    "remark": "EXISTING PU",
    "ward_id": "18073",
    "ward_name": "AGO ARE II",
    "local_government_id": "631",
    "local_government_name": "ATISBO",
    "state_id": "30",
    "state_name": "OYO",
    "location": {
      "latitude": 8.3780577,
      "longitude": 3.8248241,
      "viewport": {
        "northeast": {
          "lat": 8.379407529892724,
          "lng": 3.826173929892721
        },
        "southwest": {
          "lat": 8.37670787010728,
          "lng": 3.823474270107277
        }
      },
      "formatted_address": "9RHF+6WG, Bayo, Nigeria",
      "google_map_url": "https://maps.google.com?q=8.3780577,3.8248241",
      "google_place_id": "ChIJHRMn5hDbNhARDfScLv07_VU"
    }
  },
  {
    "id": "352971",
    "name": "ABA OKE",
    "registration_area_id": "18073",
    "precise_location": null,
    "abbreviation": "006",
    "units": "006",
    "delimitation": "30/04/08/006",
    "remark": "EXISTING PU",
    "ward_id": "18073",
    "ward_name": "AGO ARE II",
    "local_government_id": "631",
    "local_government_name": "ATISBO",
    "state_id": "30",
    "state_name": "OYO",
    "location": {
      "latitude": 8.4964773,
      "longitude": 3.4102063,
      "viewport": {
        "northeast": {
          "lat": 8.497361579892722,
          "lng": 3.411751929892723
        },
        "southwest": {
          "lat": 8.494661920107278,
          "lng": 3.409052270107278
        }
      },
      "formatted_address": "FCW6+H3R, Unnamed Road, 203106, Ago-Are, Nigeria",
      "google_map_url": "https://maps.google.com?q=8.4964773,3.4102063",
      "google_place_id": "ChIJAcetPTofMRARR85Y5YXFz7k"
    }
  },
  {
    "id": "352972",
    "name": "SECOND BAPT. PRIMARY SCHOOL I",
    "registration_area_id": "18073",
    "precise_location": null,
    "abbreviation": "007",
    "units": "007",
    "delimitation": "30/04/08/007",
    "remark": "EXISTING PU",
    "ward_id": "18073",
    "ward_name": "AGO ARE II",
    "local_government_id": "631",
    "local_government_name": "ATISBO",
    "state_id": "30",
    "state_name": "OYO",
    "location": {
      "latitude": 8.501665,
      "longitude": 3.426834,
      "viewport": {
        "northeast": {
          "lat": 8.503022829892723,
          "lng": 3.428139279892722
        },
        "southwest": {
          "lat": 8.50032317010728,
          "lng": 3.425439620107277
        }
      },
      "formatted_address": "6FW5GC2G+MPW, Ago are8, 203104, Ago-Are, Nigeria",
      "google_map_url": "https://maps.google.com?q=8.501665,3.426834",
      "google_place_id": "ChIJY4VJNLshMRARACzaevrn5Sk"
    }
  },
  {
    "id": "352973",
    "name": "SECOND BAPT. PRIMARY SCHOOL II (A)",
    "registration_area_id": "18073",
    "precise_location": null,
    "abbreviation": "008",
    "units": "008",
    "delimitation": "30/04/08/008",
    "remark": "EXISTING PU",
    "ward_id": "18073",
    "ward_name": "AGO ARE II",
    "local_government_id": "631",
    "local_government_name": "ATISBO",
    "state_id": "30",
    "state_name": "OYO",
    "location": {
      "latitude": 8.501665,
      "longitude": 3.426834,
      "viewport": {
        "northeast": {
          "lat": 8.503022829892723,
          "lng": 3.428139279892722
        },
        "southwest": {
          "lat": 8.50032317010728,
          "lng": 3.425439620107277
        }
      },
      "formatted_address": "6FW5GC2G+MPW, Ago are8, 203104, Ago-Are, Nigeria",
      "google_map_url": "https://maps.google.com?q=8.501665,3.426834",
      "google_place_id": "ChIJY4VJNLshMRARACzaevrn5Sk"
    }
  },
  {
    "id": "352974",
    "name": "SECOND BAPT. PRIMARY SCHOOL II (B)",
    "registration_area_id": "18073",
    "precise_location": null,
    "abbreviation": "009",
    "units": "009",
    "delimitation": "30/04/08/009",
    "remark": "EXISTING PU",
    "ward_id": "18073",
    "ward_name": "AGO ARE II",
    "local_government_id": "631",
    "local_government_name": "ATISBO",
    "state_id": "30",
    "state_name": "OYO",
    "location": {
      "latitude": 8.501665,
      "longitude": 3.426834,
      "viewport": {
        "northeast": {
          "lat": 8.503022829892723,
          "lng": 3.428139279892722
        },
        "southwest": {
          "lat": 8.50032317010728,
          "lng": 3.425439620107277
        }
      },
      "formatted_address": "6FW5GC2G+MPW, Ago are8, 203104, Ago-Are, Nigeria",
      "google_map_url": "https://maps.google.com?q=8.501665,3.426834",
      "google_place_id": "ChIJY4VJNLshMRARACzaevrn5Sk"
    }
  },
  {
    "id": "352975",
    "name": "ARIKA COMPOUND AREA I",
    "registration_area_id": "18073",
    "precise_location": null,
    "abbreviation": "010",
    "units": "010",
    "delimitation": "30/04/08/010",
    "remark": "EXISTING PU",
    "ward_id": "18073",
    "ward_name": "AGO ARE II",
    "local_government_id": "631",
    "local_government_name": "ATISBO",
    "state_id": "30",
    "state_name": "OYO",
    "location": null
  },
  {
    "id": "352976",
    "name": "ARIKA COMPOUND AREA II",
    "registration_area_id": "18073",
    "precise_location": null,
    "abbreviation": "011",
    "units": "011",
    "delimitation": "30/04/08/011",
    "remark": "EXISTING PU",
    "ward_id": "18073",
    "ward_name": "AGO ARE II",
    "local_government_id": "631",
    "local_government_name": "ATISBO",
    "state_id": "30",
    "state_name": "OYO",
    "location": {
      "latitude": 8.4055694,
      "longitude": 3.3656439,
      "viewport": {
        "northeast": {
          "lat": 8.406508729892723,
          "lng": 3.366712429892722
        },
        "southwest": {
          "lat": 8.403809070107279,
          "lng": 3.364012770107278
        }
      },
      "formatted_address": "C948+67C, Unnamed Road, 203105, Agunrege, Nigeria",
      "google_map_url": "https://maps.google.com?q=8.4055694,3.3656439",
      "google_place_id": "ChIJczcgns7hMBARgDXVIbXSbEw"
    }
  },
  {
    "id": "352977",
    "name": "ABA RAHEEM I",
    "registration_area_id": "18073",
    "precise_location": null,
    "abbreviation": "012",
    "units": "012",
    "delimitation": "30/04/08/012",
    "remark": "EXISTING PU",
    "ward_id": "18073",
    "ward_name": "AGO ARE II",
    "local_government_id": "631",
    "local_government_name": "ATISBO",
    "state_id": "30",
    "state_name": "OYO",
    "location": {
      "latitude": 8.544219199999999,
      "longitude": 3.4409757,
      "viewport": {
        "northeast": {
          "lat": 8.545472329892721,
          "lng": 3.442506279892722
        },
        "southwest": {
          "lat": 8.542772670107277,
          "lng": 3.439806620107277
        }
      },
      "formatted_address": "GCVR+M9W, 203104, Tede, Nigeria",
      "google_map_url": "https://maps.google.com?q=8.544219199999999,3.4409757",
      "google_place_id": "ChIJiUjwwZIhMRARI08ceLYIlrU"
    }
  },
  {
    "id": "352978",
    "name": "ABA RAHEEM II",
    "registration_area_id": "18073",
    "precise_location": null,
    "abbreviation": "013",
    "units": "013",
    "delimitation": "30/04/08/013",
    "remark": "EXISTING PU",
    "ward_id": "18073",
    "ward_name": "AGO ARE II",
    "local_government_id": "631",
    "local_government_name": "ATISBO",
    "state_id": "30",
    "state_name": "OYO",
    "location": null
  },
  {
    "id": "352979",
    "name": "SOBALOJU COMPOUND",
    "registration_area_id": "18073",
    "precise_location": null,
    "abbreviation": "014",
    "units": "014",
    "delimitation": "30/04/08/014",
    "remark": "EXISTING PU",
    "ward_id": "18073",
    "ward_name": "AGO ARE II",
    "local_government_id": "631",
    "local_government_name": "ATISBO",
    "state_id": "30",
    "state_name": "OYO",
    "location": {
      "latitude": 8.4964773,
      "longitude": 3.4102063,
      "viewport": {
        "northeast": {
          "lat": 8.497361579892722,
          "lng": 3.411751929892723
        },
        "southwest": {
          "lat": 8.494661920107278,
          "lng": 3.409052270107278
        }
      },
      "formatted_address": "FCW6+H3R, Unnamed Road, 203106, Ago-Are, Nigeria",
      "google_map_url": "https://maps.google.com?q=8.4964773,3.4102063",
      "google_place_id": "ChIJAcetPTofMRARR85Y5YXFz7k"
    }
  },
  {
    "id": "352980",
    "name": "ABA SIMEON",
    "registration_area_id": "18073",
    "precise_location": null,
    "abbreviation": "015",
    "units": "015",
    "delimitation": "30/04/08/015",
    "remark": "EXISTING PU",
    "ward_id": "18073",
    "ward_name": "AGO ARE II",
    "local_government_id": "631",
    "local_government_name": "ATISBO",
    "state_id": "30",
    "state_name": "OYO",
    "location": {
      "latitude": 8.410561999999999,
      "longitude": 3.504689,
      "viewport": {
        "northeast": {
          "lat": 8.41178072989272,
          "lng": 3.505821429892723
        },
        "southwest": {
          "lat": 8.409081070107277,
          "lng": 3.503121770107278
        }
      },
      "formatted_address": "6FW5CG63+6VG Ago are 8 Aba, raimi atisbo, Aiyetoro, Nigeria",
      "google_map_url": "https://maps.google.com?q=8.410561999999999,3.504689",
      "google_place_id": "ChIJleUdi1_ZMBARWBGlU2kCgOc"
    }
  },
  {
    "id": "352981",
    "name": "AKEWE COMPOUND",
    "registration_area_id": "18073",
    "precise_location": null,
    "abbreviation": "016",
    "units": "016",
    "delimitation": "30/04/08/016",
    "remark": "EXISTING PU",
    "ward_id": "18073",
    "ward_name": "AGO ARE II",
    "local_government_id": "631",
    "local_government_name": "ATISBO",
    "state_id": "30",
    "state_name": "OYO",
    "location": {
      "latitude": 8.4964773,
      "longitude": 3.4102063,
      "viewport": {
        "northeast": {
          "lat": 8.497361579892722,
          "lng": 3.411751929892723
        },
        "southwest": {
          "lat": 8.494661920107278,
          "lng": 3.409052270107278
        }
      },
      "formatted_address": "FCW6+H3R, Unnamed Road, 203106, Ago-Are, Nigeria",
      "google_map_url": "https://maps.google.com?q=8.4964773,3.4102063",
      "google_place_id": "ChIJAcetPTofMRARR85Y5YXFz7k"
    }
  },
  {
    "id": "352982",
    "name": "BAPTIST SECONDARY SCHOOL/CO-OPERATIVE",
    "registration_area_id": "18073",
    "precise_location": null,
    "abbreviation": "017",
    "units": "017",
    "delimitation": "30/04/08/017",
    "remark": "EXISTING PU",
    "ward_id": "18073",
    "ward_name": "AGO ARE II",
    "local_government_id": "631",
    "local_government_name": "ATISBO",
    "state_id": "30",
    "state_name": "OYO",
    "location": {
      "latitude": 8.516472199999999,
      "longitude": 3.418293,
      "viewport": {
        "northeast": {
          "lat": 8.517670729892721,
          "lng": 3.419041629892722
        },
        "southwest": {
          "lat": 8.514971070107277,
          "lng": 3.416341970107277
        }
      },
      "formatted_address": "GC89+H8M, 203104, Ago-Are, Nigeria",
      "google_map_url": "https://maps.google.com?q=8.516472199999999,3.418293",
      "google_place_id": "ChIJkWbVN34fMRARaGlLfj5MTyE"
    }
  },
  {
    "id": "352983",
    "name": "BALODE COMPOUND",
    "registration_area_id": "18073",
    "precise_location": null,
    "abbreviation": "018",
    "units": "018",
    "delimitation": "30/04/08/018",
    "remark": "EXISTING PU",
    "ward_id": "18073",
    "ward_name": "AGO ARE II",
    "local_government_id": "631",
    "local_government_name": "ATISBO",
    "state_id": "30",
    "state_name": "OYO",
    "location": {
      "latitude": 8.4964773,
      "longitude": 3.4102063,
      "viewport": {
        "northeast": {
          "lat": 8.497361579892722,
          "lng": 3.411751929892723
        },
        "southwest": {
          "lat": 8.494661920107278,
          "lng": 3.409052270107278
        }
      },
      "formatted_address": "FCW6+H3R, Unnamed Road, 203106, Ago-Are, Nigeria",
      "google_map_url": "https://maps.google.com?q=8.4964773,3.4102063",
      "google_place_id": "ChIJAcetPTofMRARR85Y5YXFz7k"
    }
  }
]