[
  {
    "id": "57404",
    "name": "OKPURUKPU HALL",
    "registration_area_id": "3112",
    "precise_location": null,
    "abbreviation": "001",
    "units": "001",
    "delimitation": "14/10/03/001",
    "remark": "EXISTING PU",
    "ward_id": "3112",
    "ward_name": "NEKE I",
    "local_government_id": "268",
    "local_government_name": "ISI UZO",
    "state_id": "14",
    "state_name": "ENUGU",
    "location": {
      "latitude": 6.7735911,
      "longitude": 7.660869399999999,
      "viewport": {
        "northeast": {
          "lat": 6.774874729892723,
          "lng": 7.662099329892723
        },
        "southwest": {
          "lat": 6.772175070107279,
          "lng": 7.65939967010728
        }
      },
      "formatted_address": "QMF6+C8Q, Neke, Isi-Uzo, State, Church Rd, Enugu, Nigeria",
      "google_map_url": "https://maps.google.com?q=6.7735911,7.660869399999999",
      "google_place_id": "ChIJX8VHoyzJRBARdYUi85vSVhs"
    }
  },
  {
    "id": "57405",
    "name": "ONUEME HALL",
    "registration_area_id": "3112",
    "precise_location": null,
    "abbreviation": "002",
    "units": "002",
    "delimitation": "14/10/03/002",
    "remark": "EXISTING PU",
    "ward_id": "3112",
    "ward_name": "NEKE I",
    "local_government_id": "268",
    "local_government_name": "ISI UZO",
    "state_id": "14",
    "state_name": "ENUGU",
    "location": {
      "latitude": 6.7735911,
      "longitude": 7.660869399999999,
      "viewport": {
        "northeast": {
          "lat": 6.774874729892723,
          "lng": 7.662099329892723
        },
        "southwest": {
          "lat": 6.772175070107279,
          "lng": 7.65939967010728
        }
      },
      "formatted_address": "QMF6+C8Q, Neke, Isi-Uzo, State, Church Rd, Enugu, Nigeria",
      "google_map_url": "https://maps.google.com?q=6.7735911,7.660869399999999",
      "google_place_id": "ChIJX8VHoyzJRBARdYUi85vSVhs"
    }
  },
  {
    "id": "57406",
    "name": "UGWUADAKA",
    "registration_area_id": "3112",
    "precise_location": null,
    "abbreviation": "003",
    "units": "003",
    "delimitation": "14/10/03/003",
    "remark": "EXISTING PU",
    "ward_id": "3112",
    "ward_name": "NEKE I",
    "local_government_id": "268",
    "local_government_name": "ISI UZO",
    "state_id": "14",
    "state_name": "ENUGU",
    "location": {
      "latitude": 6.774028899999999,
      "longitude": 7.660488899999999,
      "viewport": {
        "northeast": {
          "lat": 6.775473179892722,
          "lng": 7.661810029892723
        },
        "southwest": {
          "lat": 6.772773520107278,
          "lng": 7.659110370107279
        }
      },
      "formatted_address": "QMF6+J59, Neke, Isi-Uzo, State, Enugu, Nigeria",
      "google_map_url": "https://maps.google.com?q=6.774028899999999,7.660488899999999",
      "google_place_id": "ChIJY6SYqCzJRBARaFMYAO6aZUY"
    }
  },
  {
    "id": "57407",
    "name": "OBORO ISIENU",
    "registration_area_id": "3112",
    "precise_location": null,
    "abbreviation": "004",
    "units": "004",
    "delimitation": "14/10/03/004",
    "remark": "EXISTING PU",
    "ward_id": "3112",
    "ward_name": "NEKE I",
    "local_government_id": "268",
    "local_government_name": "ISI UZO",
    "state_id": "14",
    "state_name": "ENUGU",
    "location": {
      "latitude": 6.777555,
      "longitude": 7.717415099999999,
      "viewport": {
        "northeast": {
          "lat": 6.778947079892722,
          "lng": 7.718804779892722
        },
        "southwest": {
          "lat": 6.776247420107278,
          "lng": 7.716105120107278
        }
      },
      "formatted_address": "QPH8+2XF, Obollo Afor-Nkalagu Road, 412102, Ikem, Nigeria",
      "google_map_url": "https://maps.google.com?q=6.777555,7.717415099999999",
      "google_place_id": "ChIJd_NTJPrNRBAR9w9yfZqGvOk"
    }
  },
  {
    "id": "57408",
    "name": "AGUDENE NEKE PRIMARY SCHOOL",
    "registration_area_id": "3112",
    "precise_location": null,
    "abbreviation": "005",
    "units": "005",
    "delimitation": "14/10/03/005",
    "remark": "EXISTING PU",
    "ward_id": "3112",
    "ward_name": "NEKE I",
    "local_government_id": "268",
    "local_government_name": "ISI UZO",
    "state_id": "14",
    "state_name": "ENUGU",
    "location": null
  },
  {
    "id": "57409",
    "name": "PRIMARY SCHOOL ONUEME",
    "registration_area_id": "3112",
    "precise_location": null,
    "abbreviation": "006",
    "units": "006",
    "delimitation": "14/10/03/006",
    "remark": "EXISTING PU",
    "ward_id": "3112",
    "ward_name": "NEKE I",
    "local_government_id": "268",
    "local_government_name": "ISI UZO",
    "state_id": "14",
    "state_name": "ENUGU",
    "location": {
      "latitude": 6.775252399999999,
      "longitude": 7.661337400000001,
      "viewport": {
        "northeast": {
          "lat": 6.776534879892721,
          "lng": 7.662901329892722
        },
        "southwest": {
          "lat": 6.773835220107277,
          "lng": 7.660201670107278
        }
      },
      "formatted_address": "QMG6+4G4, Neke, Isi-Uzo, State, Enugu, Nigeria",
      "google_map_url": "https://maps.google.com?q=6.775252399999999,7.661337400000001",
      "google_place_id": "ChIJMx--SNPORBARkdurRbFjL0s"
    }
  },
  {
    "id": "57410",
    "name": "UGWUADAKA HEALTH CENTER",
    "registration_area_id": "3112",
    "precise_location": null,
    "abbreviation": "007",
    "units": "007",
    "delimitation": "14/10/03/007",
    "remark": "NEW PU",
    "ward_id": "3112",
    "ward_name": "NEKE I",
    "local_government_id": "268",
    "local_government_name": "ISI UZO",
    "state_id": "14",
    "state_name": "ENUGU",
    "location": {
      "latitude": 6.774028899999999,
      "longitude": 7.660488899999999,
      "viewport": {
        "northeast": {
          "lat": 6.775473179892722,
          "lng": 7.661810029892723
        },
        "southwest": {
          "lat": 6.772773520107278,
          "lng": 7.659110370107279
        }
      },
      "formatted_address": "QMF6+J59, Neke, Isi-Uzo, State, Enugu, Nigeria",
      "google_map_url": "https://maps.google.com?q=6.774028899999999,7.660488899999999",
      "google_place_id": "ChIJY6SYqCzJRBARaFMYAO6aZUY"
    }
  },
  {
    "id": "57411",
    "name": "UNO NEKE CIVIC CENTER",
    "registration_area_id": "3112",
    "precise_location": null,
    "abbreviation": "008",
    "units": "008",
    "delimitation": "14/10/03/008",
    "remark": "NEW PU",
    "ward_id": "3112",
    "ward_name": "NEKE I",
    "local_government_id": "268",
    "local_government_name": "ISI UZO",
    "state_id": "14",
    "state_name": "ENUGU",
    "location": {
      "latitude": 6.774028899999999,
      "longitude": 7.660488899999999,
      "viewport": {
        "northeast": {
          "lat": 6.775473179892722,
          "lng": 7.661810029892723
        },
        "southwest": {
          "lat": 6.772773520107278,
          "lng": 7.659110370107279
        }
      },
      "formatted_address": "QMF6+J59, Neke, Isi-Uzo, State, Enugu, Nigeria",
      "google_map_url": "https://maps.google.com?q=6.774028899999999,7.660488899999999",
      "google_place_id": "ChIJY6SYqCzJRBARaFMYAO6aZUY"
    }
  },
  {
    "id": "57412",
    "name": "C S S UZOUHU ISIENU",
    "registration_area_id": "3112",
    "precise_location": null,
    "abbreviation": "009",
    "units": "009",
    "delimitation": "14/10/03/009",
    "remark": "NEW PU",
    "ward_id": "3112",
    "ward_name": "NEKE I",
    "local_government_id": "268",
    "local_government_name": "ISI UZO",
    "state_id": "14",
    "state_name": "ENUGU",
    "location": {
      "latitude": 6.7735911,
      "longitude": 7.660869399999999,
      "viewport": {
        "northeast": {
          "lat": 6.774874729892723,
          "lng": 7.662099329892723
        },
        "southwest": {
          "lat": 6.772175070107279,
          "lng": 7.65939967010728
        }
      },
      "formatted_address": "QMF6+C8Q, Neke, Isi-Uzo, State, Church Rd, Enugu, Nigeria",
      "google_map_url": "https://maps.google.com?q=6.7735911,7.660869399999999",
      "google_place_id": "ChIJX8VHoyzJRBARdYUi85vSVhs"
    }
  },
  {
    "id": "57413",
    "name": "C S S EMEORA NEKE",
    "registration_area_id": "3112",
    "precise_location": null,
    "abbreviation": "010",
    "units": "010",
    "delimitation": "14/10/03/010",
    "remark": "NEW PU",
    "ward_id": "3112",
    "ward_name": "NEKE I",
    "local_government_id": "268",
    "local_government_name": "ISI UZO",
    "state_id": "14",
    "state_name": "ENUGU",
    "location": {
      "latitude": 6.775252399999999,
      "longitude": 7.661337400000001,
      "viewport": {
        "northeast": {
          "lat": 6.776534879892721,
          "lng": 7.662901329892722
        },
        "southwest": {
          "lat": 6.773835220107277,
          "lng": 7.660201670107278
        }
      },
      "formatted_address": "QMG6+4G4, Neke, Isi-Uzo, State, Enugu, Nigeria",
      "google_map_url": "https://maps.google.com?q=6.775252399999999,7.661337400000001",
      "google_place_id": "ChIJMx--SNPORBARkdurRbFjL0s"
    }
  }
]