[
  {
    "id": "54953",
    "name": "AT ILEGEMO - ILEGEMO I",
    "registration_area_id": "2970",
    "precise_location": null,
    "abbreviation": "001",
    "units": "001",
    "delimitation": "13/16/08/001",
    "remark": "EXISTING PU",
    "ward_id": "2970",
    "ward_name": "IRE  II",
    "local_government_id": "258",
    "local_government_name": "OYE",
    "state_id": "13",
    "state_name": "EKITI",
    "location": {
      "latitude": 7.797908499999999,
      "longitude": 5.3283692,
      "viewport": {
        "northeast": {
          "lat": 7.799149779892723,
          "lng": 5.329636429892721
        },
        "southwest": {
          "lat": 7.796450120107279,
          "lng": 5.326936770107277
        }
      },
      "formatted_address": "Q8XH+589, Fuoye, Ise-Iso Road, Ekiti, Oye, Nigeria",
      "google_map_url": "https://maps.google.com?q=7.797908499999999,5.3283692",
      "google_place_id": "ChIJ07qGAMsLSBARSfqMojnoHLA"
    }
  },
  {
    "id": "54954",
    "name": "AT IFESOWAPO - CO-OP - INIDARA",
    "registration_area_id": "2970",
    "precise_location": null,
    "abbreviation": "002",
    "units": "002",
    "delimitation": "13/16/08/002",
    "remark": "EXISTING PU",
    "ward_id": "2970",
    "ward_name": "IRE  II",
    "local_government_id": "258",
    "local_government_name": "OYE",
    "state_id": "13",
    "state_name": "EKITI",
    "location": {
      "latitude": 7.801802899999998,
      "longitude": 5.3321125,
      "viewport": {
        "northeast": {
          "lat": 7.803083779892718,
          "lng": 5.333465079892721
        },
        "southwest": {
          "lat": 7.800384120107275,
          "lng": 5.330765420107277
        }
      },
      "formatted_address": "R82J+PRH, 370112, Oye, Nigeria",
      "google_map_url": "https://maps.google.com?q=7.801802899999998,5.3321125",
      "google_place_id": "ChIJ-297FrYLSBARuiijMibvF-s"
    }
  },
  {
    "id": "54955",
    "name": "ST JOHN PRIMARY SCHOOL - ILEFA 1",
    "registration_area_id": "2970",
    "precise_location": null,
    "abbreviation": "003",
    "units": "003",
    "delimitation": "13/16/08/003",
    "remark": "EXISTING PU",
    "ward_id": "2970",
    "ward_name": "IRE  II",
    "local_government_id": "258",
    "local_government_name": "OYE",
    "state_id": "13",
    "state_name": "EKITI",
    "location": {
      "latitude": 7.953544099999999,
      "longitude": 5.2362543,
      "viewport": {
        "northeast": {
          "lat": 7.954923329892722,
          "lng": 5.237525979892723
        },
        "southwest": {
          "lat": 7.952223670107278,
          "lng": 5.234826320107279
        }
      },
      "formatted_address": "St Johns Primary School, 360103, Iye, Nigeria",
      "google_map_url": "https://maps.google.com?q=7.953544099999999,5.2362543",
      "google_place_id": "ChIJU1uRHXIQSBARfq5KLhmrxVw"
    }
  },
  {
    "id": "54956",
    "name": "OPEN SPACE AT ILAWE - EBI ILAWE I",
    "registration_area_id": "2970",
    "precise_location": null,
    "abbreviation": "004",
    "units": "004",
    "delimitation": "13/16/08/004",
    "remark": "EXISTING PU",
    "ward_id": "2970",
    "ward_name": "IRE  II",
    "local_government_id": "258",
    "local_government_name": "OYE",
    "state_id": "13",
    "state_name": "EKITI",
    "location": null
  },
  {
    "id": "54957",
    "name": "AT ILAWE - EBI ILAWE  II",
    "registration_area_id": "2970",
    "precise_location": null,
    "abbreviation": "005",
    "units": "005",
    "delimitation": "13/16/08/005",
    "remark": "EXISTING PU",
    "ward_id": "2970",
    "ward_name": "IRE  II",
    "local_government_id": "258",
    "local_government_name": "OYE",
    "state_id": "13",
    "state_name": "EKITI",
    "location": {
      "latitude": 7.7795923,
      "longitude": 5.315455099999999,
      "viewport": {
        "northeast": {
          "lat": 7.780986929892721,
          "lng": 5.316631779892723
        },
        "southwest": {
          "lat": 7.778287270107278,
          "lng": 5.313932120107279
        }
      },
      "formatted_address": "Oye-Are Road, 370112, Oye, Nigeria",
      "google_map_url": "https://maps.google.com?q=7.7795923,5.315455099999999",
      "google_place_id": "ChIJAQAAALULSBARgqoBoXJSFyw"
    }
  },
  {
    "id": "54958",
    "name": "OPEN SPACE AT IGBEMO - IGBEMO",
    "registration_area_id": "2970",
    "precise_location": null,
    "abbreviation": "006",
    "units": "006",
    "delimitation": "13/16/08/006",
    "remark": "EXISTING PU",
    "ward_id": "2970",
    "ward_name": "IRE  II",
    "local_government_id": "258",
    "local_government_name": "OYE",
    "state_id": "13",
    "state_name": "EKITI",
    "location": null
  },
  {
    "id": "54959",
    "name": "IN FRONT OF OMOTOSHO'S HOUSE - ILEFA  II",
    "registration_area_id": "2970",
    "precise_location": null,
    "abbreviation": "007",
    "units": "007",
    "delimitation": "13/16/08/007",
    "remark": "EXISTING PU",
    "ward_id": "2970",
    "ward_name": "IRE  II",
    "local_government_id": "258",
    "local_government_name": "OYE",
    "state_id": "13",
    "state_name": "EKITI",
    "location": {
      "latitude": 7.792335899999999,
      "longitude": 5.5082832,
      "viewport": {
        "northeast": {
          "lat": 7.793688279892723,
          "lng": 5.509603879892722
        },
        "southwest": {
          "lat": 7.790988620107279,
          "lng": 5.506904220107279
        }
      },
      "formatted_address": "No. 8 Iledin Street, 370105, Ikole, Nigeria",
      "google_map_url": "https://maps.google.com?q=7.792335899999999,5.5082832",
      "google_place_id": "ChIJ19R6CpR3SBARIregPdVoVXM"
    }
  },
  {
    "id": "54960",
    "name": "IN FRONT OF ADELEYE'S HOUSE - ILEGBEMO   II",
    "registration_area_id": "2970",
    "precise_location": null,
    "abbreviation": "008",
    "units": "008",
    "delimitation": "13/16/08/008",
    "remark": "EXISTING PU",
    "ward_id": "2970",
    "ward_name": "IRE  II",
    "local_government_id": "258",
    "local_government_name": "OYE",
    "state_id": "13",
    "state_name": "EKITI",
    "location": {
      "latitude": 7.7739774,
      "longitude": 5.3117183,
      "viewport": {
        "northeast": {
          "lat": 7.775161779892724,
          "lng": 5.312940729892722
        },
        "southwest": {
          "lat": 7.77246212010728,
          "lng": 5.310241070107278
        }
      },
      "formatted_address": "Q8F6+HPJ, Unnamed Road, 370111, Oye, Nigeria",
      "google_map_url": "https://maps.google.com?q=7.7739774,5.3117183",
      "google_place_id": "ChIJC7IUX-ALSBARY2JVI4ktIQs"
    }
  },
  {
    "id": "54961",
    "name": "BESIDE ADELEYE'S HOUSE - ILEGBEMO  III",
    "registration_area_id": "2970",
    "precise_location": null,
    "abbreviation": "009",
    "units": "009",
    "delimitation": "13/16/08/009",
    "remark": "EXISTING PU",
    "ward_id": "2970",
    "ward_name": "IRE  II",
    "local_government_id": "258",
    "local_government_name": "OYE",
    "state_id": "13",
    "state_name": "EKITI",
    "location": {
      "latitude": 7.797908499999999,
      "longitude": 5.3283692,
      "viewport": {
        "northeast": {
          "lat": 7.799149779892723,
          "lng": 5.329636429892721
        },
        "southwest": {
          "lat": 7.796450120107279,
          "lng": 5.326936770107277
        }
      },
      "formatted_address": "Q8XH+589, Fuoye, Ise-Iso Road, Ekiti, Oye, Nigeria",
      "google_map_url": "https://maps.google.com?q=7.797908499999999,5.3283692",
      "google_place_id": "ChIJ07qGAMsLSBARSfqMojnoHLA"
    }
  },
  {
    "id": "54962",
    "name": "AT COMMUNITY PRIMARY SCHOOL - ILEFA III",
    "registration_area_id": "2970",
    "precise_location": null,
    "abbreviation": "010",
    "units": "010",
    "delimitation": "13/16/08/010",
    "remark": "EXISTING PU",
    "ward_id": "2970",
    "ward_name": "IRE  II",
    "local_government_id": "258",
    "local_government_name": "OYE",
    "state_id": "13",
    "state_name": "EKITI",
    "location": {
      "latitude": 7.845460399999999,
      "longitude": 5.1847329,
      "viewport": {
        "northeast": {
          "lat": 7.846740529892721,
          "lng": 5.186413379892722
        },
        "southwest": {
          "lat": 7.844040870107277,
          "lng": 5.183713720107278
        }
      },
      "formatted_address": "opposite Methodist church, 371103, Ido Ekiti, Nigeria",
      "google_map_url": "https://maps.google.com?q=7.845460399999999,5.1847329",
      "google_place_id": "ChIJLQFrfbEFSBARDMXIwiJrA7M"
    }
  },
  {
    "id": "54963",
    "name": "ABULE ADE OJO - ABULE ADE OJO   I",
    "registration_area_id": "2970",
    "precise_location": null,
    "abbreviation": "011",
    "units": "011",
    "delimitation": "13/16/08/011",
    "remark": "EXISTING PU",
    "ward_id": "2970",
    "ward_name": "IRE  II",
    "local_government_id": "258",
    "local_government_name": "OYE",
    "state_id": "13",
    "state_name": "EKITI",
    "location": null
  },
  {
    "id": "54964",
    "name": "ABULE ADE OJO - ABULE ADE OJO   II",
    "registration_area_id": "2970",
    "precise_location": null,
    "abbreviation": "012",
    "units": "012",
    "delimitation": "13/16/08/012",
    "remark": "EXISTING PU",
    "ward_id": "2970",
    "ward_name": "IRE  II",
    "local_government_id": "258",
    "local_government_name": "OYE",
    "state_id": "13",
    "state_name": "EKITI",
    "location": null
  },
  {
    "id": "54965",
    "name": "IN FRONT OF AKINYELE'S HOUSE - IJISUN",
    "registration_area_id": "2970",
    "precise_location": null,
    "abbreviation": "013",
    "units": "013",
    "delimitation": "13/16/08/013",
    "remark": "EXISTING PU",
    "ward_id": "2970",
    "ward_name": "IRE  II",
    "local_government_id": "258",
    "local_government_name": "OYE",
    "state_id": "13",
    "state_name": "EKITI",
    "location": {
      "latitude": 7.7795923,
      "longitude": 5.315455099999999,
      "viewport": {
        "northeast": {
          "lat": 7.780986929892721,
          "lng": 5.316631779892723
        },
        "southwest": {
          "lat": 7.778287270107278,
          "lng": 5.313932120107279
        }
      },
      "formatted_address": "Oye-Are Road, 370112, Oye, Nigeria",
      "google_map_url": "https://maps.google.com?q=7.7795923,5.315455099999999",
      "google_place_id": "ChIJAQAAALULSBARgqoBoXJSFyw"
    }
  },
  {
    "id": "54966",
    "name": "IN FRONT OF ADELABU'S HOUSE - ILADO",
    "registration_area_id": "2970",
    "precise_location": null,
    "abbreviation": "014",
    "units": "014",
    "delimitation": "13/16/08/014",
    "remark": "EXISTING PU",
    "ward_id": "2970",
    "ward_name": "IRE  II",
    "local_government_id": "258",
    "local_government_name": "OYE",
    "state_id": "13",
    "state_name": "EKITI",
    "location": null
  },
  {
    "id": "54967",
    "name": "IN FRONT OF FAMUWOLE'S HOUSE - SURULERE I",
    "registration_area_id": "2970",
    "precise_location": null,
    "abbreviation": "015",
    "units": "015",
    "delimitation": "13/16/08/015",
    "remark": "EXISTING PU",
    "ward_id": "2970",
    "ward_name": "IRE  II",
    "local_government_id": "258",
    "local_government_name": "OYE",
    "state_id": "13",
    "state_name": "EKITI",
    "location": {
      "latitude": 7.7795923,
      "longitude": 5.315455099999999,
      "viewport": {
        "northeast": {
          "lat": 7.780986929892721,
          "lng": 5.316631779892723
        },
        "southwest": {
          "lat": 7.778287270107278,
          "lng": 5.313932120107279
        }
      },
      "formatted_address": "Oye-Are Road, 370112, Oye, Nigeria",
      "google_map_url": "https://maps.google.com?q=7.7795923,5.315455099999999",
      "google_place_id": "ChIJAQAAALULSBARgqoBoXJSFyw"
    }
  },
  {
    "id": "54968",
    "name": "IN FRONT OF FAGBEMIGUN'S HOUSE - ILABO",
    "registration_area_id": "2970",
    "precise_location": null,
    "abbreviation": "016",
    "units": "016",
    "delimitation": "13/16/08/016",
    "remark": "EXISTING PU",
    "ward_id": "2970",
    "ward_name": "IRE  II",
    "local_government_id": "258",
    "local_government_name": "OYE",
    "state_id": "13",
    "state_name": "EKITI",
    "location": null
  },
  {
    "id": "54969",
    "name": "AT IJU - IJU",
    "registration_area_id": "2970",
    "precise_location": null,
    "abbreviation": "017",
    "units": "017",
    "delimitation": "13/16/08/017",
    "remark": "EXISTING PU",
    "ward_id": "2970",
    "ward_name": "IRE  II",
    "local_government_id": "258",
    "local_government_name": "OYE",
    "state_id": "13",
    "state_name": "EKITI",
    "location": {
      "latitude": 7.7795923,
      "longitude": 5.315455099999999,
      "viewport": {
        "northeast": {
          "lat": 7.780986929892721,
          "lng": 5.316631779892723
        },
        "southwest": {
          "lat": 7.778287270107278,
          "lng": 5.313932120107279
        }
      },
      "formatted_address": "Oye-Are Road, 370112, Oye, Nigeria",
      "google_map_url": "https://maps.google.com?q=7.7795923,5.315455099999999",
      "google_place_id": "ChIJAQAAALULSBARgqoBoXJSFyw"
    }
  },
  {
    "id": "54970",
    "name": "IN FRONT OF SALOTUN'S HOUSE - ABULE ADE OJO III",
    "registration_area_id": "2970",
    "precise_location": null,
    "abbreviation": "018",
    "units": "018",
    "delimitation": "13/16/08/018",
    "remark": "EXISTING PU",
    "ward_id": "2970",
    "ward_name": "IRE  II",
    "local_government_id": "258",
    "local_government_name": "OYE",
    "state_id": "13",
    "state_name": "EKITI",
    "location": null
  },
  {
    "id": "54971",
    "name": "IN FRONT OF OPERARU'S HOUSE - SURULERE II",
    "registration_area_id": "2970",
    "precise_location": null,
    "abbreviation": "019",
    "units": "019",
    "delimitation": "13/16/08/019",
    "remark": "EXISTING PU",
    "ward_id": "2970",
    "ward_name": "IRE  II",
    "local_government_id": "258",
    "local_government_name": "OYE",
    "state_id": "13",
    "state_name": "EKITI",
    "location": {
      "latitude": 7.7795923,
      "longitude": 5.315455099999999,
      "viewport": {
        "northeast": {
          "lat": 7.780986929892721,
          "lng": 5.316631779892723
        },
        "southwest": {
          "lat": 7.778287270107278,
          "lng": 5.313932120107279
        }
      },
      "formatted_address": "Oye-Are Road, 370112, Oye, Nigeria",
      "google_map_url": "https://maps.google.com?q=7.7795923,5.315455099999999",
      "google_place_id": "ChIJAQAAALULSBARgqoBoXJSFyw"
    }
  }
]