[
  {
    "id": "122667",
    "name": "BESIDE THE PLAYING GROUND, KETU",
    "registration_area_id": "6051",
    "precise_location": null,
    "abbreviation": "001",
    "units": "001",
    "delimitation": "24/17/06/001",
    "remark": "EXISTING PU",
    "ward_id": "6051",
    "ward_name": "ILOGBO",
    "local_government_id": "522",
    "local_government_name": "OJO",
    "state_id": "24",
    "state_name": "LAGOS",
    "location": {
      "latitude": 6.490799699999999,
      "longitude": 3.1571835,
      "viewport": {
        "northeast": {
          "lat": 6.492108529892722,
          "lng": 3.158601079892723
        },
        "southwest": {
          "lat": 6.489408870107278,
          "lng": 3.155901420107278
        }
      },
      "formatted_address": "F5R4+8V8, Ojo 102101, Lagos, Nigeria",
      "google_map_url": "https://maps.google.com?q=6.490799699999999,3.1571835",
      "google_place_id": "ChIJE75em92DOxARJdTeXDou1wM"
    }
  },
  {
    "id": "122668",
    "name": "OPEN SPACE WITHIN KETU VILLAGE NEAR FALOYES",
    "registration_area_id": "6051",
    "precise_location": null,
    "abbreviation": "002",
    "units": "002",
    "delimitation": "24/17/06/002",
    "remark": "EXISTING PU",
    "ward_id": "6051",
    "ward_name": "ILOGBO",
    "local_government_id": "522",
    "local_government_name": "OJO",
    "state_id": "24",
    "state_name": "LAGOS",
    "location": {
      "latitude": 6.490564699999999,
      "longitude": 3.1559338,
      "viewport": {
        "northeast": {
          "lat": 6.491893679892722,
          "lng": 3.157342979892722
        },
        "southwest": {
          "lat": 6.489194020107278,
          "lng": 3.154643320107277
        }
      },
      "formatted_address": "Kilometre, 24 Lagos - Badagry Expy, Ojo, Lagos, Nigeria",
      "google_map_url": "https://maps.google.com?q=6.490564699999999,3.1559338",
      "google_place_id": "ChIJv-I42FCDOxARnNDpySQjJq0"
    }
  },
  {
    "id": "122669",
    "name": "L.A. PRY. SCH. ERA I",
    "registration_area_id": "6051",
    "precise_location": null,
    "abbreviation": "003",
    "units": "003",
    "delimitation": "24/17/06/003",
    "remark": "EXISTING PU",
    "ward_id": "6051",
    "ward_name": "ILOGBO",
    "local_government_id": "522",
    "local_government_name": "OJO",
    "state_id": "24",
    "state_name": "LAGOS",
    "location": {
      "latitude": 6.481909,
      "longitude": 3.133775,
      "viewport": {
        "northeast": {
          "lat": 6.483137479892722,
          "lng": 3.134847379892723
        },
        "southwest": {
          "lat": 6.480437820107278,
          "lng": 3.132147720107278
        }
      },
      "formatted_address": "F4JM+QG6, Unnamed Road, Ojo 102101, Lagos, Nigeria",
      "google_map_url": "https://maps.google.com?q=6.481909,3.133775",
      "google_place_id": "ChIJf2-f3puBOxARo5hl6ilj8QU"
    }
  },
  {
    "id": "122670",
    "name": "L.A. PRY. SCH. ERA II",
    "registration_area_id": "6051",
    "precise_location": null,
    "abbreviation": "004",
    "units": "004",
    "delimitation": "24/17/06/004",
    "remark": "EXISTING PU",
    "ward_id": "6051",
    "ward_name": "ILOGBO",
    "local_government_id": "522",
    "local_government_name": "OJO",
    "state_id": "24",
    "state_name": "LAGOS",
    "location": {
      "latitude": 6.4670842,
      "longitude": 3.1431839,
      "viewport": {
        "northeast": {
          "lat": 6.468521829892721,
          "lng": 3.144576879892722
        },
        "southwest": {
          "lat": 6.465822170107277,
          "lng": 3.141877220107278
        }
      },
      "formatted_address": "F48V+R7M, Ilogbo Rd, Ojo 102101, Lagos, Nigeria",
      "google_map_url": "https://maps.google.com?q=6.4670842,3.1431839",
      "google_place_id": "ChIJNQnO_XOBOxARIvvAWwsiIls"
    }
  },
  {
    "id": "122671",
    "name": "L.A. PRY. SCH. ILOGBO (SIDE A)",
    "registration_area_id": "6051",
    "precise_location": null,
    "abbreviation": "005",
    "units": "005",
    "delimitation": "24/17/06/005",
    "remark": "EXISTING PU",
    "ward_id": "6051",
    "ward_name": "ILOGBO",
    "local_government_id": "522",
    "local_government_name": "OJO",
    "state_id": "24",
    "state_name": "LAGOS",
    "location": {
      "latitude": 6.464768599999999,
      "longitude": 3.1577998,
      "viewport": {
        "northeast": {
          "lat": 6.466057279892722,
          "lng": 3.159151229892722
        },
        "southwest": {
          "lat": 6.463357620107278,
          "lng": 3.156451570107277
        }
      },
      "formatted_address": "F575+V4V, Ilogbo Road, Ojo 102101, Lagos, Nigeria",
      "google_map_url": "https://maps.google.com?q=6.464768599999999,3.1577998",
      "google_place_id": "ChIJ30y2f2qBOxARo0zZUzCsSNU"
    }
  },
  {
    "id": "122672",
    "name": "L.A. PRY. SCH. ILOGBO (SIDE B)",
    "registration_area_id": "6051",
    "precise_location": null,
    "abbreviation": "006",
    "units": "006",
    "delimitation": "24/17/06/006",
    "remark": "EXISTING PU",
    "ward_id": "6051",
    "ward_name": "ILOGBO",
    "local_government_id": "522",
    "local_government_name": "OJO",
    "state_id": "24",
    "state_name": "LAGOS",
    "location": {
      "latitude": 6.464768599999999,
      "longitude": 3.1577998,
      "viewport": {
        "northeast": {
          "lat": 6.466057279892722,
          "lng": 3.159151229892722
        },
        "southwest": {
          "lat": 6.463357620107278,
          "lng": 3.156451570107277
        }
      },
      "formatted_address": "F575+V4V, Ilogbo Road, Ojo 102101, Lagos, Nigeria",
      "google_map_url": "https://maps.google.com?q=6.464768599999999,3.1577998",
      "google_place_id": "ChIJ30y2f2qBOxARo0zZUzCsSNU"
    }
  },
  {
    "id": "122673",
    "name": "OPEN SPACE AT PLAYING GROUND",
    "registration_area_id": "6051",
    "precise_location": null,
    "abbreviation": "007",
    "units": "007",
    "delimitation": "24/17/06/007",
    "remark": "EXISTING PU",
    "ward_id": "6051",
    "ward_name": "ILOGBO",
    "local_government_id": "522",
    "local_government_name": "OJO",
    "state_id": "24",
    "state_name": "LAGOS",
    "location": {
      "latitude": 6.4581481,
      "longitude": 3.2019768,
      "viewport": {
        "northeast": {
          "lat": 6.459720829892722,
          "lng": 3.203448729892722
        },
        "southwest": {
          "lat": 6.457021170107278,
          "lng": 3.200749070107277
        }
      },
      "formatted_address": "Local Government, 31 Ojo Alaba Rago Rd, Ojo 102101, Lagos, Nigeria",
      "google_map_url": "https://maps.google.com?q=6.4581481,3.2019768",
      "google_place_id": "ChIJIwwDPoKHOxARCEGccrH7Fug"
    }
  },
  {
    "id": "122674",
    "name": "SHIBIRI JUNCTION BY ETEGBIN RD (RIGHT SIDE) I",
    "registration_area_id": "6051",
    "precise_location": null,
    "abbreviation": "008",
    "units": "008",
    "delimitation": "24/17/06/008",
    "remark": "EXISTING PU",
    "ward_id": "6051",
    "ward_name": "ILOGBO",
    "local_government_id": "522",
    "local_government_name": "OJO",
    "state_id": "24",
    "state_name": "LAGOS",
    "location": {
      "latitude": 6.450668299999999,
      "longitude": 3.1330748,
      "viewport": {
        "northeast": {
          "lat": 6.451981029892721,
          "lng": 3.134417879892722
        },
        "southwest": {
          "lat": 6.449281370107277,
          "lng": 3.131718220107278
        }
      },
      "formatted_address": "14b Adebola Sule St, Shibiri 930283, Lagos, Nigeria",
      "google_map_url": "https://maps.google.com?q=6.450668299999999,3.1330748",
      "google_place_id": "ChIJ11JPYAqBOxARfsqNxZBChbA"
    }
  },
  {
    "id": "122675",
    "name": "SHIBIRI JUNCTION BY ETEGBIN RD (RIGHT SIDE) II",
    "registration_area_id": "6051",
    "precise_location": null,
    "abbreviation": "009",
    "units": "009",
    "delimitation": "24/17/06/009",
    "remark": "EXISTING PU",
    "ward_id": "6051",
    "ward_name": "ILOGBO",
    "local_government_id": "522",
    "local_government_name": "OJO",
    "state_id": "24",
    "state_name": "LAGOS",
    "location": {
      "latitude": 6.450668299999999,
      "longitude": 3.1330748,
      "viewport": {
        "northeast": {
          "lat": 6.451981029892721,
          "lng": 3.134417879892722
        },
        "southwest": {
          "lat": 6.449281370107277,
          "lng": 3.131718220107278
        }
      },
      "formatted_address": "14b Adebola Sule St, Shibiri 930283, Lagos, Nigeria",
      "google_map_url": "https://maps.google.com?q=6.450668299999999,3.1330748",
      "google_place_id": "ChIJ11JPYAqBOxARfsqNxZBChbA"
    }
  },
  {
    "id": "122676",
    "name": "JUNCTION OF ORAWA ST. OTTO I",
    "registration_area_id": "6051",
    "precise_location": null,
    "abbreviation": "010",
    "units": "010",
    "delimitation": "24/17/06/010",
    "remark": "EXISTING PU",
    "ward_id": "6051",
    "ward_name": "ILOGBO",
    "local_government_id": "522",
    "local_government_name": "OJO",
    "state_id": "24",
    "state_name": "LAGOS",
    "location": {
      "latitude": 6.5064861,
      "longitude": 3.200731,
      "viewport": {
        "northeast": {
          "lat": 6.50783997989272,
          "lng": 3.202074629892722
        },
        "southwest": {
          "lat": 6.505140320107277,
          "lng": 3.199374970107277
        }
      },
      "formatted_address": "Ojo 102101, Lagos, Nigeria",
      "google_map_url": "https://maps.google.com?q=6.5064861,3.200731",
      "google_place_id": "ChIJFwGoA0GEOxARrV9EBZqhu-A"
    }
  },
  {
    "id": "122677",
    "name": "JUNCTION OF ORAWA ST. OTTO II",
    "registration_area_id": "6051",
    "precise_location": null,
    "abbreviation": "011",
    "units": "011",
    "delimitation": "24/17/06/011",
    "remark": "EXISTING PU",
    "ward_id": "6051",
    "ward_name": "ILOGBO",
    "local_government_id": "522",
    "local_government_name": "OJO",
    "state_id": "24",
    "state_name": "LAGOS",
    "location": {
      "latitude": 6.5064861,
      "longitude": 3.200731,
      "viewport": {
        "northeast": {
          "lat": 6.50783997989272,
          "lng": 3.202074629892722
        },
        "southwest": {
          "lat": 6.505140320107277,
          "lng": 3.199374970107277
        }
      },
      "formatted_address": "Ojo 102101, Lagos, Nigeria",
      "google_map_url": "https://maps.google.com?q=6.5064861,3.200731",
      "google_place_id": "ChIJFwGoA0GEOxARrV9EBZqhu-A"
    }
  },
  {
    "id": "122678",
    "name": "OPEN SPACE AT IJAKE'S OTTO",
    "registration_area_id": "6051",
    "precise_location": null,
    "abbreviation": "012",
    "units": "012",
    "delimitation": "24/17/06/012",
    "remark": "EXISTING PU",
    "ward_id": "6051",
    "ward_name": "ILOGBO",
    "local_government_id": "522",
    "local_government_name": "OJO",
    "state_id": "24",
    "state_name": "LAGOS",
    "location": {
      "latitude": 6.464665999999999,
      "longitude": 3.1577598,
      "viewport": {
        "northeast": {
          "lat": 6.465984329892722,
          "lng": 3.159110429892722
        },
        "southwest": {
          "lat": 6.463284670107278,
          "lng": 3.156410770107278
        }
      },
      "formatted_address": "5, INGENE STREET, Ilogbo Rd, Ojo, Lagos, Nigeria",
      "google_map_url": "https://maps.google.com?q=6.464665999999999,3.1577598",
      "google_place_id": "ChIJ-5RaW7-BOxAR47FcQZGwvwQ"
    }
  },
  {
    "id": "122679",
    "name": "IJAKE'S JUNCTION",
    "registration_area_id": "6051",
    "precise_location": null,
    "abbreviation": "013",
    "units": "013",
    "delimitation": "24/17/06/013",
    "remark": "EXISTING PU",
    "ward_id": "6051",
    "ward_name": "ILOGBO",
    "local_government_id": "522",
    "local_government_name": "OJO",
    "state_id": "24",
    "state_name": "LAGOS",
    "location": {
      "latitude": 6.464768599999999,
      "longitude": 3.1577998,
      "viewport": {
        "northeast": {
          "lat": 6.466057279892722,
          "lng": 3.159151229892722
        },
        "southwest": {
          "lat": 6.463357620107278,
          "lng": 3.156451570107277
        }
      },
      "formatted_address": "SHEBAS BUS STOP, Ilogbo Rd, Ojo, Lagos, Nigeria",
      "google_map_url": "https://maps.google.com?q=6.464768599999999,3.1577998",
      "google_place_id": "ChIJ7_0t8-GBOxARgJb0qybbPds"
    }
  },
  {
    "id": "122680",
    "name": "OPEN SPACE IN FRONT OF AFRICAN METH. CHURCH, OTTO",
    "registration_area_id": "6051",
    "precise_location": null,
    "abbreviation": "014",
    "units": "014",
    "delimitation": "24/17/06/014",
    "remark": "EXISTING PU",
    "ward_id": "6051",
    "ward_name": "ILOGBO",
    "local_government_id": "522",
    "local_government_name": "OJO",
    "state_id": "24",
    "state_name": "LAGOS",
    "location": {
      "latitude": 6.4648106,
      "longitude": 3.1420909,
      "viewport": {
        "northeast": {
          "lat": 6.466199229892721,
          "lng": 3.143443079892722
        },
        "southwest": {
          "lat": 6.463499570107277,
          "lng": 3.140743420107277
        }
      },
      "formatted_address": "F47R+WRP, Ilogbo Rd, Ojo 102101, Lagos, Nigeria",
      "google_map_url": "https://maps.google.com?q=6.4648106,3.1420909",
      "google_place_id": "ChIJ5QlOsf2BOxARAYVyulkB9rw"
    }
  },
  {
    "id": "122681",
    "name": "OPEN SPACE AT GORIOLA'S JUNCTION OTTO-AWORI - I",
    "registration_area_id": "6051",
    "precise_location": null,
    "abbreviation": "015",
    "units": "015",
    "delimitation": "24/17/06/015",
    "remark": "EXISTING PU",
    "ward_id": "6051",
    "ward_name": "ILOGBO",
    "local_government_id": "522",
    "local_government_name": "OJO",
    "state_id": "24",
    "state_name": "LAGOS",
    "location": {
      "latitude": 6.464674899999999,
      "longitude": 3.1581282,
      "viewport": {
        "northeast": {
          "lat": 6.466024729892721,
          "lng": 3.159478029892722
        },
        "southwest": {
          "lat": 6.463325070107278,
          "lng": 3.156778370107278
        }
      },
      "formatted_address": "Ilogbo Rd, Ojo 102101, Alasia, Nigeria",
      "google_map_url": "https://maps.google.com?q=6.464674899999999,3.1581282",
      "google_place_id": "ChIJFxl5LECBOxAR6ji-v-UDD3Y"
    }
  },
  {
    "id": "122682",
    "name": "OPEN SPACE AT GORIOLA'S JUNCTION OTTO-AWORI- II",
    "registration_area_id": "6051",
    "precise_location": null,
    "abbreviation": "016",
    "units": "016",
    "delimitation": "24/17/06/016",
    "remark": "EXISTING PU",
    "ward_id": "6051",
    "ward_name": "ILOGBO",
    "local_government_id": "522",
    "local_government_name": "OJO",
    "state_id": "24",
    "state_name": "LAGOS",
    "location": null
  },
  {
    "id": "122683",
    "name": "OPEN SPACE AT ARAROMI ST.",
    "registration_area_id": "6051",
    "precise_location": null,
    "abbreviation": "017",
    "units": "017",
    "delimitation": "24/17/06/017",
    "remark": "EXISTING PU",
    "ward_id": "6051",
    "ward_name": "ILOGBO",
    "local_government_id": "522",
    "local_government_name": "OJO",
    "state_id": "24",
    "state_name": "LAGOS",
    "location": {
      "latitude": 6.4581481,
      "longitude": 3.2019768,
      "viewport": {
        "northeast": {
          "lat": 6.459720829892722,
          "lng": 3.203448729892722
        },
        "southwest": {
          "lat": 6.457021170107278,
          "lng": 3.200749070107277
        }
      },
      "formatted_address": "Local Government, 31 Ojo Alaba Rago Rd, Ojo 102101, Lagos, Nigeria",
      "google_map_url": "https://maps.google.com?q=6.4581481,3.2019768",
      "google_place_id": "ChIJIwwDPoKHOxARCEGccrH7Fug"
    }
  },
  {
    "id": "122684",
    "name": "OPEN SPACE AT OTTO AWORI B/STOP ALONG THE ROAD",
    "registration_area_id": "6051",
    "precise_location": null,
    "abbreviation": "018",
    "units": "018",
    "delimitation": "24/17/06/018",
    "remark": "EXISTING PU",
    "ward_id": "6051",
    "ward_name": "ILOGBO",
    "local_government_id": "522",
    "local_government_name": "OJO",
    "state_id": "24",
    "state_name": "LAGOS",
    "location": {
      "latitude": 6.4984284,
      "longitude": 3.1160278,
      "viewport": {
        "northeast": {
          "lat": 6.499781729892722,
          "lng": 3.117342929892722
        },
        "southwest": {
          "lat": 6.497082070107278,
          "lng": 3.114643270107277
        }
      },
      "formatted_address": "F4X8+9CC, Ojo 102101, Lagos, Nigeria",
      "google_map_url": "https://maps.google.com?q=6.4984284,3.1160278",
      "google_place_id": "ChIJdXLVaBaCOxARGY_wh8NhxQk"
    }
  },
  {
    "id": "122685",
    "name": "OPEN SPACE AT THE FED. GOVT. COLLEGE IJANIKIN",
    "registration_area_id": "6051",
    "precise_location": null,
    "abbreviation": "019",
    "units": "019",
    "delimitation": "24/17/06/019",
    "remark": "EXISTING PU",
    "ward_id": "6051",
    "ward_name": "ILOGBO",
    "local_government_id": "522",
    "local_government_name": "OJO",
    "state_id": "24",
    "state_name": "LAGOS",
    "location": {
      "latitude": 6.4923616,
      "longitude": 3.1350243,
      "viewport": {
        "northeast": {
          "lat": 6.493456379892722,
          "lng": 3.136342479892722
        },
        "southwest": {
          "lat": 6.490756720107278,
          "lng": 3.133642820107278
        }
      },
      "formatted_address": "F4RP+W2R, Ojo 102101, Lagos, Nigeria",
      "google_map_url": "https://maps.google.com?q=6.4923616,3.1350243",
      "google_place_id": "ChIJMZhOoS2COxARgWQ-xIPngKA"
    }
  },
  {
    "id": "122686",
    "name": "OPEN SPACE AT THE JUNCTION OF ITIRE ILOGBO PLAYING GROUND",
    "registration_area_id": "6051",
    "precise_location": null,
    "abbreviation": "020",
    "units": "020",
    "delimitation": "24/17/06/020",
    "remark": "EXISTING PU",
    "ward_id": "6051",
    "ward_name": "ILOGBO",
    "local_government_id": "522",
    "local_government_name": "OJO",
    "state_id": "24",
    "state_name": "LAGOS",
    "location": {
      "latitude": 6.4647516,
      "longitude": 3.1528496,
      "viewport": {
        "northeast": {
          "lat": 6.466221829892721,
          "lng": 3.154210529892722
        },
        "southwest": {
          "lat": 6.463522170107277,
          "lng": 3.151510870107277
        }
      },
      "formatted_address": "175, Ilogbo Road, Tope-Itire b/stop, Ajangbadi, Lagos, Nigeria",
      "google_map_url": "https://maps.google.com?q=6.4647516,3.1528496",
      "google_place_id": "ChIJNx7sEcKBOxARkcWWolL5gfQ"
    }
  },
  {
    "id": "122687",
    "name": "OPEN SPACE AT THE JUNCTION OF SHIBIRI VILLAGE",
    "registration_area_id": "6051",
    "precise_location": null,
    "abbreviation": "021",
    "units": "021",
    "delimitation": "24/17/06/021",
    "remark": "EXISTING PU",
    "ward_id": "6051",
    "ward_name": "ILOGBO",
    "local_government_id": "522",
    "local_government_name": "OJO",
    "state_id": "24",
    "state_name": "LAGOS",
    "location": {
      "latitude": 6.462453600000001,
      "longitude": 3.167226,
      "viewport": {
        "northeast": {
          "lat": 6.463810029892722,
          "lng": 3.168580829892722
        },
        "southwest": {
          "lat": 6.461110370107278,
          "lng": 3.165881170107277
        }
      },
      "formatted_address": "Ojo 102101, Lagos, Nigeria",
      "google_map_url": "https://maps.google.com?q=6.462453600000001,3.167226",
      "google_place_id": "ChIJz7gV8EeBOxARL3c2NiE29Uk"
    }
  },
  {
    "id": "122688",
    "name": "OPEN SPACE WITHIN IMUDE VILLAGE AT IYALUDE B/STOP",
    "registration_area_id": "6051",
    "precise_location": null,
    "abbreviation": "022",
    "units": "022",
    "delimitation": "24/17/06/022",
    "remark": "EXISTING PU",
    "ward_id": "6051",
    "ward_name": "ILOGBO",
    "local_government_id": "522",
    "local_government_name": "OJO",
    "state_id": "24",
    "state_name": "LAGOS",
    "location": {
      "latitude": 6.471079899999999,
      "longitude": 3.1498309,
      "viewport": {
        "northeast": {
          "lat": 6.472489529892722,
          "lng": 3.151137979892722
        },
        "southwest": {
          "lat": 6.469789870107278,
          "lng": 3.148438320107278
        }
      },
      "formatted_address": "F4CX+CWH, Oto Awori Health Centre, Ojo, Lagos, Nigeria",
      "google_map_url": "https://maps.google.com?q=6.471079899999999,3.1498309",
      "google_place_id": "ChIJ5a8Jo2-BOxAR0KSEMcEUkyg"
    }
  },
  {
    "id": "122689",
    "name": "OPEN SPACE WITHIN ADALOKO VILLAGE",
    "registration_area_id": "6051",
    "precise_location": null,
    "abbreviation": "023",
    "units": "023",
    "delimitation": "24/17/06/023",
    "remark": "EXISTING PU",
    "ward_id": "6051",
    "ward_name": "ILOGBO",
    "local_government_id": "522",
    "local_government_name": "OJO",
    "state_id": "24",
    "state_name": "LAGOS",
    "location": {
      "latitude": 6.462453600000001,
      "longitude": 3.167226,
      "viewport": {
        "northeast": {
          "lat": 6.463810029892722,
          "lng": 3.168580829892722
        },
        "southwest": {
          "lat": 6.461110370107278,
          "lng": 3.165881170107277
        }
      },
      "formatted_address": "Ojo 102101, Lagos, Nigeria",
      "google_map_url": "https://maps.google.com?q=6.462453600000001,3.167226",
      "google_place_id": "ChIJz7gV8EeBOxARL3c2NiE29Uk"
    }
  },
  {
    "id": "122690",
    "name": "ILOGBO CENTRE D, L.A. PRY. SCH. ILOGBO",
    "registration_area_id": "6051",
    "precise_location": null,
    "abbreviation": "024",
    "units": "024",
    "delimitation": "24/17/06/024",
    "remark": "EXISTING PU",
    "ward_id": "6051",
    "ward_name": "ILOGBO",
    "local_government_id": "522",
    "local_government_name": "OJO",
    "state_id": "24",
    "state_name": "LAGOS",
    "location": {
      "latitude": 6.467251900000001,
      "longitude": 3.1423251,
      "viewport": {
        "northeast": {
          "lat": 6.468796479892722,
          "lng": 3.143779779892722
        },
        "southwest": {
          "lat": 6.466096820107278,
          "lng": 3.141080120107277
        }
      },
      "formatted_address": "F48R+WW4, Ilogbo Rd, Elagba 102101, Lagos, Nigeria",
      "google_map_url": "https://maps.google.com?q=6.467251900000001,3.1423251",
      "google_place_id": "ChIJVViNAnSBOxARUz-sQT4oCYY"
    }
  },
  {
    "id": "122691",
    "name": "OPEN SPACE WITHIN OKE AGBO VILLAGE",
    "registration_area_id": "6051",
    "precise_location": null,
    "abbreviation": "025",
    "units": "025",
    "delimitation": "24/17/06/025",
    "remark": "EXISTING PU",
    "ward_id": "6051",
    "ward_name": "ILOGBO",
    "local_government_id": "522",
    "local_government_name": "OJO",
    "state_id": "24",
    "state_name": "LAGOS",
    "location": {
      "latitude": 6.4656508,
      "longitude": 3.1362772,
      "viewport": {
        "northeast": {
          "lat": 6.466896779892722,
          "lng": 3.137678979892722
        },
        "southwest": {
          "lat": 6.464197120107278,
          "lng": 3.134979320107278
        }
      },
      "formatted_address": "Ilogbo Rd, 126 Oke-Agbo Rd, Ojo 102101, Lagos, Nigeria",
      "google_map_url": "https://maps.google.com?q=6.4656508,3.1362772",
      "google_place_id": "ChIJOZIIrT2BOxARG4DWu1OOYsg"
    }
  },
  {
    "id": "122692",
    "name": "OPEN SPACE AT DIVINE BUS STOP  KETU",
    "registration_area_id": "6051",
    "precise_location": null,
    "abbreviation": "026",
    "units": "026",
    "delimitation": "24/17/06/026",
    "remark": "NEW PU",
    "ward_id": "6051",
    "ward_name": "ILOGBO",
    "local_government_id": "522",
    "local_government_name": "OJO",
    "state_id": "24",
    "state_name": "LAGOS",
    "location": {
      "latitude": 6.4697045,
      "longitude": 3.1948538,
      "viewport": {
        "northeast": {
          "lat": 6.471046379892722,
          "lng": 3.196248279892722
        },
        "southwest": {
          "lat": 6.468346720107278,
          "lng": 3.193548620107277
        }
      },
      "formatted_address": "Badagry Express, Okoko, P. P. L Bus Stop, 16 Task Force Rd, Ojo, Lagos, Nigeria",
      "google_map_url": "https://maps.google.com?q=6.4697045,3.1948538",
      "google_place_id": "ChIJ_73l97yGOxARxl1cVE9Yuqc"
    }
  },
  {
    "id": "122693",
    "name": "OPEN SPACE AT CHARLES STREET NEAR ADEKANBI  PAKO B/ STOP",
    "registration_area_id": "6051",
    "precise_location": null,
    "abbreviation": "027",
    "units": "027",
    "delimitation": "24/17/06/027",
    "remark": "NEW PU",
    "ward_id": "6051",
    "ward_name": "ILOGBO",
    "local_government_id": "522",
    "local_government_name": "OJO",
    "state_id": "24",
    "state_name": "LAGOS",
    "location": {
      "latitude": 6.4647516,
      "longitude": 3.1528496,
      "viewport": {
        "northeast": {
          "lat": 6.466221829892721,
          "lng": 3.154210529892722
        },
        "southwest": {
          "lat": 6.463522170107277,
          "lng": 3.151510870107277
        }
      },
      "formatted_address": "175, Ilogbo Road, Tope-Itire b/stop, Ajangbadi, Lagos, Nigeria",
      "google_map_url": "https://maps.google.com?q=6.4647516,3.1528496",
      "google_place_id": "ChIJNx7sEcKBOxARkcWWolL5gfQ"
    }
  },
  {
    "id": "122694",
    "name": "OPEN SPACE INFRONT OF COMMUNITY PRY. SCH KETU",
    "registration_area_id": "6051",
    "precise_location": null,
    "abbreviation": "028",
    "units": "028",
    "delimitation": "24/17/06/028",
    "remark": "NEW PU",
    "ward_id": "6051",
    "ward_name": "ILOGBO",
    "local_government_id": "522",
    "local_government_name": "OJO",
    "state_id": "24",
    "state_name": "LAGOS",
    "location": {
      "latitude": 6.4626953,
      "longitude": 3.1734887,
      "viewport": {
        "northeast": {
          "lat": 6.463965629892722,
          "lng": 3.174820429892722
        },
        "southwest": {
          "lat": 6.461265970107278,
          "lng": 3.172120770107278
        }
      },
      "formatted_address": "152 Ojo Igbede Rd, Ojo 102111, Lagos, Nigeria",
      "google_map_url": "https://maps.google.com?q=6.4626953,3.1734887",
      "google_place_id": "ChIJVRTvfDWBOxARkqSzrV9ADCc"
    }
  },
  {
    "id": "122695",
    "name": "OPEN SPACE BESIDE KENRAL COLLEGE  KETU",
    "registration_area_id": "6051",
    "precise_location": null,
    "abbreviation": "029",
    "units": "029",
    "delimitation": "24/17/06/029",
    "remark": "NEW PU",
    "ward_id": "6051",
    "ward_name": "ILOGBO",
    "local_government_id": "522",
    "local_government_name": "OJO",
    "state_id": "24",
    "state_name": "LAGOS",
    "location": {
      "latitude": 6.4893562,
      "longitude": 3.1520847,
      "viewport": {
        "northeast": {
          "lat": 6.490715579892721,
          "lng": 3.153441179892722
        },
        "southwest": {
          "lat": 6.488015920107277,
          "lng": 3.150741520107277
        }
      },
      "formatted_address": "F5Q2+PRP, Ojo 102101, Lagos, Nigeria",
      "google_map_url": "https://maps.google.com?q=6.4893562,3.1520847",
      "google_place_id": "ChIJxcV579uDOxARSeelvP0nZRo"
    }
  },
  {
    "id": "122696",
    "name": "OPEN SPACE INFRONT OF WABROS HOTEL  ERA",
    "registration_area_id": "6051",
    "precise_location": null,
    "abbreviation": "030",
    "units": "030",
    "delimitation": "24/17/06/030",
    "remark": "NEW PU",
    "ward_id": "6051",
    "ward_name": "ILOGBO",
    "local_government_id": "522",
    "local_government_name": "OJO",
    "state_id": "24",
    "state_name": "LAGOS",
    "location": {
      "latitude": 6.4790581,
      "longitude": 3.1355837,
      "viewport": {
        "northeast": {
          "lat": 6.480362079892722,
          "lng": 3.136926129892722
        },
        "southwest": {
          "lat": 6.477662420107278,
          "lng": 3.134226470107277
        }
      },
      "formatted_address": "F4HP+J6G, Era Rd, Ojo 102101, Lagos, Nigeria",
      "google_map_url": "https://maps.google.com?q=6.4790581,3.1355837",
      "google_place_id": "ChIJhTryd9qBOxAR2IwdzfUb7FI"
    }
  },
  {
    "id": "122697",
    "name": "OPEN SPACE INFRONT OF SAM- JULLY HOTEL  ERA",
    "registration_area_id": "6051",
    "precise_location": null,
    "abbreviation": "031",
    "units": "031",
    "delimitation": "24/17/06/031",
    "remark": "NEW PU",
    "ward_id": "6051",
    "ward_name": "ILOGBO",
    "local_government_id": "522",
    "local_government_name": "OJO",
    "state_id": "24",
    "state_name": "LAGOS",
    "location": {
      "latitude": 6.4788877,
      "longitude": 3.1417571,
      "viewport": {
        "northeast": {
          "lat": 6.480269529892722,
          "lng": 3.143113029892722
        },
        "southwest": {
          "lat": 6.477569870107278,
          "lng": 3.140413370107277
        }
      },
      "formatted_address": "F4HR+HP2, Iyana Era Rd, Ojo 102101, Lagos, Nigeria",
      "google_map_url": "https://maps.google.com?q=6.4788877,3.1417571",
      "google_place_id": "ChIJgUUluX6BOxARF3YVN6tN2mo"
    }
  },
  {
    "id": "122698",
    "name": "OPEN SPACE AT ATUNSE BUS STOP ABULE  ERA",
    "registration_area_id": "6051",
    "precise_location": null,
    "abbreviation": "032",
    "units": "032",
    "delimitation": "24/17/06/032",
    "remark": "NEW PU",
    "ward_id": "6051",
    "ward_name": "ILOGBO",
    "local_government_id": "522",
    "local_government_name": "OJO",
    "state_id": "24",
    "state_name": "LAGOS",
    "location": {
      "latitude": 6.4994879,
      "longitude": 3.1989111,
      "viewport": {
        "northeast": {
          "lat": 6.500836829892721,
          "lng": 3.200310329892722
        },
        "southwest": {
          "lat": 6.498137170107277,
          "lng": 3.197610670107278
        }
      },
      "formatted_address": "Ojo 102101, Lagos, Nigeria",
      "google_map_url": "https://maps.google.com?q=6.4994879,3.1989111",
      "google_place_id": "ChIJf8BBDj6EOxARt1xXFsBRQ1I"
    }
  },
  {
    "id": "122699",
    "name": "OPEN SPACE IN FRONT OF LAWYER EGUNTOLA CLOSE ABULE ADALOKO ROAD(OPEN SPACE INFRONT OF LAWYER EGUNTOLA CLOSE  ABULE ADALOKO STREET)",
    "registration_area_id": "6051",
    "precise_location": null,
    "abbreviation": "033",
    "units": "033",
    "delimitation": "24/17/06/033",
    "remark": "NEW PU",
    "ward_id": "6051",
    "ward_name": "ILOGBO",
    "local_government_id": "522",
    "local_government_name": "OJO",
    "state_id": "24",
    "state_name": "LAGOS",
    "location": {
      "latitude": 6.4796892,
      "longitude": 3.1484617,
      "viewport": {
        "northeast": {
          "lat": 6.481007679892722,
          "lng": 3.149808329892722
        },
        "southwest": {
          "lat": 6.478308020107278,
          "lng": 3.147108670107277
        }
      },
      "formatted_address": "38 Olopa Ozolua St, Adaloko 234001, Lagos, Nigeria",
      "google_map_url": "https://maps.google.com?q=6.4796892,3.1484617",
      "google_place_id": "ChIJX3T4PEmBOxARDHmPIleqF4s"
    }
  },
  {
    "id": "122700",
    "name": "OPEN SPACE AT ADELE BUS STOP  ERA",
    "registration_area_id": "6051",
    "precise_location": null,
    "abbreviation": "034",
    "units": "034",
    "delimitation": "24/17/06/034",
    "remark": "NEW PU",
    "ward_id": "6051",
    "ward_name": "ILOGBO",
    "local_government_id": "522",
    "local_government_name": "OJO",
    "state_id": "24",
    "state_name": "LAGOS",
    "location": {
      "latitude": 6.6350513,
      "longitude": 3.3018154,
      "viewport": {
        "northeast": {
          "lat": 6.63639782989272,
          "lng": 3.303173729892722
        },
        "southwest": {
          "lat": 6.633698170107277,
          "lng": 3.300474070107278
        }
      },
      "formatted_address": "Abeokuta Expy, Agege 102213, Lagos, Nigeria",
      "google_map_url": "https://maps.google.com?q=6.6350513,3.3018154",
      "google_place_id": "ChIJix2SECGROxARy3285j831OM"
    }
  },
  {
    "id": "122701",
    "name": "OPEN SPACE AT IYALODE BUS STOP  ILOGBO",
    "registration_area_id": "6051",
    "precise_location": null,
    "abbreviation": "035",
    "units": "035",
    "delimitation": "24/17/06/035",
    "remark": "NEW PU",
    "ward_id": "6051",
    "ward_name": "ILOGBO",
    "local_government_id": "522",
    "local_government_name": "OJO",
    "state_id": "24",
    "state_name": "LAGOS",
    "location": {
      "latitude": 6.4873363,
      "longitude": 3.1884193,
      "viewport": {
        "northeast": {
          "lat": 6.488747429892723,
          "lng": 3.189787629892722
        },
        "southwest": {
          "lat": 6.486047770107279,
          "lng": 3.187087970107278
        }
      },
      "formatted_address": "Ojo 102101, Lagos, Nigeria",
      "google_map_url": "https://maps.google.com?q=6.4873363,3.1884193",
      "google_place_id": "ChIJx4h-9iaFOxARgW57kOWEW0o"
    }
  },
  {
    "id": "122702",
    "name": "OPEN SPACE AT OLORI EBI BUS STOP  ILOGBO",
    "registration_area_id": "6051",
    "precise_location": null,
    "abbreviation": "036",
    "units": "036",
    "delimitation": "24/17/06/036",
    "remark": "NEW PU",
    "ward_id": "6051",
    "ward_name": "ILOGBO",
    "local_government_id": "522",
    "local_government_name": "OJO",
    "state_id": "24",
    "state_name": "LAGOS",
    "location": {
      "latitude": 6.4873363,
      "longitude": 3.1884193,
      "viewport": {
        "northeast": {
          "lat": 6.488747429892723,
          "lng": 3.189787629892722
        },
        "southwest": {
          "lat": 6.486047770107279,
          "lng": 3.187087970107278
        }
      },
      "formatted_address": "Ojo 102101, Lagos, Nigeria",
      "google_map_url": "https://maps.google.com?q=6.4873363,3.1884193",
      "google_place_id": "ChIJx4h-9iaFOxARgW57kOWEW0o"
    }
  },
  {
    "id": "122703",
    "name": "OPEN SPACE AT MODUPE ALATEOWO STREET  ILOGBO",
    "registration_area_id": "6051",
    "precise_location": null,
    "abbreviation": "037",
    "units": "037",
    "delimitation": "24/17/06/037",
    "remark": "NEW PU",
    "ward_id": "6051",
    "ward_name": "ILOGBO",
    "local_government_id": "522",
    "local_government_name": "OJO",
    "state_id": "24",
    "state_name": "LAGOS",
    "location": {
      "latitude": 6.4581481,
      "longitude": 3.2019768,
      "viewport": {
        "northeast": {
          "lat": 6.459720829892722,
          "lng": 3.203448729892722
        },
        "southwest": {
          "lat": 6.457021170107278,
          "lng": 3.200749070107277
        }
      },
      "formatted_address": "Local Government, 31 Ojo Alaba Rago Rd, Ojo 102101, Lagos, Nigeria",
      "google_map_url": "https://maps.google.com?q=6.4581481,3.2019768",
      "google_place_id": "ChIJIwwDPoKHOxARCEGccrH7Fug"
    }
  },
  {
    "id": "122704",
    "name": "OPEN SPACE AT PAKO BUS STOP",
    "registration_area_id": "6051",
    "precise_location": null,
    "abbreviation": "038",
    "units": "038",
    "delimitation": "24/17/06/038",
    "remark": "NEW PU",
    "ward_id": "6051",
    "ward_name": "ILOGBO",
    "local_government_id": "522",
    "local_government_name": "OJO",
    "state_id": "24",
    "state_name": "LAGOS",
    "location": {
      "latitude": 6.4873363,
      "longitude": 3.1884193,
      "viewport": {
        "northeast": {
          "lat": 6.488747429892723,
          "lng": 3.189787629892722
        },
        "southwest": {
          "lat": 6.486047770107279,
          "lng": 3.187087970107278
        }
      },
      "formatted_address": "Ojo 102101, Lagos, Nigeria",
      "google_map_url": "https://maps.google.com?q=6.4873363,3.1884193",
      "google_place_id": "ChIJx4h-9iaFOxARgW57kOWEW0o"
    }
  },
  {
    "id": "122705",
    "name": "OPEN SPACE AT SHEBAS BUS STOP  ILOGBO",
    "registration_area_id": "6051",
    "precise_location": null,
    "abbreviation": "039",
    "units": "039",
    "delimitation": "24/17/06/039",
    "remark": "NEW PU",
    "ward_id": "6051",
    "ward_name": "ILOGBO",
    "local_government_id": "522",
    "local_government_name": "OJO",
    "state_id": "24",
    "state_name": "LAGOS",
    "location": {
      "latitude": 6.4581481,
      "longitude": 3.2019768,
      "viewport": {
        "northeast": {
          "lat": 6.459720829892722,
          "lng": 3.203448729892722
        },
        "southwest": {
          "lat": 6.457021170107278,
          "lng": 3.200749070107277
        }
      },
      "formatted_address": "Local Government, 31 Ojo Alaba Rago Rd, Ojo 102101, Lagos, Nigeria",
      "google_map_url": "https://maps.google.com?q=6.4581481,3.2019768",
      "google_place_id": "ChIJIwwDPoKHOxARCEGccrH7Fug"
    }
  },
  {
    "id": "122706",
    "name": "OPEN SPACE AT OKE AGBO JUNCTION",
    "registration_area_id": "6051",
    "precise_location": null,
    "abbreviation": "040",
    "units": "040",
    "delimitation": "24/17/06/040",
    "remark": "NEW PU",
    "ward_id": "6051",
    "ward_name": "ILOGBO",
    "local_government_id": "522",
    "local_government_name": "OJO",
    "state_id": "24",
    "state_name": "LAGOS",
    "location": {
      "latitude": 6.4658262,
      "longitude": 3.1401312,
      "viewport": {
        "northeast": {
          "lat": 6.467150629892722,
          "lng": 3.141479279892723
        },
        "southwest": {
          "lat": 6.464450970107278,
          "lng": 3.138779620107278
        }
      },
      "formatted_address": "total fuelling Station, Ilogbo, Ojo, 67, Oke Agbo Road, Off, Ojo, Lagos, Nigeria",
      "google_map_url": "https://maps.google.com?q=6.4658262,3.1401312",
      "google_place_id": "ChIJlTNl62OBOxARlJ2apI8y89I"
    }
  },
  {
    "id": "122707",
    "name": "OPEN SPACE AT BABALOLA BUS STOP",
    "registration_area_id": "6051",
    "precise_location": null,
    "abbreviation": "041",
    "units": "041",
    "delimitation": "24/17/06/041",
    "remark": "NEW PU",
    "ward_id": "6051",
    "ward_name": "ILOGBO",
    "local_government_id": "522",
    "local_government_name": "OJO",
    "state_id": "24",
    "state_name": "LAGOS",
    "location": {
      "latitude": 6.4638965,
      "longitude": 3.1602353,
      "viewport": {
        "northeast": {
          "lat": 6.465246929892722,
          "lng": 3.161569029892722
        },
        "southwest": {
          "lat": 6.462547270107278,
          "lng": 3.158869370107277
        }
      },
      "formatted_address": "Ojo 102101, Alasia, Nigeria",
      "google_map_url": "https://maps.google.com?q=6.4638965,3.1602353",
      "google_place_id": "ChIJv_19V0CBOxAR8A3tIWVvgrk"
    }
  },
  {
    "id": "122708",
    "name": "OPEN SPACE AT MOSHALASHI BUS STOP ILOGBO",
    "registration_area_id": "6051",
    "precise_location": null,
    "abbreviation": "042",
    "units": "042",
    "delimitation": "24/17/06/042",
    "remark": "NEW PU",
    "ward_id": "6051",
    "ward_name": "ILOGBO",
    "local_government_id": "522",
    "local_government_name": "OJO",
    "state_id": "24",
    "state_name": "LAGOS",
    "location": {
      "latitude": 6.462453600000001,
      "longitude": 3.167226,
      "viewport": {
        "northeast": {
          "lat": 6.463810029892722,
          "lng": 3.168580829892722
        },
        "southwest": {
          "lat": 6.461110370107278,
          "lng": 3.165881170107277
        }
      },
      "formatted_address": "Ojo 102101, Lagos, Nigeria",
      "google_map_url": "https://maps.google.com?q=6.462453600000001,3.167226",
      "google_place_id": "ChIJz7gV8EeBOxARL3c2NiE29Uk"
    }
  },
  {
    "id": "122709",
    "name": "OPEN SPACE AT TRANSFORMER BUS STOP",
    "registration_area_id": "6051",
    "precise_location": null,
    "abbreviation": "043",
    "units": "043",
    "delimitation": "24/17/06/043",
    "remark": "NEW PU",
    "ward_id": "6051",
    "ward_name": "ILOGBO",
    "local_government_id": "522",
    "local_government_name": "OJO",
    "state_id": "24",
    "state_name": "LAGOS",
    "location": null
  },
  {
    "id": "122710",
    "name": "OPEN SPACE AT ALAGAYI MARKET  ILOGBO",
    "registration_area_id": "6051",
    "precise_location": null,
    "abbreviation": "044",
    "units": "044",
    "delimitation": "24/17/06/044",
    "remark": "NEW PU",
    "ward_id": "6051",
    "ward_name": "ILOGBO",
    "local_government_id": "522",
    "local_government_name": "OJO",
    "state_id": "24",
    "state_name": "LAGOS",
    "location": {
      "latitude": 6.4571082,
      "longitude": 3.1808099,
      "viewport": {
        "northeast": {
          "lat": 6.458566379892723,
          "lng": 3.182175929892722
        },
        "southwest": {
          "lat": 6.455866720107279,
          "lng": 3.179476270107277
        }
      },
      "formatted_address": "18b Ubiaro St, Ojo 102111, Lagos, Nigeria",
      "google_map_url": "https://maps.google.com?q=6.4571082,3.1808099",
      "google_place_id": "ChIJ56skTfCHOxARsEfUivUOvXc"
    }
  },
  {
    "id": "122711",
    "name": "OPEN SPACE AT MUSTAPHA STREET",
    "registration_area_id": "6051",
    "precise_location": null,
    "abbreviation": "045",
    "units": "045",
    "delimitation": "24/17/06/045",
    "remark": "NEW PU",
    "ward_id": "6051",
    "ward_name": "ILOGBO",
    "local_government_id": "522",
    "local_government_name": "OJO",
    "state_id": "24",
    "state_name": "LAGOS",
    "location": {
      "latitude": 6.4671018,
      "longitude": 3.144436,
      "viewport": {
        "northeast": {
          "lat": 6.468489679892722,
          "lng": 3.145795179892723
        },
        "southwest": {
          "lat": 6.465790020107279,
          "lng": 3.143095520107278
        }
      },
      "formatted_address": "No 4 Mustapha Street, Ilogbo Rd, Lagos, Nigeria",
      "google_map_url": "https://maps.google.com?q=6.4671018,3.144436",
      "google_place_id": "ChIJx0YMt6uBOxARmsgN4ngetVc"
    }
  },
  {
    "id": "122712",
    "name": "OPEN SPACE AT HEALTH CENTRE OKE- IJEWU  ILOGBO",
    "registration_area_id": "6051",
    "precise_location": null,
    "abbreviation": "046",
    "units": "046",
    "delimitation": "24/17/06/046",
    "remark": "NEW PU",
    "ward_id": "6051",
    "ward_name": "ILOGBO",
    "local_government_id": "522",
    "local_government_name": "OJO",
    "state_id": "24",
    "state_name": "LAGOS",
    "location": {
      "latitude": 6.4647516,
      "longitude": 3.1528496,
      "viewport": {
        "northeast": {
          "lat": 6.466221829892721,
          "lng": 3.154210529892722
        },
        "southwest": {
          "lat": 6.463522170107277,
          "lng": 3.151510870107277
        }
      },
      "formatted_address": "175, Ilogbo Road, Tope-Itire b/stop, Ajangbadi, Lagos, Nigeria",
      "google_map_url": "https://maps.google.com?q=6.4647516,3.1528496",
      "google_place_id": "ChIJNx7sEcKBOxARkcWWolL5gfQ"
    }
  },
  {
    "id": "122713",
    "name": "OPEN SPACE AT PRAYING GROUND ANIMASHAUN BUS STOP",
    "registration_area_id": "6051",
    "precise_location": null,
    "abbreviation": "047",
    "units": "047",
    "delimitation": "24/17/06/047",
    "remark": "NEW PU",
    "ward_id": "6051",
    "ward_name": "ILOGBO",
    "local_government_id": "522",
    "local_government_name": "OJO",
    "state_id": "24",
    "state_name": "LAGOS",
    "location": null
  },
  {
    "id": "122714",
    "name": "OPEN SPACE AT 7.7 JUNCTION  SHIBIRI",
    "registration_area_id": "6051",
    "precise_location": null,
    "abbreviation": "048",
    "units": "048",
    "delimitation": "24/17/06/048",
    "remark": "NEW PU",
    "ward_id": "6051",
    "ward_name": "ILOGBO",
    "local_government_id": "522",
    "local_government_name": "OJO",
    "state_id": "24",
    "state_name": "LAGOS",
    "location": {
      "latitude": 6.462453600000001,
      "longitude": 3.167226,
      "viewport": {
        "northeast": {
          "lat": 6.463810029892722,
          "lng": 3.168580829892722
        },
        "southwest": {
          "lat": 6.461110370107278,
          "lng": 3.165881170107277
        }
      },
      "formatted_address": "Ojo 102101, Lagos, Nigeria",
      "google_map_url": "https://maps.google.com?q=6.462453600000001,3.167226",
      "google_place_id": "ChIJz7gV8EeBOxARL3c2NiE29Uk"
    }
  },
  {
    "id": "122715",
    "name": "OPEN SPACE AT AJAKAYE STREET SHIBIRI",
    "registration_area_id": "6051",
    "precise_location": null,
    "abbreviation": "049",
    "units": "049",
    "delimitation": "24/17/06/049",
    "remark": "NEW PU",
    "ward_id": "6051",
    "ward_name": "ILOGBO",
    "local_government_id": "522",
    "local_government_name": "OJO",
    "state_id": "24",
    "state_name": "LAGOS",
    "location": {
      "latitude": 6.462453600000001,
      "longitude": 3.167226,
      "viewport": {
        "northeast": {
          "lat": 6.463810029892722,
          "lng": 3.168580829892722
        },
        "southwest": {
          "lat": 6.461110370107278,
          "lng": 3.165881170107277
        }
      },
      "formatted_address": "Ojo 102101, Lagos, Nigeria",
      "google_map_url": "https://maps.google.com?q=6.462453600000001,3.167226",
      "google_place_id": "ChIJz7gV8EeBOxARL3c2NiE29Uk"
    }
  },
  {
    "id": "122716",
    "name": "OPEN SPACE AT JOSEPHINE STREET  IGBO NLA  SHIBIRI",
    "registration_area_id": "6051",
    "precise_location": null,
    "abbreviation": "050",
    "units": "050",
    "delimitation": "24/17/06/050",
    "remark": "NEW PU",
    "ward_id": "6051",
    "ward_name": "ILOGBO",
    "local_government_id": "522",
    "local_government_name": "OJO",
    "state_id": "24",
    "state_name": "LAGOS",
    "location": {
      "latitude": 6.4228977,
      "longitude": 3.1055769,
      "viewport": {
        "northeast": {
          "lat": 6.424247529892722,
          "lng": 3.106926729892722
        },
        "southwest": {
          "lat": 6.421547870107278,
          "lng": 3.104227070107278
        }
      },
      "formatted_address": "C4F4+564, Ojo 103101, Lagos, Nigeria",
      "google_map_url": "https://maps.google.com?q=6.4228977,3.1055769",
      "google_place_id": "ChIJ6UbDBSOAOxARJ-sShGBQvH4"
    }
  },
  {
    "id": "122717",
    "name": "OPEN SPACE AT BAALE STREET BY CENTRAL MOSQUE",
    "registration_area_id": "6051",
    "precise_location": null,
    "abbreviation": "051",
    "units": "051",
    "delimitation": "24/17/06/051",
    "remark": "NEW PU",
    "ward_id": "6051",
    "ward_name": "ILOGBO",
    "local_government_id": "522",
    "local_government_name": "OJO",
    "state_id": "24",
    "state_name": "LAGOS",
    "location": {
      "latitude": 6.460054500000001,
      "longitude": 3.1387223,
      "viewport": {
        "northeast": {
          "lat": 6.461427129892721,
          "lng": 3.140072129892722
        },
        "southwest": {
          "lat": 6.458727470107277,
          "lng": 3.137372470107277
        }
      },
      "formatted_address": "24-48 Baale St, Ojo 102101, Lagos, Nigeria",
      "google_map_url": "https://maps.google.com?q=6.460054500000001,3.1387223",
      "google_place_id": "ChIJZ-W6PliBOxAR5a3pyGXB9gg"
    }
  },
  {
    "id": "122718",
    "name": "OPEN SPACE AT KAREEM STREET  SHIBIRI",
    "registration_area_id": "6051",
    "precise_location": null,
    "abbreviation": "052",
    "units": "052",
    "delimitation": "24/17/06/052",
    "remark": "NEW PU",
    "ward_id": "6051",
    "ward_name": "ILOGBO",
    "local_government_id": "522",
    "local_government_name": "OJO",
    "state_id": "24",
    "state_name": "LAGOS",
    "location": {
      "latitude": 6.462453600000001,
      "longitude": 3.167226,
      "viewport": {
        "northeast": {
          "lat": 6.463810029892722,
          "lng": 3.168580829892722
        },
        "southwest": {
          "lat": 6.461110370107278,
          "lng": 3.165881170107277
        }
      },
      "formatted_address": "Ojo 102101, Lagos, Nigeria",
      "google_map_url": "https://maps.google.com?q=6.462453600000001,3.167226",
      "google_place_id": "ChIJz7gV8EeBOxARL3c2NiE29Uk"
    }
  },
  {
    "id": "122719",
    "name": "BESIDE OTTO- AWORI TOWN HALL",
    "registration_area_id": "6051",
    "precise_location": null,
    "abbreviation": "053",
    "units": "053",
    "delimitation": "24/17/06/053",
    "remark": "NEW PU",
    "ward_id": "6051",
    "ward_name": "ILOGBO",
    "local_government_id": "522",
    "local_government_name": "OJO",
    "state_id": "24",
    "state_name": "LAGOS",
    "location": {
      "latitude": 6.4956587,
      "longitude": 3.1184752,
      "viewport": {
        "northeast": {
          "lat": 6.497009179892721,
          "lng": 3.119745529892722
        },
        "southwest": {
          "lat": 6.494309520107278,
          "lng": 3.117045870107277
        }
      },
      "formatted_address": "F4W9+798, Ojo 102101, Lagos, Nigeria",
      "google_map_url": "https://maps.google.com?q=6.4956587,3.1184752",
      "google_place_id": "ChIJRUiXaD2COxARtcZyvpfjMLE"
    }
  },
  {
    "id": "122720",
    "name": "OPEN SPACE AT AGBENI STREET, OTTO",
    "registration_area_id": "6051",
    "precise_location": null,
    "abbreviation": "054",
    "units": "054",
    "delimitation": "24/17/06/054",
    "remark": "NEW PU",
    "ward_id": "6051",
    "ward_name": "ILOGBO",
    "local_government_id": "522",
    "local_government_name": "OJO",
    "state_id": "24",
    "state_name": "LAGOS",
    "location": {
      "latitude": 6.487717000000001,
      "longitude": 3.126307,
      "viewport": {
        "northeast": {
          "lat": 6.488803879892721,
          "lng": 3.127656829892722
        },
        "southwest": {
          "lat": 6.486104220107277,
          "lng": 3.124957170107277
        }
      },
      "formatted_address": "Era 102004, Lagos, Nigeria",
      "google_map_url": "https://maps.google.com?q=6.487717000000001,3.126307",
      "google_place_id": "ChIJ7dxfVl-BOxARHLGKre7u3Qo"
    }
  },
  {
    "id": "122721",
    "name": "OPEN SPACE AT MATORI STREET  OTTO",
    "registration_area_id": "6051",
    "precise_location": null,
    "abbreviation": "055",
    "units": "055",
    "delimitation": "24/17/06/055",
    "remark": "NEW PU",
    "ward_id": "6051",
    "ward_name": "ILOGBO",
    "local_government_id": "522",
    "local_government_name": "OJO",
    "state_id": "24",
    "state_name": "LAGOS",
    "location": {
      "latitude": 6.4581481,
      "longitude": 3.2019768,
      "viewport": {
        "northeast": {
          "lat": 6.459720829892722,
          "lng": 3.203448729892722
        },
        "southwest": {
          "lat": 6.457021170107278,
          "lng": 3.200749070107277
        }
      },
      "formatted_address": "Local Government, 31 Ojo Alaba Rago Rd, Ojo 102101, Lagos, Nigeria",
      "google_map_url": "https://maps.google.com?q=6.4581481,3.2019768",
      "google_place_id": "ChIJIwwDPoKHOxARCEGccrH7Fug"
    }
  },
  {
    "id": "122722",
    "name": "OPEN SPACE INFRONT OF ULTIMATE HOTEL OTTO",
    "registration_area_id": "6051",
    "precise_location": null,
    "abbreviation": "056",
    "units": "056",
    "delimitation": "24/17/06/056",
    "remark": "NEW PU",
    "ward_id": "6051",
    "ward_name": "ILOGBO",
    "local_government_id": "522",
    "local_government_name": "OJO",
    "state_id": "24",
    "state_name": "LAGOS",
    "location": {
      "latitude": 6.4827904,
      "longitude": 3.1717058,
      "viewport": {
        "northeast": {
          "lat": 6.484248629892722,
          "lng": 3.173116629892722
        },
        "southwest": {
          "lat": 6.481548970107278,
          "lng": 3.170416970107278
        }
      },
      "formatted_address": "F5MC+4MH, Ojo 102101, Lagos, Nigeria",
      "google_map_url": "https://maps.google.com?q=6.4827904,3.1717058",
      "google_place_id": "ChIJ6zKyO1aBOxAR7di5bKzJ2tY"
    }
  },
  {
    "id": "122723",
    "name": "OPEN SPACE INFRONT OF GORIOLA MOSQUE  OTTO",
    "registration_area_id": "6051",
    "precise_location": null,
    "abbreviation": "057",
    "units": "057",
    "delimitation": "24/17/06/057",
    "remark": "NEW PU",
    "ward_id": "6051",
    "ward_name": "ILOGBO",
    "local_government_id": "522",
    "local_government_name": "OJO",
    "state_id": "24",
    "state_name": "LAGOS",
    "location": {
      "latitude": 6.460109699999999,
      "longitude": 3.1910465,
      "viewport": {
        "northeast": {
          "lat": 6.461343679892723,
          "lng": 3.192410279892722
        },
        "southwest": {
          "lat": 6.458644020107279,
          "lng": 3.189710620107277
        }
      },
      "formatted_address": "F56R+2CF, Olojo Rd, Ojo 102113, Lagos, Nigeria",
      "google_map_url": "https://maps.google.com?q=6.460109699999999,3.1910465",
      "google_place_id": "ChIJQ-StDceGOxARshVjQSVfs1o"
    }
  },
  {
    "id": "122724",
    "name": "OPEN SPACE AT IDERELU JUNCTION  OTTO",
    "registration_area_id": "6051",
    "precise_location": null,
    "abbreviation": "058",
    "units": "058",
    "delimitation": "24/17/06/058",
    "remark": "NEW PU",
    "ward_id": "6051",
    "ward_name": "ILOGBO",
    "local_government_id": "522",
    "local_government_name": "OJO",
    "state_id": "24",
    "state_name": "LAGOS",
    "location": {
      "latitude": 6.471079899999999,
      "longitude": 3.1498309,
      "viewport": {
        "northeast": {
          "lat": 6.472489529892722,
          "lng": 3.151137979892722
        },
        "southwest": {
          "lat": 6.469789870107278,
          "lng": 3.148438320107278
        }
      },
      "formatted_address": "F4CX+CWH, Oto Awori Health Centre, Ojo, Lagos, Nigeria",
      "google_map_url": "https://maps.google.com?q=6.471079899999999,3.1498309",
      "google_place_id": "ChIJ5a8Jo2-BOxAR0KSEMcEUkyg"
    }
  },
  {
    "id": "122725",
    "name": "OPEN SPACE AT ONIKOSI AVENUE  OTTO",
    "registration_area_id": "6051",
    "precise_location": null,
    "abbreviation": "059",
    "units": "059",
    "delimitation": "24/17/06/059",
    "remark": "NEW PU",
    "ward_id": "6051",
    "ward_name": "ILOGBO",
    "local_government_id": "522",
    "local_government_name": "OJO",
    "state_id": "24",
    "state_name": "LAGOS",
    "location": {
      "latitude": 6.4571082,
      "longitude": 3.1808099,
      "viewport": {
        "northeast": {
          "lat": 6.458566379892723,
          "lng": 3.182175929892722
        },
        "southwest": {
          "lat": 6.455866720107279,
          "lng": 3.179476270107277
        }
      },
      "formatted_address": "18b Ubiaro St, Ojo 102111, Lagos, Nigeria",
      "google_map_url": "https://maps.google.com?q=6.4571082,3.1808099",
      "google_place_id": "ChIJ56skTfCHOxARsEfUivUOvXc"
    }
  },
  {
    "id": "122726",
    "name": "OPEN SPACE AT SIGNS AND WONDERS BUS STOP  ERA ROAD",
    "registration_area_id": "6051",
    "precise_location": null,
    "abbreviation": "060",
    "units": "060",
    "delimitation": "24/17/06/060",
    "remark": "NEW PU",
    "ward_id": "6051",
    "ward_name": "ILOGBO",
    "local_government_id": "522",
    "local_government_name": "OJO",
    "state_id": "24",
    "state_name": "LAGOS",
    "location": {
      "latitude": 6.4814518,
      "longitude": 3.1452338,
      "viewport": {
        "northeast": {
          "lat": 6.482786729892722,
          "lng": 3.146575929892722
        },
        "southwest": {
          "lat": 6.480087070107278,
          "lng": 3.143876270107278
        }
      },
      "formatted_address": "F4JW+G3X, Iyana Era Rd, Ojo 102101, Lagos, Nigeria",
      "google_map_url": "https://maps.google.com?q=6.4814518,3.1452338",
      "google_place_id": "ChIJ4eFbBxmBOxAR3-WFmIjfTNA"
    }
  },
  {
    "id": "122727",
    "name": "OPEN SPACE BESIDE MY BUILDER NUR & PRY. SCH. FED. SECOND GATE",
    "registration_area_id": "6051",
    "precise_location": null,
    "abbreviation": "061",
    "units": "061",
    "delimitation": "24/17/06/061",
    "remark": "NEW PU",
    "ward_id": "6051",
    "ward_name": "ILOGBO",
    "local_government_id": "522",
    "local_government_name": "OJO",
    "state_id": "24",
    "state_name": "LAGOS",
    "location": {
      "latitude": 42.1928612,
      "longitude": -71.2897887,
      "viewport": {
        "northeast": {
          "lat": 42.19456617989272,
          "lng": -71.28901112010729
        },
        "southwest": {
          "lat": 42.19186652010728,
          "lng": -71.29171077989272
        }
      },
      "formatted_address": "266 Main St #34, Medfield, MA 02052, United States",
      "google_map_url": "https://maps.google.com?q=42.1928612,-71.2897887",
      "google_place_id": "ChIJ2ZBq_TB55IkRDtaNxVL_dws"
    }
  },
  {
    "id": "122728",
    "name": "OPEN SPACE AT THE JUNCTION OF AJOSE STREET  ERA",
    "registration_area_id": "6051",
    "precise_location": null,
    "abbreviation": "062",
    "units": "062",
    "delimitation": "24/17/06/062",
    "remark": "NEW PU",
    "ward_id": "6051",
    "ward_name": "ILOGBO",
    "local_government_id": "522",
    "local_government_name": "OJO",
    "state_id": "24",
    "state_name": "LAGOS",
    "location": {
      "latitude": 6.464665999999999,
      "longitude": 3.1577598,
      "viewport": {
        "northeast": {
          "lat": 6.465984329892722,
          "lng": 3.159110429892722
        },
        "southwest": {
          "lat": 6.463284670107278,
          "lng": 3.156410770107278
        }
      },
      "formatted_address": "10, IGABAALE ROAD, Ilogbo Rd, Ojo, Lagos, Nigeria",
      "google_map_url": "https://maps.google.com?q=6.464665999999999,3.1577598",
      "google_place_id": "ChIJxwcC0bqBOxARNMEAL2DXnGw"
    }
  },
  {
    "id": "122729",
    "name": "OPEN SPACE AT TOPE BUS STOP  ILOGBO",
    "registration_area_id": "6051",
    "precise_location": null,
    "abbreviation": "063",
    "units": "063",
    "delimitation": "24/17/06/063",
    "remark": "NEW PU",
    "ward_id": "6051",
    "ward_name": "ILOGBO",
    "local_government_id": "522",
    "local_government_name": "OJO",
    "state_id": "24",
    "state_name": "LAGOS",
    "location": {
      "latitude": 6.470321999999999,
      "longitude": 3.139361,
      "viewport": {
        "northeast": {
          "lat": 6.471690729892722,
          "lng": 3.140691579892722
        },
        "southwest": {
          "lat": 6.468991070107278,
          "lng": 3.137991920107277
        }
      },
      "formatted_address": "Ojo 102101, Alasia, Nigeria",
      "google_map_url": "https://maps.google.com?q=6.470321999999999,3.139361",
      "google_place_id": "ChIJcwsEtHeBOxAR2l7APAs7A_E"
    }
  },
  {
    "id": "122730",
    "name": "OPEN SPACE BY TOPE MARKET  ILOGBO",
    "registration_area_id": "6051",
    "precise_location": null,
    "abbreviation": "064",
    "units": "064",
    "delimitation": "24/17/06/064",
    "remark": "NEW PU",
    "ward_id": "6051",
    "ward_name": "ILOGBO",
    "local_government_id": "522",
    "local_government_name": "OJO",
    "state_id": "24",
    "state_name": "LAGOS",
    "location": {
      "latitude": 6.5033962,
      "longitude": 3.175875,
      "viewport": {
        "northeast": {
          "lat": 6.504749179892722,
          "lng": 3.177188329892722
        },
        "southwest": {
          "lat": 6.502049520107278,
          "lng": 3.174488670107277
        }
      },
      "formatted_address": "1 Ogbene Achike St, Ojo 102101, Lagos, Nigeria",
      "google_map_url": "https://maps.google.com?q=6.5033962,3.175875",
      "google_place_id": "ChIJXwjjxsSDOxARTskVPIsmqjc"
    }
  },
  {
    "id": "122731",
    "name": "OPEN SPACE AT DEBOTEL STREET  ITIRE",
    "registration_area_id": "6051",
    "precise_location": null,
    "abbreviation": "065",
    "units": "065",
    "delimitation": "24/17/06/065",
    "remark": "NEW PU",
    "ward_id": "6051",
    "ward_name": "ILOGBO",
    "local_government_id": "522",
    "local_government_name": "OJO",
    "state_id": "24",
    "state_name": "LAGOS",
    "location": {
      "latitude": 6.4581481,
      "longitude": 3.2019768,
      "viewport": {
        "northeast": {
          "lat": 6.459720829892722,
          "lng": 3.203448729892722
        },
        "southwest": {
          "lat": 6.457021170107278,
          "lng": 3.200749070107277
        }
      },
      "formatted_address": "Local Government, 31 Ojo Alaba Rago Rd, Ojo 102101, Lagos, Nigeria",
      "google_map_url": "https://maps.google.com?q=6.4581481,3.2019768",
      "google_place_id": "ChIJIwwDPoKHOxARCEGccrH7Fug"
    }
  },
  {
    "id": "122732",
    "name": "OPEN SPACE AT OLOWOPARIOLA STREET SHIBIRI",
    "registration_area_id": "6051",
    "precise_location": null,
    "abbreviation": "066",
    "units": "066",
    "delimitation": "24/17/06/066",
    "remark": "NEW PU",
    "ward_id": "6051",
    "ward_name": "ILOGBO",
    "local_government_id": "522",
    "local_government_name": "OJO",
    "state_id": "24",
    "state_name": "LAGOS",
    "location": {
      "latitude": 6.450668299999999,
      "longitude": 3.1330748,
      "viewport": {
        "northeast": {
          "lat": 6.451981029892721,
          "lng": 3.134417879892722
        },
        "southwest": {
          "lat": 6.449281370107277,
          "lng": 3.131718220107278
        }
      },
      "formatted_address": "14b Adebola Sule St, Shibiri 930283, Lagos, Nigeria",
      "google_map_url": "https://maps.google.com?q=6.450668299999999,3.1330748",
      "google_place_id": "ChIJ11JPYAqBOxARfsqNxZBChbA"
    }
  },
  {
    "id": "122733",
    "name": "OPEN SPACE BY SANTANA BUS STOP  SHIBIRI",
    "registration_area_id": "6051",
    "precise_location": null,
    "abbreviation": "067",
    "units": "067",
    "delimitation": "24/17/06/067",
    "remark": "NEW PU",
    "ward_id": "6051",
    "ward_name": "ILOGBO",
    "local_government_id": "522",
    "local_government_name": "OJO",
    "state_id": "24",
    "state_name": "LAGOS",
    "location": {
      "latitude": 6.4611509,
      "longitude": 3.1414818,
      "viewport": {
        "northeast": {
          "lat": 6.462493279892722,
          "lng": 3.142806379892722
        },
        "southwest": {
          "lat": 6.459793620107278,
          "lng": 3.140106720107278
        }
      },
      "formatted_address": "F46R+FH9, Ojo Igbede Rd, Ojo 102101, Lagos, Nigeria",
      "google_map_url": "https://maps.google.com?q=6.4611509,3.1414818",
      "google_place_id": "ChIJc5v2PwuBOxARBUvJZ8RBN8Q"
    }
  },
  {
    "id": "122734",
    "name": "OPEN SPACE AT AFOLABI STREET  SHIBIRI",
    "registration_area_id": "6051",
    "precise_location": null,
    "abbreviation": "068",
    "units": "068",
    "delimitation": "24/17/06/068",
    "remark": "NEW PU",
    "ward_id": "6051",
    "ward_name": "ILOGBO",
    "local_government_id": "522",
    "local_government_name": "OJO",
    "state_id": "24",
    "state_name": "LAGOS",
    "location": {
      "latitude": 6.462453600000001,
      "longitude": 3.167226,
      "viewport": {
        "northeast": {
          "lat": 6.463810029892722,
          "lng": 3.168580829892722
        },
        "southwest": {
          "lat": 6.461110370107278,
          "lng": 3.165881170107277
        }
      },
      "formatted_address": "Ojo 102101, Lagos, Nigeria",
      "google_map_url": "https://maps.google.com?q=6.462453600000001,3.167226",
      "google_place_id": "ChIJz7gV8EeBOxARL3c2NiE29Uk"
    }
  },
  {
    "id": "122735",
    "name": "OPEN SPACE AT ORITSHA COMMUNITY",
    "registration_area_id": "6051",
    "precise_location": null,
    "abbreviation": "069",
    "units": "069",
    "delimitation": "24/17/06/069",
    "remark": "NEW PU",
    "ward_id": "6051",
    "ward_name": "ILOGBO",
    "local_government_id": "522",
    "local_government_name": "OJO",
    "state_id": "24",
    "state_name": "LAGOS",
    "location": {
      "latitude": 6.464768599999999,
      "longitude": 3.1577998,
      "viewport": {
        "northeast": {
          "lat": 6.466057279892722,
          "lng": 3.159151229892722
        },
        "southwest": {
          "lat": 6.463357620107278,
          "lng": 3.156451570107277
        }
      },
      "formatted_address": "12 JEMITOGBA STREET, Ilogbo Rd, Ojo, Lagos, Nigeria",
      "google_map_url": "https://maps.google.com?q=6.464768599999999,3.1577998",
      "google_place_id": "ChIJWwmBJeaBOxARnmWvHq82BQI"
    }
  },
  {
    "id": "122736",
    "name": "AYEKOTO COMMUNITY PRIMARY SCHOOL ORITSHA",
    "registration_area_id": "6051",
    "precise_location": null,
    "abbreviation": "070",
    "units": "070",
    "delimitation": "24/17/06/070",
    "remark": "NEW PU",
    "ward_id": "6051",
    "ward_name": "ILOGBO",
    "local_government_id": "522",
    "local_government_name": "OJO",
    "state_id": "24",
    "state_name": "LAGOS",
    "location": {
      "latitude": 6.4704478,
      "longitude": 3.1883163,
      "viewport": {
        "northeast": {
          "lat": 6.471725979892723,
          "lng": 3.189625079892723
        },
        "southwest": {
          "lat": 6.469026320107279,
          "lng": 3.186925420107278
        }
      },
      "formatted_address": "10 Abudu Otun Cl, Ojo 102101, Lagos, Nigeria",
      "google_map_url": "https://maps.google.com?q=6.4704478,3.1883163",
      "google_place_id": "ChIJs2OfmbqGOxARFqq2YQtMk6g"
    }
  },
  {
    "id": "122737",
    "name": "AJEWANWA COMMUNITY PRIMARY SCHOOL",
    "registration_area_id": "6051",
    "precise_location": null,
    "abbreviation": "071",
    "units": "071",
    "delimitation": "24/17/06/071",
    "remark": "NEW PU",
    "ward_id": "6051",
    "ward_name": "ILOGBO",
    "local_government_id": "522",
    "local_government_name": "OJO",
    "state_id": "24",
    "state_name": "LAGOS",
    "location": {
      "latitude": 6.4632459,
      "longitude": 3.1716792,
      "viewport": {
        "northeast": {
          "lat": 6.464626879892722,
          "lng": 3.172930729892722
        },
        "southwest": {
          "lat": 6.461927220107278,
          "lng": 3.170231070107278
        }
      },
      "formatted_address": "F57C+7MW, Taiwo Akinbode St, Ojo 102111, Lagos, Nigeria",
      "google_map_url": "https://maps.google.com?q=6.4632459,3.1716792",
      "google_place_id": "ChIJuxiDlUmBOxARjH240Ywtq90"
    }
  },
  {
    "id": "122738",
    "name": "OPEN SPACE AT ITAKETE COMMUNITY",
    "registration_area_id": "6051",
    "precise_location": null,
    "abbreviation": "072",
    "units": "072",
    "delimitation": "24/17/06/072",
    "remark": "NEW PU",
    "ward_id": "6051",
    "ward_name": "ILOGBO",
    "local_government_id": "522",
    "local_government_name": "OJO",
    "state_id": "24",
    "state_name": "LAGOS",
    "location": {
      "latitude": 6.4571082,
      "longitude": 3.1808099,
      "viewport": {
        "northeast": {
          "lat": 6.458566379892723,
          "lng": 3.182175929892722
        },
        "southwest": {
          "lat": 6.455866720107279,
          "lng": 3.179476270107277
        }
      },
      "formatted_address": "18b Ubiaro St, Ojo 102111, Lagos, Nigeria",
      "google_map_url": "https://maps.google.com?q=6.4571082,3.1808099",
      "google_place_id": "ChIJ56skTfCHOxARsEfUivUOvXc"
    }
  },
  {
    "id": "122739",
    "name": "OPEN SPACE AT ABAPASHA STREET  IMUDE",
    "registration_area_id": "6051",
    "precise_location": null,
    "abbreviation": "073",
    "units": "073",
    "delimitation": "24/17/06/073",
    "remark": "NEW PU",
    "ward_id": "6051",
    "ward_name": "ILOGBO",
    "local_government_id": "522",
    "local_government_name": "OJO",
    "state_id": "24",
    "state_name": "LAGOS",
    "location": {
      "latitude": 6.471079899999999,
      "longitude": 3.1498309,
      "viewport": {
        "northeast": {
          "lat": 6.472489529892722,
          "lng": 3.151137979892722
        },
        "southwest": {
          "lat": 6.469789870107278,
          "lng": 3.148438320107278
        }
      },
      "formatted_address": "F4CX+CWH, Oto Awori Health Centre, Ojo, Lagos, Nigeria",
      "google_map_url": "https://maps.google.com?q=6.471079899999999,3.1498309",
      "google_place_id": "ChIJ5a8Jo2-BOxAR0KSEMcEUkyg"
    }
  },
  {
    "id": "122740",
    "name": "OPEN SPACE OPPOSITE TRANSFORMER  ABADI BUS STOP",
    "registration_area_id": "6051",
    "precise_location": null,
    "abbreviation": "074",
    "units": "074",
    "delimitation": "24/17/06/074",
    "remark": "NEW PU",
    "ward_id": "6051",
    "ward_name": "ILOGBO",
    "local_government_id": "522",
    "local_government_name": "OJO",
    "state_id": "24",
    "state_name": "LAGOS",
    "location": {
      "latitude": 6.462453600000001,
      "longitude": 3.167226,
      "viewport": {
        "northeast": {
          "lat": 6.463810029892722,
          "lng": 3.168580829892722
        },
        "southwest": {
          "lat": 6.461110370107278,
          "lng": 3.165881170107277
        }
      },
      "formatted_address": "Ojo 102101, Lagos, Nigeria",
      "google_map_url": "https://maps.google.com?q=6.462453600000001,3.167226",
      "google_place_id": "ChIJz7gV8EeBOxARL3c2NiE29Uk"
    }
  },
  {
    "id": "122741",
    "name": "OPEN SPACE AT CALABAR MARKET",
    "registration_area_id": "6051",
    "precise_location": null,
    "abbreviation": "075",
    "units": "075",
    "delimitation": "24/17/06/075",
    "remark": "NEW PU",
    "ward_id": "6051",
    "ward_name": "ILOGBO",
    "local_government_id": "522",
    "local_government_name": "OJO",
    "state_id": "24",
    "state_name": "LAGOS",
    "location": {
      "latitude": 6.4581481,
      "longitude": 3.2019768,
      "viewport": {
        "northeast": {
          "lat": 6.459720829892722,
          "lng": 3.203448729892722
        },
        "southwest": {
          "lat": 6.457021170107278,
          "lng": 3.200749070107277
        }
      },
      "formatted_address": "Local Government, 31 Ojo Alaba Rago Rd, Ojo 102101, Lagos, Nigeria",
      "google_map_url": "https://maps.google.com?q=6.4581481,3.2019768",
      "google_place_id": "ChIJIwwDPoKHOxARCEGccrH7Fug"
    }
  },
  {
    "id": "122742",
    "name": "OPEN SPACE INFRONT OF MEGA STREET  ILOGBO",
    "registration_area_id": "6051",
    "precise_location": null,
    "abbreviation": "076",
    "units": "076",
    "delimitation": "24/17/06/076",
    "remark": "NEW PU",
    "ward_id": "6051",
    "ward_name": "ILOGBO",
    "local_government_id": "522",
    "local_government_name": "OJO",
    "state_id": "24",
    "state_name": "LAGOS",
    "location": {
      "latitude": 6.4686901,
      "longitude": 3.141375,
      "viewport": {
        "northeast": {
          "lat": 6.470064929892722,
          "lng": 3.142769129892722
        },
        "southwest": {
          "lat": 6.467365270107278,
          "lng": 3.140069470107278
        }
      },
      "formatted_address": "Ojo 102101, Lagos, Nigeria",
      "google_map_url": "https://maps.google.com?q=6.4686901,3.141375",
      "google_place_id": "ChIJDXDxNhKBOxARPoO1LaU630U"
    }
  },
  {
    "id": "122743",
    "name": "OPEN SPACE AT OREMETA JUNCTION  ILOGBO",
    "registration_area_id": "6051",
    "precise_location": null,
    "abbreviation": "077",
    "units": "077",
    "delimitation": "24/17/06/077",
    "remark": "NEW PU",
    "ward_id": "6051",
    "ward_name": "ILOGBO",
    "local_government_id": "522",
    "local_government_name": "OJO",
    "state_id": "24",
    "state_name": "LAGOS",
    "location": {
      "latitude": 6.462453600000001,
      "longitude": 3.167226,
      "viewport": {
        "northeast": {
          "lat": 6.463810029892722,
          "lng": 3.168580829892722
        },
        "southwest": {
          "lat": 6.461110370107278,
          "lng": 3.165881170107277
        }
      },
      "formatted_address": "Ojo 102101, Lagos, Nigeria",
      "google_map_url": "https://maps.google.com?q=6.462453600000001,3.167226",
      "google_place_id": "ChIJz7gV8EeBOxARL3c2NiE29Uk"
    }
  },
  {
    "id": "122744",
    "name": "OPEN SPACE AT TAILOR STREET",
    "registration_area_id": "6051",
    "precise_location": null,
    "abbreviation": "078",
    "units": "078",
    "delimitation": "24/17/06/078",
    "remark": "NEW PU",
    "ward_id": "6051",
    "ward_name": "ILOGBO",
    "local_government_id": "522",
    "local_government_name": "OJO",
    "state_id": "24",
    "state_name": "LAGOS",
    "location": {
      "latitude": 6.4581481,
      "longitude": 3.2019768,
      "viewport": {
        "northeast": {
          "lat": 6.459720829892722,
          "lng": 3.203448729892722
        },
        "southwest": {
          "lat": 6.457021170107278,
          "lng": 3.200749070107277
        }
      },
      "formatted_address": "Local Government, 31 Ojo Alaba Rago Rd, Ojo 102101, Lagos, Nigeria",
      "google_map_url": "https://maps.google.com?q=6.4581481,3.2019768",
      "google_place_id": "ChIJIwwDPoKHOxARCEGccrH7Fug"
    }
  },
  {
    "id": "122745",
    "name": "OPEN SPACE AT MOSHALASHI STREET BY GANIU ATANDA JUNCTION",
    "registration_area_id": "6051",
    "precise_location": null,
    "abbreviation": "079",
    "units": "079",
    "delimitation": "24/17/06/079",
    "remark": "NEW PU",
    "ward_id": "6051",
    "ward_name": "ILOGBO",
    "local_government_id": "522",
    "local_government_name": "OJO",
    "state_id": "24",
    "state_name": "LAGOS",
    "location": {
      "latitude": 6.535467799999999,
      "longitude": 3.374177,
      "viewport": {
        "northeast": {
          "lat": 6.536816529892722,
          "lng": 3.375532029892723
        },
        "southwest": {
          "lat": 6.534116870107278,
          "lng": 3.372832370107278
        }
      },
      "formatted_address": "Off Moshalashi St, Somolu 102216, Lagos, Nigeria",
      "google_map_url": "https://maps.google.com?q=6.535467799999999,3.374177",
      "google_place_id": "ChIJYe9eB6aNOxAR9KhDk_w2umE"
    }
  },
  {
    "id": "122746",
    "name": "OPEN SPACE AT LONDON STREET  OKE AGBO",
    "registration_area_id": "6051",
    "precise_location": null,
    "abbreviation": "080",
    "units": "080",
    "delimitation": "24/17/06/080",
    "remark": "NEW PU",
    "ward_id": "6051",
    "ward_name": "ILOGBO",
    "local_government_id": "522",
    "local_government_name": "OJO",
    "state_id": "24",
    "state_name": "LAGOS",
    "location": {
      "latitude": 6.4658262,
      "longitude": 3.1401312,
      "viewport": {
        "northeast": {
          "lat": 6.467150629892722,
          "lng": 3.141479279892723
        },
        "southwest": {
          "lat": 6.464450970107278,
          "lng": 3.138779620107278
        }
      },
      "formatted_address": "total fuelling Station, Ilogbo, Ojo, 67, Oke Agbo Road, Off, Ojo, Lagos, Nigeria",
      "google_map_url": "https://maps.google.com?q=6.4658262,3.1401312",
      "google_place_id": "ChIJlTNl62OBOxARlJ2apI8y89I"
    }
  }
]