[
  {
    "id": "42926",
    "name": "EKETE TOWN HALL, EKETE WATERSIDE I",
    "registration_area_id": "2356",
    "precise_location": null,
    "abbreviation": "001",
    "units": "001",
    "delimitation": "10/18/06/001",
    "remark": "EXISTING PU",
    "ward_id": "2356",
    "ward_name": "EKETE",
    "local_government_id": "204",
    "local_government_name": "UDU",
    "state_id": "10",
    "state_name": "DELTA",
    "location": {
      "latitude": 5.4989025,
      "longitude": 5.805244399999999,
      "viewport": {
        "northeast": {
          "lat": 5.500271229892721,
          "lng": 5.806718679892722
        },
        "southwest": {
          "lat": 5.497571570107278,
          "lng": 5.804019020107278
        }
      },
      "formatted_address": "FRX4+H39, Ekete Inland 330103, Ovwian, Nigeria",
      "google_map_url": "https://maps.google.com?q=5.4989025,5.805244399999999",
      "google_place_id": "ChIJZ0X3SC6yQRARt2ogORmc6Jw"
    }
  },
  {
    "id": "42927",
    "name": "EKETE TOWN HALL, EKETE WATERSIDE II",
    "registration_area_id": "2356",
    "precise_location": null,
    "abbreviation": "002",
    "units": "002",
    "delimitation": "10/18/06/002",
    "remark": "EXISTING PU",
    "ward_id": "2356",
    "ward_name": "EKETE",
    "local_government_id": "204",
    "local_government_name": "UDU",
    "state_id": "10",
    "state_name": "DELTA",
    "location": {
      "latitude": 5.5090522,
      "longitude": 5.801415,
      "viewport": {
        "northeast": {
          "lat": 5.510417579892722,
          "lng": 5.802760729892722
        },
        "southwest": {
          "lat": 5.507717920107278,
          "lng": 5.800061070107279
        }
      },
      "formatted_address": "Unnamed Road, Owase 330103, Ovwian, Nigeria",
      "google_map_url": "https://maps.google.com?q=5.5090522,5.801415",
      "google_place_id": "ChIJ17u1SmqzQRARU88-ol9oJik"
    }
  },
  {
    "id": "42928",
    "name": "EKETE CLINIC, EKETE WATERSIDE",
    "registration_area_id": "2356",
    "precise_location": null,
    "abbreviation": "003",
    "units": "003",
    "delimitation": "10/18/06/003",
    "remark": "EXISTING PU",
    "ward_id": "2356",
    "ward_name": "EKETE",
    "local_government_id": "204",
    "local_government_name": "UDU",
    "state_id": "10",
    "state_name": "DELTA",
    "location": {
      "latitude": 5.506363899999999,
      "longitude": 5.818580100000001,
      "viewport": {
        "northeast": {
          "lat": 5.507638979892722,
          "lng": 5.819955979892722
        },
        "southwest": {
          "lat": 5.504939320107278,
          "lng": 5.817256320107278
        }
      },
      "formatted_address": "GR49+GCW, Ekete 330103, Orhuwhorun, Nigeria",
      "google_map_url": "https://maps.google.com?q=5.506363899999999,5.818580100000001",
      "google_place_id": "ChIJDcZeQ4mxQRAR-C3SCtfmeG4"
    }
  },
  {
    "id": "42929",
    "name": "EKETE WATERSIDE, EKETE WATERSIDE",
    "registration_area_id": "2356",
    "precise_location": null,
    "abbreviation": "004",
    "units": "004",
    "delimitation": "10/18/06/004",
    "remark": "EXISTING PU",
    "ward_id": "2356",
    "ward_name": "EKETE",
    "local_government_id": "204",
    "local_government_name": "UDU",
    "state_id": "10",
    "state_name": "DELTA",
    "location": {
      "latitude": 5.5049508,
      "longitude": 5.8041589,
      "viewport": {
        "northeast": {
          "lat": 5.506300629892722,
          "lng": 5.805508729892722
        },
        "southwest": {
          "lat": 5.503600970107279,
          "lng": 5.802809070107278
        }
      },
      "formatted_address": "Ekete Waterside, Owase 330103, Nigeria",
      "google_map_url": "https://maps.google.com?q=5.5049508,5.8041589",
      "google_place_id": "ChIJdffwUTuyQRAR_lfFeM9cfHA"
    }
  },
  {
    "id": "42930",
    "name": "EKETE PRIMARY SCHOOL, EKETE  INLAND",
    "registration_area_id": "2356",
    "precise_location": null,
    "abbreviation": "005",
    "units": "005",
    "delimitation": "10/18/06/005",
    "remark": "EXISTING PU",
    "ward_id": "2356",
    "ward_name": "EKETE",
    "local_government_id": "204",
    "local_government_name": "UDU",
    "state_id": "10",
    "state_name": "DELTA",
    "location": {
      "latitude": 5.4970967,
      "longitude": 5.805580399999999,
      "viewport": {
        "northeast": {
          "lat": 5.498572129892723,
          "lng": 5.806874729892722
        },
        "southwest": {
          "lat": 5.495872470107279,
          "lng": 5.804175070107278
        }
      },
      "formatted_address": "FRW4+R6P, Udu Rd, Ekete Inland 330103, Warri, Nigeria",
      "google_map_url": "https://maps.google.com?q=5.4970967,5.805580399999999",
      "google_place_id": "ChIJhVDRcC6yQRARwbRiZ409y5Q"
    }
  },
  {
    "id": "42931",
    "name": "EKETE TOWN HALL, EKETE  INLAND",
    "registration_area_id": "2356",
    "precise_location": null,
    "abbreviation": "006",
    "units": "006",
    "delimitation": "10/18/06/006",
    "remark": "EXISTING PU",
    "ward_id": "2356",
    "ward_name": "EKETE",
    "local_government_id": "204",
    "local_government_name": "UDU",
    "state_id": "10",
    "state_name": "DELTA",
    "location": {
      "latitude": 5.4989025,
      "longitude": 5.805244399999999,
      "viewport": {
        "northeast": {
          "lat": 5.500271229892721,
          "lng": 5.806718679892722
        },
        "southwest": {
          "lat": 5.497571570107278,
          "lng": 5.804019020107278
        }
      },
      "formatted_address": "FRX4+H39, Ekete Inland 330103, Ovwian, Nigeria",
      "google_map_url": "https://maps.google.com?q=5.4989025,5.805244399999999",
      "google_place_id": "ChIJZ0X3SC6yQRARt2ogORmc6Jw"
    }
  },
  {
    "id": "42932",
    "name": "BY  AP  PETROL STATION, EKETE  INLAND",
    "registration_area_id": "2356",
    "precise_location": null,
    "abbreviation": "007",
    "units": "007",
    "delimitation": "10/18/06/007",
    "remark": "EXISTING PU",
    "ward_id": "2356",
    "ward_name": "EKETE",
    "local_government_id": "204",
    "local_government_name": "UDU",
    "state_id": "10",
    "state_name": "DELTA",
    "location": {
      "latitude": 5.496286599999999,
      "longitude": 5.7976895,
      "viewport": {
        "northeast": {
          "lat": 5.497730729892721,
          "lng": 5.798963329892722
        },
        "southwest": {
          "lat": 5.495031070107277,
          "lng": 5.796263670107278
        }
      },
      "formatted_address": "FQWX+G38, Ekete Inland 330103, Ovwian, Nigeria",
      "google_map_url": "https://maps.google.com?q=5.496286599999999,5.7976895",
      "google_place_id": "ChIJL6R5EDSyQRARvYpAXPdR_7M"
    }
  },
  {
    "id": "42933",
    "name": "OWHASE TOWN HALL, OWHASE I",
    "registration_area_id": "2356",
    "precise_location": null,
    "abbreviation": "008",
    "units": "008",
    "delimitation": "10/18/06/008",
    "remark": "EXISTING PU",
    "ward_id": "2356",
    "ward_name": "EKETE",
    "local_government_id": "204",
    "local_government_name": "UDU",
    "state_id": "10",
    "state_name": "DELTA",
    "location": {
      "latitude": 5.5089571,
      "longitude": 5.7893443,
      "viewport": {
        "northeast": {
          "lat": 5.510369929892722,
          "lng": 5.790654079892722
        },
        "southwest": {
          "lat": 5.507670270107278,
          "lng": 5.787954420107278
        }
      },
      "formatted_address": "GQ5Q+HPQ, Udu Rd, Owase 330103, Warri, Nigeria",
      "google_map_url": "https://maps.google.com?q=5.5089571,5.7893443",
      "google_place_id": "ChIJOb_rFEGyQRARDrYLLdSCftk"
    }
  },
  {
    "id": "42934",
    "name": "OWHASE TOWN HALL, OWHASE II",
    "registration_area_id": "2356",
    "precise_location": null,
    "abbreviation": "009",
    "units": "009",
    "delimitation": "10/18/06/009",
    "remark": "EXISTING PU",
    "ward_id": "2356",
    "ward_name": "EKETE",
    "local_government_id": "204",
    "local_government_name": "UDU",
    "state_id": "10",
    "state_name": "DELTA",
    "location": {
      "latitude": 5.5089571,
      "longitude": 5.7893443,
      "viewport": {
        "northeast": {
          "lat": 5.510369929892722,
          "lng": 5.790654079892722
        },
        "southwest": {
          "lat": 5.507670270107278,
          "lng": 5.787954420107278
        }
      },
      "formatted_address": "GQ5Q+HPQ, Udu Rd, Owase 330103, Warri, Nigeria",
      "google_map_url": "https://maps.google.com?q=5.5089571,5.7893443",
      "google_place_id": "ChIJOb_rFEGyQRARDrYLLdSCftk"
    }
  },
  {
    "id": "42935",
    "name": "OWHASE PRIMARY SCHOOLL, OWHASE",
    "registration_area_id": "2356",
    "precise_location": null,
    "abbreviation": "010",
    "units": "010",
    "delimitation": "10/18/06/010",
    "remark": "EXISTING PU",
    "ward_id": "2356",
    "ward_name": "EKETE",
    "local_government_id": "204",
    "local_government_name": "UDU",
    "state_id": "10",
    "state_name": "DELTA",
    "location": null
  },
  {
    "id": "42936",
    "name": "EKETE SEC SCH, KOTOKOTO",
    "registration_area_id": "2356",
    "precise_location": null,
    "abbreviation": "011",
    "units": "011",
    "delimitation": "10/18/06/011",
    "remark": "NEW PU",
    "ward_id": "2356",
    "ward_name": "EKETE",
    "local_government_id": "204",
    "local_government_name": "UDU",
    "state_id": "10",
    "state_name": "DELTA",
    "location": {
      "latitude": 5.510358999999999,
      "longitude": 5.7966489,
      "viewport": {
        "northeast": {
          "lat": 5.511587929892722,
          "lng": 5.797771329892722
        },
        "southwest": {
          "lat": 5.508888270107278,
          "lng": 5.795071670107278
        }
      },
      "formatted_address": "GQ6W+4MR, Owase 330103, Ovwian, Nigeria",
      "google_map_url": "https://maps.google.com?q=5.510358999999999,5.7966489",
      "google_place_id": "ChIJV1Q0Wj6yQRAR-Me-EmerDg8"
    }
  },
  {
    "id": "42937",
    "name": "EKETE WATERSIDE PRY SCH, KOTOKOTO",
    "registration_area_id": "2356",
    "precise_location": null,
    "abbreviation": "012",
    "units": "012",
    "delimitation": "10/18/06/012",
    "remark": "NEW PU",
    "ward_id": "2356",
    "ward_name": "EKETE",
    "local_government_id": "204",
    "local_government_name": "UDU",
    "state_id": "10",
    "state_name": "DELTA",
    "location": {
      "latitude": 5.508297199999999,
      "longitude": 5.809202099999999,
      "viewport": {
        "northeast": {
          "lat": 5.509682579892721,
          "lng": 5.810576579892722
        },
        "southwest": {
          "lat": 5.506982920107277,
          "lng": 5.807876920107278
        }
      },
      "formatted_address": "1, Jenny School Rd, Ekete Waterside, off, Warri Port Expy, Warri, Nigeria",
      "google_map_url": "https://maps.google.com?q=5.508297199999999,5.809202099999999",
      "google_place_id": "ChIJ4agEXyGyQRARcrfFhCsJwDs"
    }
  },
  {
    "id": "42938",
    "name": "RIVER ROAD BY T-JUNCTION",
    "registration_area_id": "2356",
    "precise_location": null,
    "abbreviation": "013",
    "units": "013",
    "delimitation": "10/18/06/013",
    "remark": "NEW PU",
    "ward_id": "2356",
    "ward_name": "EKETE",
    "local_government_id": "204",
    "local_government_name": "UDU",
    "state_id": "10",
    "state_name": "DELTA",
    "location": {
      "latitude": 5.5090522,
      "longitude": 5.801415,
      "viewport": {
        "northeast": {
          "lat": 5.510417579892722,
          "lng": 5.802760729892722
        },
        "southwest": {
          "lat": 5.507717920107278,
          "lng": 5.800061070107279
        }
      },
      "formatted_address": "Unnamed Road, Owase 330103, Ovwian, Nigeria",
      "google_map_url": "https://maps.google.com?q=5.5090522,5.801415",
      "google_place_id": "ChIJ17u1SmqzQRARU88-ol9oJik"
    }
  },
  {
    "id": "42939",
    "name": "PAUL PLAZA OPEN SPACE, WATERSIDE",
    "registration_area_id": "2356",
    "precise_location": null,
    "abbreviation": "014",
    "units": "014",
    "delimitation": "10/18/06/014",
    "remark": "NEW PU",
    "ward_id": "2356",
    "ward_name": "EKETE",
    "local_government_id": "204",
    "local_government_name": "UDU",
    "state_id": "10",
    "state_name": "DELTA",
    "location": {
      "latitude": 25.7813321,
      "longitude": -80.1858994,
      "viewport": {
        "northeast": {
          "lat": 25.78270302989272,
          "lng": -80.18452702010728
        },
        "southwest": {
          "lat": 25.78000337010728,
          "lng": -80.18722667989272
        }
      },
      "formatted_address": "400 NE 8th St, Miami, FL 33130, United States",
      "google_map_url": "https://maps.google.com?q=25.7813321,-80.1858994",
      "google_place_id": "ChIJZbTvMeu12YgR4K0pQBCCFaY"
    }
  },
  {
    "id": "42940",
    "name": "EKETE WATERSIDE JUNCTION, OPEN SPACE I",
    "registration_area_id": "2356",
    "precise_location": null,
    "abbreviation": "015",
    "units": "015",
    "delimitation": "10/18/06/015",
    "remark": "NEW PU",
    "ward_id": "2356",
    "ward_name": "EKETE",
    "local_government_id": "204",
    "local_government_name": "UDU",
    "state_id": "10",
    "state_name": "DELTA",
    "location": {
      "latitude": 5.5090522,
      "longitude": 5.801415,
      "viewport": {
        "northeast": {
          "lat": 5.510417579892722,
          "lng": 5.802760729892722
        },
        "southwest": {
          "lat": 5.507717920107278,
          "lng": 5.800061070107279
        }
      },
      "formatted_address": "Unnamed Road, Owase 330103, Ovwian, Nigeria",
      "google_map_url": "https://maps.google.com?q=5.5090522,5.801415",
      "google_place_id": "ChIJ17u1SmqzQRARU88-ol9oJik"
    }
  },
  {
    "id": "42941",
    "name": "EKETE WATERSIDE JUNCTION, OPEN SPACE II",
    "registration_area_id": "2356",
    "precise_location": null,
    "abbreviation": "016",
    "units": "016",
    "delimitation": "10/18/06/016",
    "remark": "NEW PU",
    "ward_id": "2356",
    "ward_name": "EKETE",
    "local_government_id": "204",
    "local_government_name": "UDU",
    "state_id": "10",
    "state_name": "DELTA",
    "location": {
      "latitude": 5.5090522,
      "longitude": 5.801415,
      "viewport": {
        "northeast": {
          "lat": 5.510417579892722,
          "lng": 5.802760729892722
        },
        "southwest": {
          "lat": 5.507717920107278,
          "lng": 5.800061070107279
        }
      },
      "formatted_address": "Unnamed Road, Owase 330103, Ovwian, Nigeria",
      "google_map_url": "https://maps.google.com?q=5.5090522,5.801415",
      "google_place_id": "ChIJ17u1SmqzQRARU88-ol9oJik"
    }
  },
  {
    "id": "42942",
    "name": "ATO WATERSIDE OPEN SPACE I",
    "registration_area_id": "2356",
    "precise_location": null,
    "abbreviation": "017",
    "units": "017",
    "delimitation": "10/18/06/017",
    "remark": "NEW PU",
    "ward_id": "2356",
    "ward_name": "EKETE",
    "local_government_id": "204",
    "local_government_name": "UDU",
    "state_id": "10",
    "state_name": "DELTA",
    "location": null
  },
  {
    "id": "42943",
    "name": "ATO WATERSIDE OPEN SPACE II",
    "registration_area_id": "2356",
    "precise_location": null,
    "abbreviation": "018",
    "units": "018",
    "delimitation": "10/18/06/018",
    "remark": "NEW PU",
    "ward_id": "2356",
    "ward_name": "EKETE",
    "local_government_id": "204",
    "local_government_name": "UDU",
    "state_id": "10",
    "state_name": "DELTA",
    "location": {
      "latitude": 5.5090522,
      "longitude": 5.801415,
      "viewport": {
        "northeast": {
          "lat": 5.510417579892722,
          "lng": 5.802760729892722
        },
        "southwest": {
          "lat": 5.507717920107278,
          "lng": 5.800061070107279
        }
      },
      "formatted_address": "Unnamed Road, Owase 330103, Ovwian, Nigeria",
      "google_map_url": "https://maps.google.com?q=5.5090522,5.801415",
      "google_place_id": "ChIJ17u1SmqzQRARU88-ol9oJik"
    }
  },
  {
    "id": "42944",
    "name": "MAGREY HALL",
    "registration_area_id": "2356",
    "precise_location": null,
    "abbreviation": "019",
    "units": "019",
    "delimitation": "10/18/06/019",
    "remark": "NEW PU",
    "ward_id": "2356",
    "ward_name": "EKETE",
    "local_government_id": "204",
    "local_government_name": "UDU",
    "state_id": "10",
    "state_name": "DELTA",
    "location": null
  },
  {
    "id": "42945",
    "name": "EKETE PRY SCH, EKETE INLAND II",
    "registration_area_id": "2356",
    "precise_location": null,
    "abbreviation": "020",
    "units": "020",
    "delimitation": "10/18/06/020",
    "remark": "NEW PU",
    "ward_id": "2356",
    "ward_name": "EKETE",
    "local_government_id": "204",
    "local_government_name": "UDU",
    "state_id": "10",
    "state_name": "DELTA",
    "location": {
      "latitude": 5.4970967,
      "longitude": 5.805580399999999,
      "viewport": {
        "northeast": {
          "lat": 5.498572129892723,
          "lng": 5.806874729892722
        },
        "southwest": {
          "lat": 5.495872470107279,
          "lng": 5.804175070107278
        }
      },
      "formatted_address": "FRW4+R6P, Udu Rd, Ekete Inland 330103, Warri, Nigeria",
      "google_map_url": "https://maps.google.com?q=5.4970967,5.805580399999999",
      "google_place_id": "ChIJhVDRcC6yQRARwbRiZ409y5Q"
    }
  },
  {
    "id": "42946",
    "name": "EKETE PRY SCH, EKETE INLAND III",
    "registration_area_id": "2356",
    "precise_location": null,
    "abbreviation": "021",
    "units": "021",
    "delimitation": "10/18/06/021",
    "remark": "NEW PU",
    "ward_id": "2356",
    "ward_name": "EKETE",
    "local_government_id": "204",
    "local_government_name": "UDU",
    "state_id": "10",
    "state_name": "DELTA",
    "location": {
      "latitude": 5.4970967,
      "longitude": 5.805580399999999,
      "viewport": {
        "northeast": {
          "lat": 5.498572129892723,
          "lng": 5.806874729892722
        },
        "southwest": {
          "lat": 5.495872470107279,
          "lng": 5.804175070107278
        }
      },
      "formatted_address": "FRW4+R6P, Udu Rd, Ekete Inland 330103, Warri, Nigeria",
      "google_map_url": "https://maps.google.com?q=5.4970967,5.805580399999999",
      "google_place_id": "ChIJhVDRcC6yQRARwbRiZ409y5Q"
    }
  },
  {
    "id": "42947",
    "name": "EKETE PRY SCH, EKETE INLAND IV",
    "registration_area_id": "2356",
    "precise_location": null,
    "abbreviation": "022",
    "units": "022",
    "delimitation": "10/18/06/022",
    "remark": "NEW PU",
    "ward_id": "2356",
    "ward_name": "EKETE",
    "local_government_id": "204",
    "local_government_name": "UDU",
    "state_id": "10",
    "state_name": "DELTA",
    "location": {
      "latitude": 5.4970967,
      "longitude": 5.805580399999999,
      "viewport": {
        "northeast": {
          "lat": 5.498572129892723,
          "lng": 5.806874729892722
        },
        "southwest": {
          "lat": 5.495872470107279,
          "lng": 5.804175070107278
        }
      },
      "formatted_address": "FRW4+R6P, Udu Rd, Ekete Inland 330103, Warri, Nigeria",
      "google_map_url": "https://maps.google.com?q=5.4970967,5.805580399999999",
      "google_place_id": "ChIJhVDRcC6yQRARwbRiZ409y5Q"
    }
  },
  {
    "id": "42948",
    "name": "EKETE TIPPER GARAGE OPEN SPACE I",
    "registration_area_id": "2356",
    "precise_location": null,
    "abbreviation": "023",
    "units": "023",
    "delimitation": "10/18/06/023",
    "remark": "NEW PU",
    "ward_id": "2356",
    "ward_name": "EKETE",
    "local_government_id": "204",
    "local_government_name": "UDU",
    "state_id": "10",
    "state_name": "DELTA",
    "location": {
      "latitude": 5.4972231,
      "longitude": 5.7938836,
      "viewport": {
        "northeast": {
          "lat": 5.498625679892721,
          "lng": 5.795292829892722
        },
        "southwest": {
          "lat": 5.495926020107277,
          "lng": 5.792593170107278
        }
      },
      "formatted_address": "FQWV+VHJ, Udu Rd, Ekete Inland 330103, Warri, Nigeria",
      "google_map_url": "https://maps.google.com?q=5.4972231,5.7938836",
      "google_place_id": "ChIJJVuvCDayQRAR8kQDwQ5gRlw"
    }
  },
  {
    "id": "42949",
    "name": "EKETE TIPPER GARAGE OPEN SPACE II",
    "registration_area_id": "2356",
    "precise_location": null,
    "abbreviation": "024",
    "units": "024",
    "delimitation": "10/18/06/024",
    "remark": "NEW PU",
    "ward_id": "2356",
    "ward_name": "EKETE",
    "local_government_id": "204",
    "local_government_name": "UDU",
    "state_id": "10",
    "state_name": "DELTA",
    "location": {
      "latitude": 5.4849976,
      "longitude": 5.8033505,
      "viewport": {
        "northeast": {
          "lat": 5.486752629892721,
          "lng": 5.805177479892722
        },
        "southwest": {
          "lat": 5.484052970107277,
          "lng": 5.802477820107278
        }
      },
      "formatted_address": "FRM3+X8X, Ekete Inland 330103, Ovwian, Nigeria",
      "google_map_url": "https://maps.google.com?q=5.4849976,5.8033505",
      "google_place_id": "ChIJxZrDYS2zQRARlOuDa_0Qo8w"
    }
  },
  {
    "id": "42950",
    "name": "JOY PLAZA OPEN SPACE",
    "registration_area_id": "2356",
    "precise_location": null,
    "abbreviation": "025",
    "units": "025",
    "delimitation": "10/18/06/025",
    "remark": "NEW PU",
    "ward_id": "2356",
    "ward_name": "EKETE",
    "local_government_id": "204",
    "local_government_name": "UDU",
    "state_id": "10",
    "state_name": "DELTA",
    "location": {
      "latitude": 5.500210699999999,
      "longitude": 5.8039616,
      "viewport": {
        "northeast": {
          "lat": 5.501685929892721,
          "lng": 5.805263829892722
        },
        "southwest": {
          "lat": 5.498986270107277,
          "lng": 5.802564170107278
        }
      },
      "formatted_address": "GR23+4H4, Owase 330103, Ovwian, Nigeria",
      "google_map_url": "https://maps.google.com?q=5.500210699999999,5.8039616",
      "google_place_id": "ChIJBWG4cq2zQRARPBvPo2EiHdg"
    }
  },
  {
    "id": "42951",
    "name": "EKETE MARKET SQUARE OPEN SPACE",
    "registration_area_id": "2356",
    "precise_location": null,
    "abbreviation": "026",
    "units": "026",
    "delimitation": "10/18/06/026",
    "remark": "NEW PU",
    "ward_id": "2356",
    "ward_name": "EKETE",
    "local_government_id": "204",
    "local_government_name": "UDU",
    "state_id": "10",
    "state_name": "DELTA",
    "location": {
      "latitude": 5.4950408,
      "longitude": 5.7964528,
      "viewport": {
        "northeast": {
          "lat": 5.496299429892722,
          "lng": 5.797689379892723
        },
        "southwest": {
          "lat": 5.493599770107278,
          "lng": 5.794989720107279
        }
      },
      "formatted_address": "FQWW+2H8, Wado City, Delta State, Nigeria, Ekete Inland 330103, Ovwian, Nigeria",
      "google_map_url": "https://maps.google.com?q=5.4950408,5.7964528",
      "google_place_id": "ChIJvclKlByzQRAREkxf5AhrZDg"
    }
  },
  {
    "id": "42952",
    "name": "BORO OPEN SPACE OWHASE",
    "registration_area_id": "2356",
    "precise_location": null,
    "abbreviation": "027",
    "units": "027",
    "delimitation": "10/18/06/027",
    "remark": "NEW PU",
    "ward_id": "2356",
    "ward_name": "EKETE",
    "local_government_id": "204",
    "local_government_name": "UDU",
    "state_id": "10",
    "state_name": "DELTA",
    "location": {
      "latitude": 5.5086426,
      "longitude": 5.7896594,
      "viewport": {
        "northeast": {
          "lat": 5.510039879892721,
          "lng": 5.790997279892721
        },
        "southwest": {
          "lat": 5.507340220107277,
          "lng": 5.788297620107278
        }
      },
      "formatted_address": "Owhase Primary School, Owase 330103, Warri, Nigeria",
      "google_map_url": "https://maps.google.com?q=5.5086426,5.7896594",
      "google_place_id": "ChIJkVvyPUGyQRARPnE_cSULw54"
    }
  },
  {
    "id": "42953",
    "name": "NEWYORK OPEN SPACE",
    "registration_area_id": "2356",
    "precise_location": null,
    "abbreviation": "028",
    "units": "028",
    "delimitation": "10/18/06/028",
    "remark": "NEW PU",
    "ward_id": "2356",
    "ward_name": "EKETE",
    "local_government_id": "204",
    "local_government_name": "UDU",
    "state_id": "10",
    "state_name": "DELTA",
    "location": {
      "latitude": 5.505865099999999,
      "longitude": 5.810937399999999,
      "viewport": {
        "northeast": {
          "lat": 5.507262779892721,
          "lng": 5.812209029892721
        },
        "southwest": {
          "lat": 5.504563120107277,
          "lng": 5.809509370107278
        }
      },
      "formatted_address": "GR46+89V, Ekete 330103, Ovwian, Nigeria",
      "google_map_url": "https://maps.google.com?q=5.505865099999999,5.810937399999999",
      "google_place_id": "ChIJwZ4Q6CayQRARICjGOuW-rSc"
    }
  },
  {
    "id": "42954",
    "name": "OWHASE PRY SCH II",
    "registration_area_id": "2356",
    "precise_location": null,
    "abbreviation": "029",
    "units": "029",
    "delimitation": "10/18/06/029",
    "remark": "NEW PU",
    "ward_id": "2356",
    "ward_name": "EKETE",
    "local_government_id": "204",
    "local_government_name": "UDU",
    "state_id": "10",
    "state_name": "DELTA",
    "location": {
      "latitude": 5.507308999999999,
      "longitude": 5.7882185,
      "viewport": {
        "northeast": {
          "lat": 5.508658829892722,
          "lng": 5.789568329892722
        },
        "southwest": {
          "lat": 5.505959170107278,
          "lng": 5.786868670107278
        }
      },
      "formatted_address": "Owhase Rd, Owase 330103, Ovwian, Nigeria",
      "google_map_url": "https://maps.google.com?q=5.507308999999999,5.7882185",
      "google_place_id": "ChIJ6ejt00WyQRARzX1Y0ehrIfg"
    }
  }
]