[
  {
    "id": "59899",
    "name": "KALKUNJI I, KOFAR JAURO KALKUNJI",
    "registration_area_id": "3257",
    "precise_location": null,
    "abbreviation": "001",
    "units": "001",
    "delimitation": "15/03/02/001",
    "remark": "EXISTING PU",
    "ward_id": "3257",
    "ward_name": "BAGANJE SOUTH",
    "local_government_id": "284",
    "local_government_name": "BILLIRI",
    "state_id": "15",
    "state_name": "GOMBE",
    "location": {
      "latitude": 9.8821399,
      "longitude": 11.208943,
      "viewport": {
        "northeast": {
          "lat": 9.883554629892721,
          "lng": 11.21040362989272
        },
        "southwest": {
          "lat": 9.880854970107277,
          "lng": 11.20770397010728
        }
      },
      "formatted_address": "V6J5+VH4, Billiri, Kalmai, Nigeria",
      "google_map_url": "https://maps.google.com?q=9.8821399,11.208943",
      "google_place_id": "ChIJzbgKby2u_xARzbEh9QpvCBY"
    }
  },
  {
    "id": "59900",
    "name": "KALKUNJI II, KOFAR JAURO KALKUNJI",
    "registration_area_id": "3257",
    "precise_location": null,
    "abbreviation": "002",
    "units": "002",
    "delimitation": "15/03/02/002",
    "remark": "EXISTING PU",
    "ward_id": "3257",
    "ward_name": "BAGANJE SOUTH",
    "local_government_id": "284",
    "local_government_name": "BILLIRI",
    "state_id": "15",
    "state_name": "GOMBE",
    "location": {
      "latitude": 9.8821399,
      "longitude": 11.208943,
      "viewport": {
        "northeast": {
          "lat": 9.883554629892721,
          "lng": 11.21040362989272
        },
        "southwest": {
          "lat": 9.880854970107277,
          "lng": 11.20770397010728
        }
      },
      "formatted_address": "V6J5+VH4, Billiri, Kalmai, Nigeria",
      "google_map_url": "https://maps.google.com?q=9.8821399,11.208943",
      "google_place_id": "ChIJzbgKby2u_xARzbEh9QpvCBY"
    }
  },
  {
    "id": "59901",
    "name": "POLAPANDI, KWAYA, POLAPANDI KWAYA PRI. SCH.",
    "registration_area_id": "3257",
    "precise_location": null,
    "abbreviation": "003",
    "units": "003",
    "delimitation": "15/03/02/003",
    "remark": "EXISTING PU",
    "ward_id": "3257",
    "ward_name": "BAGANJE SOUTH",
    "local_government_id": "284",
    "local_government_name": "BILLIRI",
    "state_id": "15",
    "state_name": "GOMBE",
    "location": {
      "latitude": 9.8571124,
      "longitude": 11.1870437,
      "viewport": {
        "northeast": {
          "lat": 9.85847752989272,
          "lng": 11.18833947989272
        },
        "southwest": {
          "lat": 9.855777870107277,
          "lng": 11.18563982010728
        }
      },
      "formatted_address": "Polapandi Primary School, 771101, Polapindi, Nigeria",
      "google_map_url": "https://maps.google.com?q=9.8571124,11.1870437",
      "google_place_id": "ChIJ8U2yVaKv_xARlbvGuQpW91A"
    }
  },
  {
    "id": "59902",
    "name": "KANDURO, KOFAR JAURO KANDURO",
    "registration_area_id": "3257",
    "precise_location": null,
    "abbreviation": "004",
    "units": "004",
    "delimitation": "15/03/02/004",
    "remark": "EXISTING PU",
    "ward_id": "3257",
    "ward_name": "BAGANJE SOUTH",
    "local_government_id": "284",
    "local_government_name": "BILLIRI",
    "state_id": "15",
    "state_name": "GOMBE",
    "location": null
  },
  {
    "id": "59903",
    "name": "BANGANJENTING, KOFAR SARKI BANGANJE",
    "registration_area_id": "3257",
    "precise_location": null,
    "abbreviation": "005",
    "units": "005",
    "delimitation": "15/03/02/005",
    "remark": "EXISTING PU",
    "ward_id": "3257",
    "ward_name": "BAGANJE SOUTH",
    "local_government_id": "284",
    "local_government_name": "BILLIRI",
    "state_id": "15",
    "state_name": "GOMBE",
    "location": {
      "latitude": 9.9124784,
      "longitude": 11.2100654,
      "viewport": {
        "northeast": {
          "lat": 9.913902479892721,
          "lng": 11.21148212989272
        },
        "southwest": {
          "lat": 9.911202820107277,
          "lng": 11.20878247010728
        }
      },
      "formatted_address": "Gombe-Yola Road, Gombe, Nigeria",
      "google_map_url": "https://maps.google.com?q=9.9124784,11.2100654",
      "google_place_id": "ChIJhR87-Mqx_xARRujNE2SKaAI"
    }
  },
  {
    "id": "59904",
    "name": "BORE, KOFAR JAURO BORE",
    "registration_area_id": "3257",
    "precise_location": null,
    "abbreviation": "006",
    "units": "006",
    "delimitation": "15/03/02/006",
    "remark": "EXISTING PU",
    "ward_id": "3257",
    "ward_name": "BAGANJE SOUTH",
    "local_government_id": "284",
    "local_government_name": "BILLIRI",
    "state_id": "15",
    "state_name": "GOMBE",
    "location": null
  },
  {
    "id": "59905",
    "name": "SESSER, KOFAR JAURO SESSER",
    "registration_area_id": "3257",
    "precise_location": null,
    "abbreviation": "007",
    "units": "007",
    "delimitation": "15/03/02/007",
    "remark": "EXISTING PU",
    "ward_id": "3257",
    "ward_name": "BAGANJE SOUTH",
    "local_government_id": "284",
    "local_government_name": "BILLIRI",
    "state_id": "15",
    "state_name": "GOMBE",
    "location": {
      "latitude": 9.8821399,
      "longitude": 11.208943,
      "viewport": {
        "northeast": {
          "lat": 9.883554629892721,
          "lng": 11.21040362989272
        },
        "southwest": {
          "lat": 9.880854970107277,
          "lng": 11.20770397010728
        }
      },
      "formatted_address": "V6J5+VH4, Billiri, Kalmai, Nigeria",
      "google_map_url": "https://maps.google.com?q=9.8821399,11.208943",
      "google_place_id": "ChIJzbgKby2u_xARzbEh9QpvCBY"
    }
  },
  {
    "id": "59906",
    "name": "LATU, KOFAR JAURO LATU",
    "registration_area_id": "3257",
    "precise_location": null,
    "abbreviation": "008",
    "units": "008",
    "delimitation": "15/03/02/008",
    "remark": "EXISTING PU",
    "ward_id": "3257",
    "ward_name": "BAGANJE SOUTH",
    "local_government_id": "284",
    "local_government_name": "BILLIRI",
    "state_id": "15",
    "state_name": "GOMBE",
    "location": null
  },
  {
    "id": "59907",
    "name": "LAWISHI , LAYAFI, KOFAR JAURO LAWISHI I",
    "registration_area_id": "3257",
    "precise_location": null,
    "abbreviation": "009",
    "units": "009",
    "delimitation": "15/03/02/009",
    "remark": "EXISTING PU",
    "ward_id": "3257",
    "ward_name": "BAGANJE SOUTH",
    "local_government_id": "284",
    "local_government_name": "BILLIRI",
    "state_id": "15",
    "state_name": "GOMBE",
    "location": {
      "latitude": 9.8821399,
      "longitude": 11.208943,
      "viewport": {
        "northeast": {
          "lat": 9.883554629892721,
          "lng": 11.21040362989272
        },
        "southwest": {
          "lat": 9.880854970107277,
          "lng": 11.20770397010728
        }
      },
      "formatted_address": "V6J5+VH4, Billiri, Kalmai, Nigeria",
      "google_map_url": "https://maps.google.com?q=9.8821399,11.208943",
      "google_place_id": "ChIJzbgKby2u_xARzbEh9QpvCBY"
    }
  },
  {
    "id": "59908",
    "name": "LAWISHI LAYAFI, KOFAR JAURO LAYAFI II",
    "registration_area_id": "3257",
    "precise_location": null,
    "abbreviation": "010",
    "units": "010",
    "delimitation": "15/03/02/010",
    "remark": "EXISTING PU",
    "ward_id": "3257",
    "ward_name": "BAGANJE SOUTH",
    "local_government_id": "284",
    "local_government_name": "BILLIRI",
    "state_id": "15",
    "state_name": "GOMBE",
    "location": {
      "latitude": 9.8821399,
      "longitude": 11.208943,
      "viewport": {
        "northeast": {
          "lat": 9.883554629892721,
          "lng": 11.21040362989272
        },
        "southwest": {
          "lat": 9.880854970107277,
          "lng": 11.20770397010728
        }
      },
      "formatted_address": "V6J5+VH4, Billiri, Kalmai, Nigeria",
      "google_map_url": "https://maps.google.com?q=9.8821399,11.208943",
      "google_place_id": "ChIJzbgKby2u_xARzbEh9QpvCBY"
    }
  },
  {
    "id": "59909",
    "name": "KENGRENG, KOFAR JAURO KENGRENG",
    "registration_area_id": "3257",
    "precise_location": null,
    "abbreviation": "011",
    "units": "011",
    "delimitation": "15/03/02/011",
    "remark": "EXISTING PU",
    "ward_id": "3257",
    "ward_name": "BAGANJE SOUTH",
    "local_government_id": "284",
    "local_government_name": "BILLIRI",
    "state_id": "15",
    "state_name": "GOMBE",
    "location": {
      "latitude": 10.27907,
      "longitude": 11.1353882,
      "viewport": {
        "northeast": {
          "lat": 10.28065467989272,
          "lng": 11.13676697989272
        },
        "southwest": {
          "lat": 10.27795502010728,
          "lng": 11.13406732010728
        }
      },
      "formatted_address": "74HP+J5C, 771104, Gombe, Nigeria",
      "google_map_url": "https://maps.google.com?q=10.27907,11.1353882",
      "google_place_id": "ChIJbZTVl-3a_xARk-ah34o4luc"
    }
  },
  {
    "id": "59910",
    "name": "LAKARAI, KOFAR JAURO LAKARAI",
    "registration_area_id": "3257",
    "precise_location": null,
    "abbreviation": "012",
    "units": "012",
    "delimitation": "15/03/02/012",
    "remark": "EXISTING PU",
    "ward_id": "3257",
    "ward_name": "BAGANJE SOUTH",
    "local_government_id": "284",
    "local_government_name": "BILLIRI",
    "state_id": "15",
    "state_name": "GOMBE",
    "location": null
  },
  {
    "id": "59911",
    "name": "LATUR, K. DANLADI ADAMU",
    "registration_area_id": "3257",
    "precise_location": null,
    "abbreviation": "013",
    "units": "013",
    "delimitation": "15/03/02/013",
    "remark": "EXISTING PU",
    "ward_id": "3257",
    "ward_name": "BAGANJE SOUTH",
    "local_government_id": "284",
    "local_government_name": "BILLIRI",
    "state_id": "15",
    "state_name": "GOMBE",
    "location": null
  },
  {
    "id": "59912",
    "name": "KALKUNJI I, KOFAR JAURO KALKUNJI",
    "registration_area_id": "3257",
    "precise_location": null,
    "abbreviation": "014",
    "units": "014",
    "delimitation": "15/03/02/014",
    "remark": "NEW PU",
    "ward_id": "3257",
    "ward_name": "BAGANJE SOUTH",
    "local_government_id": "284",
    "local_government_name": "BILLIRI",
    "state_id": "15",
    "state_name": "GOMBE",
    "location": {
      "latitude": 9.8821399,
      "longitude": 11.208943,
      "viewport": {
        "northeast": {
          "lat": 9.883554629892721,
          "lng": 11.21040362989272
        },
        "southwest": {
          "lat": 9.880854970107277,
          "lng": 11.20770397010728
        }
      },
      "formatted_address": "V6J5+VH4, Billiri, Kalmai, Nigeria",
      "google_map_url": "https://maps.google.com?q=9.8821399,11.208943",
      "google_place_id": "ChIJzbgKby2u_xARzbEh9QpvCBY"
    }
  },
  {
    "id": "59913",
    "name": "PRIMARY SCHOOL A.",
    "registration_area_id": "3257",
    "precise_location": null,
    "abbreviation": "015",
    "units": "015",
    "delimitation": "15/03/02/015",
    "remark": "NEW PU",
    "ward_id": "3257",
    "ward_name": "BAGANJE SOUTH",
    "local_government_id": "284",
    "local_government_name": "BILLIRI",
    "state_id": "15",
    "state_name": "GOMBE",
    "location": {
      "latitude": 9.896115199999999,
      "longitude": 11.2226532,
      "viewport": {
        "northeast": {
          "lat": 9.89753457989272,
          "lng": 11.22385972989272
        },
        "southwest": {
          "lat": 9.894834920107277,
          "lng": 11.22116007010728
        }
      },
      "formatted_address": "V6WF+C3R, Yola Road, Billiri, Gombe, Nigeria",
      "google_map_url": "https://maps.google.com?q=9.896115199999999,11.2226532",
      "google_place_id": "ChIJVXDTQdmx_xARCg9Q9dIraXM"
    }
  },
  {
    "id": "59914",
    "name": "POLAPANDI, KWAYA POLAPANDI PRI SCH. B.",
    "registration_area_id": "3257",
    "precise_location": null,
    "abbreviation": "016",
    "units": "016",
    "delimitation": "15/03/02/016",
    "remark": "NEW PU",
    "ward_id": "3257",
    "ward_name": "BAGANJE SOUTH",
    "local_government_id": "284",
    "local_government_name": "BILLIRI",
    "state_id": "15",
    "state_name": "GOMBE",
    "location": {
      "latitude": 9.896115199999999,
      "longitude": 11.2226532,
      "viewport": {
        "northeast": {
          "lat": 9.89753457989272,
          "lng": 11.22385972989272
        },
        "southwest": {
          "lat": 9.894834920107277,
          "lng": 11.22116007010728
        }
      },
      "formatted_address": "V6WF+C3R, Yola Road, Billiri, Gombe, Nigeria",
      "google_map_url": "https://maps.google.com?q=9.896115199999999,11.2226532",
      "google_place_id": "ChIJVXDTQdmx_xARCg9Q9dIraXM"
    }
  },
  {
    "id": "59915",
    "name": "KANDURO K.J. KANDURO A.",
    "registration_area_id": "3257",
    "precise_location": null,
    "abbreviation": "017",
    "units": "017",
    "delimitation": "15/03/02/017",
    "remark": "NEW PU",
    "ward_id": "3257",
    "ward_name": "BAGANJE SOUTH",
    "local_government_id": "284",
    "local_government_name": "BILLIRI",
    "state_id": "15",
    "state_name": "GOMBE",
    "location": {
      "latitude": 9.9124784,
      "longitude": 11.2100654,
      "viewport": {
        "northeast": {
          "lat": 9.913902479892721,
          "lng": 11.21148212989272
        },
        "southwest": {
          "lat": 9.911202820107277,
          "lng": 11.20878247010728
        }
      },
      "formatted_address": "Gombe-Yola Road, Gombe, Nigeria",
      "google_map_url": "https://maps.google.com?q=9.9124784,11.2100654",
      "google_place_id": "ChIJhR87-Mqx_xARRujNE2SKaAI"
    }
  },
  {
    "id": "59916",
    "name": "BANGANJENTING, K.J ADAMU KILO",
    "registration_area_id": "3257",
    "precise_location": null,
    "abbreviation": "018",
    "units": "018",
    "delimitation": "15/03/02/018",
    "remark": "NEW PU",
    "ward_id": "3257",
    "ward_name": "BAGANJE SOUTH",
    "local_government_id": "284",
    "local_government_name": "BILLIRI",
    "state_id": "15",
    "state_name": "GOMBE",
    "location": {
      "latitude": 9.8821399,
      "longitude": 11.208943,
      "viewport": {
        "northeast": {
          "lat": 9.883554629892721,
          "lng": 11.21040362989272
        },
        "southwest": {
          "lat": 9.880854970107277,
          "lng": 11.20770397010728
        }
      },
      "formatted_address": "V6J5+VH4, Billiri, Kalmai, Nigeria",
      "google_map_url": "https://maps.google.com?q=9.8821399,11.208943",
      "google_place_id": "ChIJzbgKby2u_xARzbEh9QpvCBY"
    }
  },
  {
    "id": "59917",
    "name": "BORE CENTRAL PRIMARY SCHOOL, BANGANJE  .A.",
    "registration_area_id": "3257",
    "precise_location": null,
    "abbreviation": "019",
    "units": "019",
    "delimitation": "15/03/02/019",
    "remark": "NEW PU",
    "ward_id": "3257",
    "ward_name": "BAGANJE SOUTH",
    "local_government_id": "284",
    "local_government_name": "BILLIRI",
    "state_id": "15",
    "state_name": "GOMBE",
    "location": {
      "latitude": 9.8883378,
      "longitude": 11.211772,
      "viewport": {
        "northeast": {
          "lat": 9.88966007989272,
          "lng": 11.21314257989272
        },
        "southwest": {
          "lat": 9.886960420107275,
          "lng": 11.21044292010728
        }
      },
      "formatted_address": "V6Q6+9P6, 771101, Biliri, Nigeria",
      "google_map_url": "https://maps.google.com?q=9.8883378,11.211772",
      "google_place_id": "ChIJK_VxxCuu_xAR2-FKLBiA-xw"
    }
  },
  {
    "id": "59918",
    "name": "LATU K.J. UMARU",
    "registration_area_id": "3257",
    "precise_location": null,
    "abbreviation": "020",
    "units": "020",
    "delimitation": "15/03/02/020",
    "remark": "NEW PU",
    "ward_id": "3257",
    "ward_name": "BAGANJE SOUTH",
    "local_government_id": "284",
    "local_government_name": "BILLIRI",
    "state_id": "15",
    "state_name": "GOMBE",
    "location": {
      "latitude": 9.9124784,
      "longitude": 11.2100654,
      "viewport": {
        "northeast": {
          "lat": 9.913902479892721,
          "lng": 11.21148212989272
        },
        "southwest": {
          "lat": 9.911202820107277,
          "lng": 11.20878247010728
        }
      },
      "formatted_address": "Gombe-Yola Road, Gombe, Nigeria",
      "google_map_url": "https://maps.google.com?q=9.9124784,11.2100654",
      "google_place_id": "ChIJhR87-Mqx_xARRujNE2SKaAI"
    }
  },
  {
    "id": "59919",
    "name": "LAWISHI, LAYAFI K.J.LAWISHI I. A.",
    "registration_area_id": "3257",
    "precise_location": null,
    "abbreviation": "021",
    "units": "021",
    "delimitation": "15/03/02/021",
    "remark": "NEW PU",
    "ward_id": "3257",
    "ward_name": "BAGANJE SOUTH",
    "local_government_id": "284",
    "local_government_name": "BILLIRI",
    "state_id": "15",
    "state_name": "GOMBE",
    "location": null
  }
]