[
  {
    "id": "24830",
    "name": "TANYIN - TOWN HALL",
    "registration_area_id": "1342",
    "precise_location": null,
    "abbreviation": "001",
    "units": "001",
    "delimitation": "06/06/06/001",
    "remark": "EXISTING PU",
    "ward_id": "1342",
    "ward_name": "OSSIAMA",
    "local_government_id": "116",
    "local_government_name": "SAGBAMA",
    "state_id": "6",
    "state_name": "BAYELSA",
    "location": {
      "latitude": 4.9318392,
      "longitude": 6.3072004,
      "viewport": {
        "northeast": {
          "lat": 4.933156879892723,
          "lng": 6.308589179892722
        },
        "southwest": {
          "lat": 4.930457220107279,
          "lng": 6.305889520107279
        }
      },
      "formatted_address": "W8J4+PVH, 569101, Biogbolo, Nigeria",
      "google_map_url": "https://maps.google.com?q=4.9318392,6.3072004",
      "google_place_id": "ChIJQbpXrRYEahARsYGE5LCe1Ak"
    }
  },
  {
    "id": "24831",
    "name": "KUROBIRI/KINGPOLO - TOWN HALL",
    "registration_area_id": "1342",
    "precise_location": null,
    "abbreviation": "002",
    "units": "002",
    "delimitation": "06/06/06/002",
    "remark": "EXISTING PU",
    "ward_id": "1342",
    "ward_name": "OSSIAMA",
    "local_government_id": "116",
    "local_government_name": "SAGBAMA",
    "state_id": "6",
    "state_name": "BAYELSA",
    "location": {
      "latitude": 5.171275,
      "longitude": 6.3010816,
      "viewport": {
        "northeast": {
          "lat": 5.172708079892721,
          "lng": 6.302433679892721
        },
        "southwest": {
          "lat": 5.170008420107277,
          "lng": 6.299734020107278
        }
      },
      "formatted_address": "58C2+GC4, 560102, Ibia, Nigeria",
      "google_map_url": "https://maps.google.com?q=5.171275,6.3010816",
      "google_place_id": "ChIJQ5ffDPj7QRARJbioccqCCBc"
    }
  },
  {
    "id": "24832",
    "name": "AKOROMOBIRI - MARKET SQUARE",
    "registration_area_id": "1342",
    "precise_location": null,
    "abbreviation": "003",
    "units": "003",
    "delimitation": "06/06/06/003",
    "remark": "EXISTING PU",
    "ward_id": "1342",
    "ward_name": "OSSIAMA",
    "local_government_id": "116",
    "local_government_name": "SAGBAMA",
    "state_id": "6",
    "state_name": "BAYELSA",
    "location": {
      "latitude": 4.947597099999999,
      "longitude": 6.333151,
      "viewport": {
        "northeast": {
          "lat": 4.948916329892721,
          "lng": 6.334449129892722
        },
        "southwest": {
          "lat": 4.946216670107277,
          "lng": 6.331749470107278
        }
      },
      "formatted_address": "W8XM+27J, 569101, Biogbolo, Nigeria",
      "google_map_url": "https://maps.google.com?q=4.947597099999999,6.333151",
      "google_place_id": "ChIJDcGKIVgBahARWDXDtxw26ws"
    }
  },
  {
    "id": "24833",
    "name": "OMUBIRI/KPANKPOWARE - TOWN HALL",
    "registration_area_id": "1342",
    "precise_location": null,
    "abbreviation": "004",
    "units": "004",
    "delimitation": "06/06/06/004",
    "remark": "EXISTING PU",
    "ward_id": "1342",
    "ward_name": "OSSIAMA",
    "local_government_id": "116",
    "local_government_name": "SAGBAMA",
    "state_id": "6",
    "state_name": "BAYELSA",
    "location": {
      "latitude": 4.9318392,
      "longitude": 6.3072004,
      "viewport": {
        "northeast": {
          "lat": 4.933156879892723,
          "lng": 6.308589179892722
        },
        "southwest": {
          "lat": 4.930457220107279,
          "lng": 6.305889520107279
        }
      },
      "formatted_address": "W8J4+PVH, 569101, Biogbolo, Nigeria",
      "google_map_url": "https://maps.google.com?q=4.9318392,6.3072004",
      "google_place_id": "ChIJQbpXrRYEahARsYGE5LCe1Ak"
    }
  },
  {
    "id": "24834",
    "name": "KILEBIRI - TOWN HALL",
    "registration_area_id": "1342",
    "precise_location": null,
    "abbreviation": "005",
    "units": "005",
    "delimitation": "06/06/06/005",
    "remark": "EXISTING PU",
    "ward_id": "1342",
    "ward_name": "OSSIAMA",
    "local_government_id": "116",
    "local_government_name": "SAGBAMA",
    "state_id": "6",
    "state_name": "BAYELSA",
    "location": {
      "latitude": 4.9982057,
      "longitude": 6.1189053,
      "viewport": {
        "northeast": {
          "lat": 5.000786499999999,
          "lng": 6.123891
        },
        "southwest": {
          "lat": 4.9962548,
          "lng": 6.1105871
        }
      },
      "formatted_address": "Ogobiri Community, Bayelsa, Nigeria, Nigeria",
      "google_map_url": "https://maps.google.com?q=4.9982057,6.1189053",
      "google_place_id": "ChIJERMBWFAKahARuWxne7gdamE"
    }
  },
  {
    "id": "24835",
    "name": "WARRIGBENE - CPS HALL",
    "registration_area_id": "1342",
    "precise_location": null,
    "abbreviation": "006",
    "units": "006",
    "delimitation": "06/06/06/006",
    "remark": "EXISTING PU",
    "ward_id": "1342",
    "ward_name": "OSSIAMA",
    "local_government_id": "116",
    "local_government_name": "SAGBAMA",
    "state_id": "6",
    "state_name": "BAYELSA",
    "location": {
      "latitude": 5.171275,
      "longitude": 6.3010816,
      "viewport": {
        "northeast": {
          "lat": 5.172708079892721,
          "lng": 6.302433679892721
        },
        "southwest": {
          "lat": 5.170008420107277,
          "lng": 6.299734020107278
        }
      },
      "formatted_address": "58C2+GC4, 560102, Ibia, Nigeria",
      "google_map_url": "https://maps.google.com?q=5.171275,6.3010816",
      "google_place_id": "ChIJQ5ffDPj7QRARJbioccqCCBc"
    }
  },
  {
    "id": "24836",
    "name": "EGBEPULOGBENE CPS I",
    "registration_area_id": "1342",
    "precise_location": null,
    "abbreviation": "007",
    "units": "007",
    "delimitation": "06/06/06/007",
    "remark": "EXISTING PU",
    "ward_id": "1342",
    "ward_name": "OSSIAMA",
    "local_government_id": "116",
    "local_government_name": "SAGBAMA",
    "state_id": "6",
    "state_name": "BAYELSA",
    "location": {
      "latitude": 5.159157,
      "longitude": 6.197083699999999,
      "viewport": {
        "northeast": {
          "lat": 5.160453179892722,
          "lng": 6.198428329892722
        },
        "southwest": {
          "lat": 5.157753520107278,
          "lng": 6.195728670107278
        }
      },
      "formatted_address": "Mile 2 Yenagoa, Sagbama, Nigeria",
      "google_map_url": "https://maps.google.com?q=5.159157,6.197083699999999",
      "google_place_id": "ChIJU9Zv10_lQRAR0WVb_Vt5zgc"
    }
  },
  {
    "id": "24837",
    "name": "OPUPOLO - CPS HALL II",
    "registration_area_id": "1342",
    "precise_location": null,
    "abbreviation": "008",
    "units": "008",
    "delimitation": "06/06/06/008",
    "remark": "EXISTING PU",
    "ward_id": "1342",
    "ward_name": "OSSIAMA",
    "local_government_id": "116",
    "local_government_name": "SAGBAMA",
    "state_id": "6",
    "state_name": "BAYELSA",
    "location": {
      "latitude": 5.1496829,
      "longitude": 6.1933785,
      "viewport": {
        "northeast": {
          "lat": 5.150904479892723,
          "lng": 6.194298979892723
        },
        "southwest": {
          "lat": 5.148204820107279,
          "lng": 6.191599320107279
        }
      },
      "formatted_address": "45XV+V9C, 561101, Sagbama, Nigeria",
      "google_map_url": "https://maps.google.com?q=5.1496829,6.1933785",
      "google_place_id": "ChIJMQ2X2FXkQRARAs2Sk_emR04"
    }
  },
  {
    "id": "24838",
    "name": "AWEGBENE - TOWN HALL",
    "registration_area_id": "1342",
    "precise_location": null,
    "abbreviation": "009",
    "units": "009",
    "delimitation": "06/06/06/009",
    "remark": "EXISTING PU",
    "ward_id": "1342",
    "ward_name": "OSSIAMA",
    "local_government_id": "116",
    "local_government_name": "SAGBAMA",
    "state_id": "6",
    "state_name": "BAYELSA",
    "location": {
      "latitude": 4.9318392,
      "longitude": 6.3072004,
      "viewport": {
        "northeast": {
          "lat": 4.933156879892723,
          "lng": 6.308589179892722
        },
        "southwest": {
          "lat": 4.930457220107279,
          "lng": 6.305889520107279
        }
      },
      "formatted_address": "W8J4+PVH, 569101, Biogbolo, Nigeria",
      "google_map_url": "https://maps.google.com?q=4.9318392,6.3072004",
      "google_place_id": "ChIJQbpXrRYEahARsYGE5LCe1Ak"
    }
  },
  {
    "id": "24839",
    "name": "OGBONUGBENE COMPOUND SQUARE 1",
    "registration_area_id": "1342",
    "precise_location": null,
    "abbreviation": "010",
    "units": "010",
    "delimitation": "06/06/06/010",
    "remark": "EXISTING PU",
    "ward_id": "1342",
    "ward_name": "OSSIAMA",
    "local_government_id": "116",
    "local_government_name": "SAGBAMA",
    "state_id": "6",
    "state_name": "BAYELSA",
    "location": null
  },
  {
    "id": "24840",
    "name": "OGBONUGBENE COMPOUND SQUARE 11",
    "registration_area_id": "1342",
    "precise_location": null,
    "abbreviation": "011",
    "units": "011",
    "delimitation": "06/06/06/011",
    "remark": "EXISTING PU",
    "ward_id": "1342",
    "ward_name": "OSSIAMA",
    "local_government_id": "116",
    "local_government_name": "SAGBAMA",
    "state_id": "6",
    "state_name": "BAYELSA",
    "location": null
  },
  {
    "id": "24841",
    "name": "POLOWARE SQUARE",
    "registration_area_id": "1342",
    "precise_location": null,
    "abbreviation": "012",
    "units": "012",
    "delimitation": "06/06/06/012",
    "remark": "NEW PU",
    "ward_id": "1342",
    "ward_name": "OSSIAMA",
    "local_government_id": "116",
    "local_government_name": "SAGBAMA",
    "state_id": "6",
    "state_name": "BAYELSA",
    "location": null
  }
]