[
  {
    "id": "59088",
    "name": "COMMUNITY PRIMARY SCHOOL ABBI I",
    "registration_area_id": "3226",
    "precise_location": null,
    "abbreviation": "001",
    "units": "001",
    "delimitation": "14/17/08/001",
    "remark": "EXISTING PU",
    "ward_id": "3226",
    "ward_name": "ABBI",
    "local_government_id": "275",
    "local_government_name": "UZO-UWANI",
    "state_id": "14",
    "state_name": "ENUGU",
    "location": {
      "latitude": 6.3238661,
      "longitude": 7.696461299999999,
      "viewport": {
        "northeast": {
          "lat": 6.325154429892723,
          "lng": 7.697813579892721
        },
        "southwest": {
          "lat": 6.322454770107279,
          "lng": 7.695113920107278
        }
      },
      "formatted_address": "8MFW+GHW, Aniyi 402115, Amagunze, Nigeria",
      "google_map_url": "https://maps.google.com?q=6.3238661,7.696461299999999",
      "google_place_id": "ChIJt7WVdnZWQxARaDc1oTKqy6I"
    }
  },
  {
    "id": "59089",
    "name": "EJONA OGBA VILLAGE SQUARE",
    "registration_area_id": "3226",
    "precise_location": null,
    "abbreviation": "002",
    "units": "002",
    "delimitation": "14/17/08/002",
    "remark": "EXISTING PU",
    "ward_id": "3226",
    "ward_name": "ABBI",
    "local_government_id": "275",
    "local_government_name": "UZO-UWANI",
    "state_id": "14",
    "state_name": "ENUGU",
    "location": null
  },
  {
    "id": "59090",
    "name": "ISIYI VILLAGE SQUARE",
    "registration_area_id": "3226",
    "precise_location": null,
    "abbreviation": "003",
    "units": "003",
    "delimitation": "14/17/08/003",
    "remark": "EXISTING PU",
    "ward_id": "3226",
    "ward_name": "ABBI",
    "local_government_id": "275",
    "local_government_name": "UZO-UWANI",
    "state_id": "14",
    "state_name": "ENUGU",
    "location": {
      "latitude": 6.5094426,
      "longitude": 7.0965897,
      "viewport": {
        "northeast": {
          "lat": 6.51076852989272,
          "lng": 7.097929279892722
        },
        "southwest": {
          "lat": 6.508068870107277,
          "lng": 7.095229620107278
        }
      },
      "formatted_address": "G35W+QJQ, Akiyi, Umulokpa, Nigeria",
      "google_map_url": "https://maps.google.com?q=6.5094426,7.0965897",
      "google_place_id": "ChIJ______KHRBAR8cyQl6lWHR4"
    }
  },
  {
    "id": "59091",
    "name": "NKWO-UGWUOBI UWENUOKPE",
    "registration_area_id": "3226",
    "precise_location": null,
    "abbreviation": "004",
    "units": "004",
    "delimitation": "14/17/08/004",
    "remark": "EXISTING PU",
    "ward_id": "3226",
    "ward_name": "ABBI",
    "local_government_id": "275",
    "local_government_name": "UZO-UWANI",
    "state_id": "14",
    "state_name": "ENUGU",
    "location": {
      "latitude": 6.333309799999999,
      "longitude": 7.6087108,
      "viewport": {
        "northeast": {
          "lat": 6.351729499999999,
          "lng": 7.620332799999999
        },
        "southwest": {
          "lat": 6.3226188,
          "lng": 7.5890887
        }
      },
      "formatted_address": "Ndiuno Uwani (Akpugo I), Nigeria",
      "google_map_url": "https://maps.google.com?q=6.333309799999999,7.6087108",
      "google_place_id": "ChIJq9qL6htYQxARb9kTlOKSsL4"
    }
  },
  {
    "id": "59092",
    "name": "APAPAM VILLAGE SQUARE",
    "registration_area_id": "3226",
    "precise_location": null,
    "abbreviation": "005",
    "units": "005",
    "delimitation": "14/17/08/005",
    "remark": "EXISTING PU",
    "ward_id": "3226",
    "ward_name": "ABBI",
    "local_government_id": "275",
    "local_government_name": "UZO-UWANI",
    "state_id": "14",
    "state_name": "ENUGU",
    "location": null
  },
  {
    "id": "59093",
    "name": "AMANYI VILLAGE SQUARE",
    "registration_area_id": "3226",
    "precise_location": null,
    "abbreviation": "006",
    "units": "006",
    "delimitation": "14/17/08/006",
    "remark": "EXISTING PU",
    "ward_id": "3226",
    "ward_name": "ABBI",
    "local_government_id": "275",
    "local_government_name": "UZO-UWANI",
    "state_id": "14",
    "state_name": "ENUGU",
    "location": {
      "latitude": 6.5094426,
      "longitude": 7.0965897,
      "viewport": {
        "northeast": {
          "lat": 6.51076852989272,
          "lng": 7.097929279892722
        },
        "southwest": {
          "lat": 6.508068870107277,
          "lng": 7.095229620107278
        }
      },
      "formatted_address": "G35W+QJQ, Akiyi, Umulokpa, Nigeria",
      "google_map_url": "https://maps.google.com?q=6.5094426,7.0965897",
      "google_place_id": "ChIJ______KHRBAR8cyQl6lWHR4"
    }
  },
  {
    "id": "59094",
    "name": "OTOBO-UBA VILLAGE SQUARE",
    "registration_area_id": "3226",
    "precise_location": null,
    "abbreviation": "007",
    "units": "007",
    "delimitation": "14/17/08/007",
    "remark": "EXISTING PU",
    "ward_id": "3226",
    "ward_name": "ABBI",
    "local_government_id": "275",
    "local_government_name": "UZO-UWANI",
    "state_id": "14",
    "state_name": "ENUGU",
    "location": {
      "latitude": 6.456504199999999,
      "longitude": 7.5096475,
      "viewport": {
        "northeast": {
          "lat": 6.457973879892722,
          "lng": 7.510950979892722
        },
        "southwest": {
          "lat": 6.455274220107278,
          "lng": 7.508251320107278
        }
      },
      "formatted_address": "FG45+JV2, Ebeano Est Rd, Achara 400102, Enugu, Nigeria",
      "google_map_url": "https://maps.google.com?q=6.456504199999999,7.5096475",
      "google_place_id": "ChIJS6sLx1ujRBARLW6iy_MFdrA"
    }
  },
  {
    "id": "59095",
    "name": "PRIMARY SCHOOL ORUKU",
    "registration_area_id": "3226",
    "precise_location": null,
    "abbreviation": "008",
    "units": "008",
    "delimitation": "14/17/08/008",
    "remark": "EXISTING PU",
    "ward_id": "3226",
    "ward_name": "ABBI",
    "local_government_id": "275",
    "local_government_name": "UZO-UWANI",
    "state_id": "14",
    "state_name": "ENUGU",
    "location": {
      "latitude": 6.952477,
      "longitude": 7.222669,
      "viewport": {
        "northeast": {
          "lat": 6.953830829892721,
          "lng": 7.223997879892722
        },
        "southwest": {
          "lat": 6.951131170107277,
          "lng": 7.221298220107278
        }
      },
      "formatted_address": "X62F+X3V, 271101, Okutu, Nigeria",
      "google_map_url": "https://maps.google.com?q=6.952477,7.222669",
      "google_place_id": "ChIJcUaCD4D8RBARDQQoqdNdFgM"
    }
  },
  {
    "id": "59096",
    "name": "COMMUNITY PRIMARY SCHOOL ABBI II",
    "registration_area_id": "3226",
    "precise_location": null,
    "abbreviation": "009",
    "units": "009",
    "delimitation": "14/17/08/009",
    "remark": "EXISTING PU",
    "ward_id": "3226",
    "ward_name": "ABBI",
    "local_government_id": "275",
    "local_government_name": "UZO-UWANI",
    "state_id": "14",
    "state_name": "ENUGU",
    "location": {
      "latitude": 6.4614562,
      "longitude": 7.507430599999998,
      "viewport": {
        "northeast": {
          "lat": 6.462726829892722,
          "lng": 7.508777579892722
        },
        "southwest": {
          "lat": 6.460027170107278,
          "lng": 7.506077920107278
        }
      },
      "formatted_address": "FG64+HXM, Abakaliki Rd, GRA 400102, Enugu, Nigeria",
      "google_map_url": "https://maps.google.com?q=6.4614562,7.507430599999998",
      "google_place_id": "ChIJQcyzUlGhRBARZMHVeHJ8234"
    }
  },
  {
    "id": "59097",
    "name": "NKWOR-UGWUOBI UWENUOKPE",
    "registration_area_id": "3226",
    "precise_location": null,
    "abbreviation": "010",
    "units": "010",
    "delimitation": "14/17/08/010",
    "remark": "EXISTING PU",
    "ward_id": "3226",
    "ward_name": "ABBI",
    "local_government_id": "275",
    "local_government_name": "UZO-UWANI",
    "state_id": "14",
    "state_name": "ENUGU",
    "location": null
  },
  {
    "id": "59098",
    "name": "AMANGWU/OGBOROKO HALL",
    "registration_area_id": "3226",
    "precise_location": null,
    "abbreviation": "011",
    "units": "011",
    "delimitation": "14/17/08/011",
    "remark": "NEW PU",
    "ward_id": "3226",
    "ward_name": "ABBI",
    "local_government_id": "275",
    "local_government_name": "UZO-UWANI",
    "state_id": "14",
    "state_name": "ENUGU",
    "location": null
  }
]