[
  {
    "id": "84848",
    "name": "BARKUM, CIKIN GARI I",
    "registration_area_id": "4400",
    "precise_location": null,
    "abbreviation": "001",
    "units": "001",
    "delimitation": "19/06/01/001",
    "remark": "EXISTING PU",
    "ward_id": "4400",
    "ward_name": "BARKUM",
    "local_government_id": "375",
    "local_government_name": "BUNKURE",
    "state_id": "19",
    "state_name": "KANO",
    "location": null
  },
  {
    "id": "84849",
    "name": "GGSS BARKUM",
    "registration_area_id": "4400",
    "precise_location": null,
    "abbreviation": "002",
    "units": "002",
    "delimitation": "19/06/01/002",
    "remark": "EXISTING PU",
    "ward_id": "4400",
    "ward_name": "BARKUM",
    "local_government_id": "375",
    "local_government_name": "BUNKURE",
    "state_id": "19",
    "state_name": "KANO",
    "location": {
      "latitude": 11.7163874,
      "longitude": 8.569768999999999,
      "viewport": {
        "northeast": {
          "lat": 11.71771502989272,
          "lng": 8.571086229892721
        },
        "southwest": {
          "lat": 11.71501537010728,
          "lng": 8.568386570107277
        }
      },
      "formatted_address": "7F3CPH89+HV2 GWMMS Kano, TUGUGU, 710103, Bunkure, Nigeria",
      "google_map_url": "https://maps.google.com?q=11.7163874,8.569768999999999",
      "google_place_id": "ChIJBZfdICsyrBER4v6MnWUF3fM"
    }
  },
  {
    "id": "84850",
    "name": "DUNKURAN DUNDU",
    "registration_area_id": "4400",
    "precise_location": null,
    "abbreviation": "003",
    "units": "003",
    "delimitation": "19/06/01/003",
    "remark": "EXISTING PU",
    "ward_id": "4400",
    "ward_name": "BARKUM",
    "local_government_id": "375",
    "local_government_name": "BUNKURE",
    "state_id": "19",
    "state_name": "KANO",
    "location": {
      "latitude": 11.6356757,
      "longitude": 8.696054199999999,
      "viewport": {
        "northeast": {
          "lat": 11.63702217989272,
          "lng": 8.697452829892722
        },
        "southwest": {
          "lat": 11.63432252010728,
          "lng": 8.694753170107278
        }
      },
      "formatted_address": "JMPW+7CF, 710103, Barkum, Nigeria",
      "google_map_url": "https://maps.google.com?q=11.6356757,8.696054199999999",
      "google_place_id": "ChIJmV_s-KQ5rBERUW2ubZA6Ij0"
    }
  },
  {
    "id": "84851",
    "name": "DUNKURAN  KANAWA I",
    "registration_area_id": "4400",
    "precise_location": null,
    "abbreviation": "004",
    "units": "004",
    "delimitation": "19/06/01/004",
    "remark": "EXISTING PU",
    "ward_id": "4400",
    "ward_name": "BARKUM",
    "local_government_id": "375",
    "local_government_name": "BUNKURE",
    "state_id": "19",
    "state_name": "KANO",
    "location": {
      "latitude": 11.7163874,
      "longitude": 8.569768999999999,
      "viewport": {
        "northeast": {
          "lat": 11.71771502989272,
          "lng": 8.571086229892721
        },
        "southwest": {
          "lat": 11.71501537010728,
          "lng": 8.568386570107277
        }
      },
      "formatted_address": "7F3CPH89+HV2 GWMMS Kano, TUGUGU, 710103, Bunkure, Nigeria",
      "google_map_url": "https://maps.google.com?q=11.7163874,8.569768999999999",
      "google_place_id": "ChIJBZfdICsyrBER4v6MnWUF3fM"
    }
  },
  {
    "id": "84852",
    "name": "DUNKURAN  KANAWA II",
    "registration_area_id": "4400",
    "precise_location": null,
    "abbreviation": "005",
    "units": "005",
    "delimitation": "19/06/01/005",
    "remark": "EXISTING PU",
    "ward_id": "4400",
    "ward_name": "BARKUM",
    "local_government_id": "375",
    "local_government_name": "BUNKURE",
    "state_id": "19",
    "state_name": "KANO",
    "location": {
      "latitude": 11.7163874,
      "longitude": 8.569768999999999,
      "viewport": {
        "northeast": {
          "lat": 11.71771502989272,
          "lng": 8.571086229892721
        },
        "southwest": {
          "lat": 11.71501537010728,
          "lng": 8.568386570107277
        }
      },
      "formatted_address": "7F3CPH89+HV2 GWMMS Kano, TUGUGU, 710103, Bunkure, Nigeria",
      "google_map_url": "https://maps.google.com?q=11.7163874,8.569768999999999",
      "google_place_id": "ChIJBZfdICsyrBER4v6MnWUF3fM"
    }
  },
  {
    "id": "84853",
    "name": "DUNKURAN KANAWA III",
    "registration_area_id": "4400",
    "precise_location": null,
    "abbreviation": "006",
    "units": "006",
    "delimitation": "19/06/01/006",
    "remark": "EXISTING PU",
    "ward_id": "4400",
    "ward_name": "BARKUM",
    "local_government_id": "375",
    "local_government_name": "BUNKURE",
    "state_id": "19",
    "state_name": "KANO",
    "location": {
      "latitude": 11.7163874,
      "longitude": 8.569768999999999,
      "viewport": {
        "northeast": {
          "lat": 11.71771502989272,
          "lng": 8.571086229892721
        },
        "southwest": {
          "lat": 11.71501537010728,
          "lng": 8.568386570107277
        }
      },
      "formatted_address": "7F3CPH89+HV2 GWMMS Kano, TUGUGU, 710103, Bunkure, Nigeria",
      "google_map_url": "https://maps.google.com?q=11.7163874,8.569768999999999",
      "google_place_id": "ChIJBZfdICsyrBER4v6MnWUF3fM"
    }
  },
  {
    "id": "84854",
    "name": "LURAN",
    "registration_area_id": "4400",
    "precise_location": null,
    "abbreviation": "007",
    "units": "007",
    "delimitation": "19/06/01/007",
    "remark": "EXISTING PU",
    "ward_id": "4400",
    "ward_name": "BARKUM",
    "local_government_id": "375",
    "local_government_name": "BUNKURE",
    "state_id": "19",
    "state_name": "KANO",
    "location": {
      "latitude": 11.6762993,
      "longitude": 8.656400999999999,
      "viewport": {
        "northeast": {
          "lat": 11.67761147989272,
          "lng": 8.657707929892725
        },
        "southwest": {
          "lat": 11.67491182010728,
          "lng": 8.655008270107281
        }
      },
      "formatted_address": "7F3CMMG4+GHJ, Luran 710103, Barkum, Nigeria",
      "google_map_url": "https://maps.google.com?q=11.6762993,8.656400999999999",
      "google_place_id": "ChIJIdwMWtQxrBERwyvZQZQ0pFI"
    }
  },
  {
    "id": "84855",
    "name": "SABON GARI YAMMA I",
    "registration_area_id": "4400",
    "precise_location": null,
    "abbreviation": "008",
    "units": "008",
    "delimitation": "19/06/01/008",
    "remark": "EXISTING PU",
    "ward_id": "4400",
    "ward_name": "BARKUM",
    "local_government_id": "375",
    "local_government_name": "BUNKURE",
    "state_id": "19",
    "state_name": "KANO",
    "location": {
      "latitude": 12.0239829,
      "longitude": 8.536398199999999,
      "viewport": {
        "northeast": {
          "lat": 12.0345868,
          "lng": 8.544524899999999
        },
        "southwest": {
          "lat": 12.0135363,
          "lng": 8.524858799999999
        }
      },
      "formatted_address": "Sabon Gari 700211, Kano, Nigeria",
      "google_map_url": "https://maps.google.com?q=12.0239829,8.536398199999999",
      "google_place_id": "ChIJl5-s2C6BrhERyyYwLspKwd8"
    }
  },
  {
    "id": "84856",
    "name": "SABON GARI YAMMA II",
    "registration_area_id": "4400",
    "precise_location": null,
    "abbreviation": "009",
    "units": "009",
    "delimitation": "19/06/01/009",
    "remark": "EXISTING PU",
    "ward_id": "4400",
    "ward_name": "BARKUM",
    "local_government_id": "375",
    "local_government_name": "BUNKURE",
    "state_id": "19",
    "state_name": "KANO",
    "location": null
  },
  {
    "id": "84857",
    "name": "UNGUWAR FAWA",
    "registration_area_id": "4400",
    "precise_location": null,
    "abbreviation": "010",
    "units": "010",
    "delimitation": "19/06/01/010",
    "remark": "EXISTING PU",
    "ward_id": "4400",
    "ward_name": "BARKUM",
    "local_government_id": "375",
    "local_government_name": "BUNKURE",
    "state_id": "19",
    "state_name": "KANO",
    "location": {
      "latitude": 11.9665667,
      "longitude": 8.5638609,
      "viewport": {
        "northeast": {
          "lat": 11.9766583,
          "lng": 8.5745031
        },
        "southwest": {
          "lat": 11.9501845,
          "lng": 8.5512085
        }
      },
      "formatted_address": "Unguwa Uku 700102, Kano, Nigeria",
      "google_map_url": "https://maps.google.com?q=11.9665667,8.5638609",
      "google_place_id": "ChIJhz0CzPKBrhERcGB40dsDB-o"
    }
  },
  {
    "id": "84858",
    "name": "UNGUWAR NAZARA",
    "registration_area_id": "4400",
    "precise_location": null,
    "abbreviation": "011",
    "units": "011",
    "delimitation": "19/06/01/011",
    "remark": "EXISTING PU",
    "ward_id": "4400",
    "ward_name": "BARKUM",
    "local_government_id": "375",
    "local_government_name": "BUNKURE",
    "state_id": "19",
    "state_name": "KANO",
    "location": {
      "latitude": 11.9665667,
      "longitude": 8.5638609,
      "viewport": {
        "northeast": {
          "lat": 11.9766583,
          "lng": 8.5745031
        },
        "southwest": {
          "lat": 11.9501845,
          "lng": 8.5512085
        }
      },
      "formatted_address": "Unguwa Uku 700102, Kano, Nigeria",
      "google_map_url": "https://maps.google.com?q=11.9665667,8.5638609",
      "google_place_id": "ChIJhz0CzPKBrhERcGB40dsDB-o"
    }
  },
  {
    "id": "84859",
    "name": "BARKUM, C/GARI MODEL",
    "registration_area_id": "4400",
    "precise_location": null,
    "abbreviation": "012",
    "units": "012",
    "delimitation": "19/06/01/012",
    "remark": "NEW PU",
    "ward_id": "4400",
    "ward_name": "BARKUM",
    "local_government_id": "375",
    "local_government_name": "BUNKURE",
    "state_id": "19",
    "state_name": "KANO",
    "location": {
      "latitude": 11.7163874,
      "longitude": 8.569768999999999,
      "viewport": {
        "northeast": {
          "lat": 11.71771502989272,
          "lng": 8.571086229892721
        },
        "southwest": {
          "lat": 11.71501537010728,
          "lng": 8.568386570107277
        }
      },
      "formatted_address": "7F3CPH89+HV2 GWMMS Kano, TUGUGU, 710103, Bunkure, Nigeria",
      "google_map_url": "https://maps.google.com?q=11.7163874,8.569768999999999",
      "google_place_id": "ChIJBZfdICsyrBER4v6MnWUF3fM"
    }
  },
  {
    "id": "84860",
    "name": "BARKUM, C/GARI MODEL",
    "registration_area_id": "4400",
    "precise_location": null,
    "abbreviation": "013",
    "units": "013",
    "delimitation": "19/06/01/013",
    "remark": "NEW PU",
    "ward_id": "4400",
    "ward_name": "BARKUM",
    "local_government_id": "375",
    "local_government_name": "BUNKURE",
    "state_id": "19",
    "state_name": "KANO",
    "location": {
      "latitude": 11.7163874,
      "longitude": 8.569768999999999,
      "viewport": {
        "northeast": {
          "lat": 11.71771502989272,
          "lng": 8.571086229892721
        },
        "southwest": {
          "lat": 11.71501537010728,
          "lng": 8.568386570107277
        }
      },
      "formatted_address": "7F3CPH89+HV2 GWMMS Kano, TUGUGU, 710103, Bunkure, Nigeria",
      "google_map_url": "https://maps.google.com?q=11.7163874,8.569768999999999",
      "google_place_id": "ChIJBZfdICsyrBER4v6MnWUF3fM"
    }
  },
  {
    "id": "84861",
    "name": "BARKUM, C/GARI",
    "registration_area_id": "4400",
    "precise_location": null,
    "abbreviation": "014",
    "units": "014",
    "delimitation": "19/06/01/014",
    "remark": "NEW PU",
    "ward_id": "4400",
    "ward_name": "BARKUM",
    "local_government_id": "375",
    "local_government_name": "BUNKURE",
    "state_id": "19",
    "state_name": "KANO",
    "location": {
      "latitude": 11.6392418,
      "longitude": 8.650040299999999,
      "viewport": {
        "northeast": {
          "lat": 11.646591,
          "lng": 8.652991
        },
        "southwest": {
          "lat": 11.636565,
          "lng": 8.6425099
        }
      },
      "formatted_address": "710103, Barkum, Nigeria",
      "google_map_url": "https://maps.google.com?q=11.6392418,8.650040299999999",
      "google_place_id": "ChIJF6f0pFw3rBERKdyDIBd4YxE"
    }
  },
  {
    "id": "84862",
    "name": "UNGUWAR BARKUM C/GARI",
    "registration_area_id": "4400",
    "precise_location": null,
    "abbreviation": "015",
    "units": "015",
    "delimitation": "19/06/01/015",
    "remark": "NEW PU",
    "ward_id": "4400",
    "ward_name": "BARKUM",
    "local_government_id": "375",
    "local_government_name": "BUNKURE",
    "state_id": "19",
    "state_name": "KANO",
    "location": {
      "latitude": 11.6392418,
      "longitude": 8.650040299999999,
      "viewport": {
        "northeast": {
          "lat": 11.646591,
          "lng": 8.652991
        },
        "southwest": {
          "lat": 11.636565,
          "lng": 8.6425099
        }
      },
      "formatted_address": "710103, Barkum, Nigeria",
      "google_map_url": "https://maps.google.com?q=11.6392418,8.650040299999999",
      "google_place_id": "ChIJF6f0pFw3rBERKdyDIBd4YxE"
    }
  },
  {
    "id": "84863",
    "name": "NURARA ISLAMIYYA PRI. SCH.",
    "registration_area_id": "4400",
    "precise_location": null,
    "abbreviation": "016",
    "units": "016",
    "delimitation": "19/06/01/016",
    "remark": "NEW PU",
    "ward_id": "4400",
    "ward_name": "BARKUM",
    "local_government_id": "375",
    "local_government_name": "BUNKURE",
    "state_id": "19",
    "state_name": "KANO",
    "location": {
      "latitude": 11.6684841,
      "longitude": 8.545849,
      "viewport": {
        "northeast": {
          "lat": 11.66984137989272,
          "lng": 8.547198679892722
        },
        "southwest": {
          "lat": 11.66714172010728,
          "lng": 8.544499020107278
        }
      },
      "formatted_address": "MG9W+98H, 710103, Bunkure, Nigeria",
      "google_map_url": "https://maps.google.com?q=11.6684841,8.545849",
      "google_place_id": "ChIJQUOayHU0rBER6F9tj63ZdnI"
    }
  },
  {
    "id": "84864",
    "name": "LURAN",
    "registration_area_id": "4400",
    "precise_location": null,
    "abbreviation": "017",
    "units": "017",
    "delimitation": "19/06/01/017",
    "remark": "NEW PU",
    "ward_id": "4400",
    "ward_name": "BARKUM",
    "local_government_id": "375",
    "local_government_name": "BUNKURE",
    "state_id": "19",
    "state_name": "KANO",
    "location": {
      "latitude": 11.6762993,
      "longitude": 8.656400999999999,
      "viewport": {
        "northeast": {
          "lat": 11.67761147989272,
          "lng": 8.657707929892725
        },
        "southwest": {
          "lat": 11.67491182010728,
          "lng": 8.655008270107281
        }
      },
      "formatted_address": "7F3CMMG4+GHJ, Luran 710103, Barkum, Nigeria",
      "google_map_url": "https://maps.google.com?q=11.6762993,8.656400999999999",
      "google_place_id": "ChIJIdwMWtQxrBERwyvZQZQ0pFI"
    }
  },
  {
    "id": "84865",
    "name": "SABON GARI YAMMA",
    "registration_area_id": "4400",
    "precise_location": null,
    "abbreviation": "018",
    "units": "018",
    "delimitation": "19/06/01/018",
    "remark": "NEW PU",
    "ward_id": "4400",
    "ward_name": "BARKUM",
    "local_government_id": "375",
    "local_government_name": "BUNKURE",
    "state_id": "19",
    "state_name": "KANO",
    "location": {
      "latitude": 12.0239829,
      "longitude": 8.536398199999999,
      "viewport": {
        "northeast": {
          "lat": 12.0345868,
          "lng": 8.544524899999999
        },
        "southwest": {
          "lat": 12.0135363,
          "lng": 8.524858799999999
        }
      },
      "formatted_address": "Sabon Gari 700211, Kano, Nigeria",
      "google_map_url": "https://maps.google.com?q=12.0239829,8.536398199999999",
      "google_place_id": "ChIJl5-s2C6BrhERyyYwLspKwd8"
    }
  },
  {
    "id": "84866",
    "name": "SABON GARI YAMMA",
    "registration_area_id": "4400",
    "precise_location": null,
    "abbreviation": "019",
    "units": "019",
    "delimitation": "19/06/01/019",
    "remark": "NEW PU",
    "ward_id": "4400",
    "ward_name": "BARKUM",
    "local_government_id": "375",
    "local_government_name": "BUNKURE",
    "state_id": "19",
    "state_name": "KANO",
    "location": {
      "latitude": 12.0239829,
      "longitude": 8.536398199999999,
      "viewport": {
        "northeast": {
          "lat": 12.0345868,
          "lng": 8.544524899999999
        },
        "southwest": {
          "lat": 12.0135363,
          "lng": 8.524858799999999
        }
      },
      "formatted_address": "Sabon Gari 700211, Kano, Nigeria",
      "google_map_url": "https://maps.google.com?q=12.0239829,8.536398199999999",
      "google_place_id": "ChIJl5-s2C6BrhERyyYwLspKwd8"
    }
  },
  {
    "id": "84867",
    "name": "UNGUWAR FAWA II",
    "registration_area_id": "4400",
    "precise_location": null,
    "abbreviation": "020",
    "units": "020",
    "delimitation": "19/06/01/020",
    "remark": "NEW PU",
    "ward_id": "4400",
    "ward_name": "BARKUM",
    "local_government_id": "375",
    "local_government_name": "BUNKURE",
    "state_id": "19",
    "state_name": "KANO",
    "location": {
      "latitude": 11.4933193,
      "longitude": 9.1020495,
      "viewport": {
        "northeast": {
          "lat": 11.49473687989272,
          "lng": 9.10331417989272
        },
        "southwest": {
          "lat": 11.49203722010728,
          "lng": 9.100614520107277
        }
      },
      "formatted_address": "7F3FF4V2+8RF unguwar fawa kyansha Kano, Zuga, Nigeria",
      "google_map_url": "https://maps.google.com?q=11.4933193,9.1020495",
      "google_place_id": "ChIJ-YNgq_11rBEROvfSOaX1ByA"
    }
  },
  {
    "id": "84868",
    "name": "UNGUWAR FAWA III",
    "registration_area_id": "4400",
    "precise_location": null,
    "abbreviation": "021",
    "units": "021",
    "delimitation": "19/06/01/021",
    "remark": "NEW PU",
    "ward_id": "4400",
    "ward_name": "BARKUM",
    "local_government_id": "375",
    "local_government_name": "BUNKURE",
    "state_id": "19",
    "state_name": "KANO",
    "location": {
      "latitude": 11.4933193,
      "longitude": 9.1020495,
      "viewport": {
        "northeast": {
          "lat": 11.49473687989272,
          "lng": 9.10331417989272
        },
        "southwest": {
          "lat": 11.49203722010728,
          "lng": 9.100614520107277
        }
      },
      "formatted_address": "7F3FF4V2+8RF unguwar fawa kyansha Kano, Zuga, Nigeria",
      "google_map_url": "https://maps.google.com?q=11.4933193,9.1020495",
      "google_place_id": "ChIJ-YNgq_11rBEROvfSOaX1ByA"
    }
  },
  {
    "id": "84869",
    "name": "UNGUWAR NAZARA",
    "registration_area_id": "4400",
    "precise_location": null,
    "abbreviation": "022",
    "units": "022",
    "delimitation": "19/06/01/022",
    "remark": "NEW PU",
    "ward_id": "4400",
    "ward_name": "BARKUM",
    "local_government_id": "375",
    "local_government_name": "BUNKURE",
    "state_id": "19",
    "state_name": "KANO",
    "location": {
      "latitude": 11.9665667,
      "longitude": 8.5638609,
      "viewport": {
        "northeast": {
          "lat": 11.9766583,
          "lng": 8.5745031
        },
        "southwest": {
          "lat": 11.9501845,
          "lng": 8.5512085
        }
      },
      "formatted_address": "Unguwa Uku 700102, Kano, Nigeria",
      "google_map_url": "https://maps.google.com?q=11.9665667,8.5638609",
      "google_place_id": "ChIJhz0CzPKBrhERcGB40dsDB-o"
    }
  }
]