[
  {
    "id": "34066",
    "name": "POLY BARKA PRI. SCH.",
    "registration_area_id": "1852",
    "precise_location": null,
    "abbreviation": "001",
    "units": "001",
    "delimitation": "08/18/02/001",
    "remark": "EXISTING PU",
    "ward_id": "1852",
    "ward_name": "GUSI / BILLA",
    "local_government_id": "159",
    "local_government_name": "KWAYA / KUSAR",
    "state_id": "8",
    "state_name": "BORNO",
    "location": {
      "latitude": 10.5002235,
      "longitude": 11.8412013,
      "viewport": {
        "northeast": {
          "lat": 10.50157202989272,
          "lng": 11.84275722989272
        },
        "southwest": {
          "lat": 10.49887237010728,
          "lng": 11.84005757010728
        }
      },
      "formatted_address": "GR2R+3FM, Biu Rd, 603103, Kwaya, Nigeria",
      "google_map_url": "https://maps.google.com?q=10.5002235,11.8412013",
      "google_place_id": "ChIJ6SgR-2LkARERSId8UIfKrnw"
    }
  },
  {
    "id": "34067",
    "name": "GUSI K. LAWAN",
    "registration_area_id": "1852",
    "precise_location": null,
    "abbreviation": "002",
    "units": "002",
    "delimitation": "08/18/02/002",
    "remark": "EXISTING PU",
    "ward_id": "1852",
    "ward_name": "GUSI / BILLA",
    "local_government_id": "159",
    "local_government_name": "KWAYA / KUSAR",
    "state_id": "8",
    "state_name": "BORNO",
    "location": null
  },
  {
    "id": "34068",
    "name": "KUBO GUSI K. BULAMA",
    "registration_area_id": "1852",
    "precise_location": null,
    "abbreviation": "003",
    "units": "003",
    "delimitation": "08/18/02/003",
    "remark": "EXISTING PU",
    "ward_id": "1852",
    "ward_name": "GUSI / BILLA",
    "local_government_id": "159",
    "local_government_name": "KWAYA / KUSAR",
    "state_id": "8",
    "state_name": "BORNO",
    "location": null
  },
  {
    "id": "34069",
    "name": "GUSI DUNKUR PRI. SCH.",
    "registration_area_id": "1852",
    "precise_location": null,
    "abbreviation": "004",
    "units": "004",
    "delimitation": "08/18/02/004",
    "remark": "EXISTING PU",
    "ward_id": "1852",
    "ward_name": "GUSI / BILLA",
    "local_government_id": "159",
    "local_government_name": "KWAYA / KUSAR",
    "state_id": "8",
    "state_name": "BORNO",
    "location": {
      "latitude": 10.5002235,
      "longitude": 11.8412013,
      "viewport": {
        "northeast": {
          "lat": 10.50157202989272,
          "lng": 11.84275722989272
        },
        "southwest": {
          "lat": 10.49887237010728,
          "lng": 11.84005757010728
        }
      },
      "formatted_address": "GR2R+3FM, Biu Rd, 603103, Kwaya, Nigeria",
      "google_map_url": "https://maps.google.com?q=10.5002235,11.8412013",
      "google_place_id": "ChIJ6SgR-2LkARERSId8UIfKrnw"
    }
  },
  {
    "id": "34070",
    "name": "GUBURDE BILLA",
    "registration_area_id": "1852",
    "precise_location": null,
    "abbreviation": "005",
    "units": "005",
    "delimitation": "08/18/02/005",
    "remark": "EXISTING PU",
    "ward_id": "1852",
    "ward_name": "GUSI / BILLA",
    "local_government_id": "159",
    "local_government_name": "KWAYA / KUSAR",
    "state_id": "8",
    "state_name": "BORNO",
    "location": {
      "latitude": 10.3989999,
      "longitude": 11.8139,
      "viewport": {
        "northeast": {
          "lat": 10.40034972989272,
          "lng": 11.81524982989272
        },
        "southwest": {
          "lat": 10.39765007010728,
          "lng": 11.81255017010728
        }
      },
      "formatted_address": "9RX7+HHR, 603103, Yumbu, Nigeria",
      "google_map_url": "https://maps.google.com?q=10.3989999,11.8139",
      "google_place_id": "ChIJP1bnGfYd_hARIDK4DACJuzs"
    }
  },
  {
    "id": "34071",
    "name": "BILA FIKA PRI. SCH.",
    "registration_area_id": "1852",
    "precise_location": null,
    "abbreviation": "006",
    "units": "006",
    "delimitation": "08/18/02/006",
    "remark": "EXISTING PU",
    "ward_id": "1852",
    "ward_name": "GUSI / BILLA",
    "local_government_id": "159",
    "local_government_name": "KWAYA / KUSAR",
    "state_id": "8",
    "state_name": "BORNO",
    "location": {
      "latitude": 10.5002235,
      "longitude": 11.8412013,
      "viewport": {
        "northeast": {
          "lat": 10.50157202989272,
          "lng": 11.84275722989272
        },
        "southwest": {
          "lat": 10.49887237010728,
          "lng": 11.84005757010728
        }
      },
      "formatted_address": "GR2R+3FM, Biu Rd, 603103, Kwaya, Nigeria",
      "google_map_url": "https://maps.google.com?q=10.5002235,11.8412013",
      "google_place_id": "ChIJ6SgR-2LkARERSId8UIfKrnw"
    }
  },
  {
    "id": "34072",
    "name": "BILA KOGU PRI. SCH.",
    "registration_area_id": "1852",
    "precise_location": null,
    "abbreviation": "007",
    "units": "007",
    "delimitation": "08/18/02/007",
    "remark": "EXISTING PU",
    "ward_id": "1852",
    "ward_name": "GUSI / BILLA",
    "local_government_id": "159",
    "local_government_name": "KWAYA / KUSAR",
    "state_id": "8",
    "state_name": "BORNO",
    "location": {
      "latitude": 10.5002235,
      "longitude": 11.8412013,
      "viewport": {
        "northeast": {
          "lat": 10.50157202989272,
          "lng": 11.84275722989272
        },
        "southwest": {
          "lat": 10.49887237010728,
          "lng": 11.84005757010728
        }
      },
      "formatted_address": "GR2R+3FM, Biu Rd, 603103, Kwaya, Nigeria",
      "google_map_url": "https://maps.google.com?q=10.5002235,11.8412013",
      "google_place_id": "ChIJ6SgR-2LkARERSId8UIfKrnw"
    }
  },
  {
    "id": "34073",
    "name": "MINDIKUTUKI PRI. SCH.",
    "registration_area_id": "1852",
    "precise_location": null,
    "abbreviation": "008",
    "units": "008",
    "delimitation": "08/18/02/008",
    "remark": "EXISTING PU",
    "ward_id": "1852",
    "ward_name": "GUSI / BILLA",
    "local_government_id": "159",
    "local_government_name": "KWAYA / KUSAR",
    "state_id": "8",
    "state_name": "BORNO",
    "location": {
      "latitude": 10.5002235,
      "longitude": 11.8412013,
      "viewport": {
        "northeast": {
          "lat": 10.50157202989272,
          "lng": 11.84275722989272
        },
        "southwest": {
          "lat": 10.49887237010728,
          "lng": 11.84005757010728
        }
      },
      "formatted_address": "GR2R+3FM, Biu Rd, 603103, Kwaya, Nigeria",
      "google_map_url": "https://maps.google.com?q=10.5002235,11.8412013",
      "google_place_id": "ChIJ6SgR-2LkARERSId8UIfKrnw"
    }
  },
  {
    "id": "34074",
    "name": "BILA KOGU K. BULAMA",
    "registration_area_id": "1852",
    "precise_location": null,
    "abbreviation": "009",
    "units": "009",
    "delimitation": "08/18/02/009",
    "remark": "EXISTING PU",
    "ward_id": "1852",
    "ward_name": "GUSI / BILLA",
    "local_government_id": "159",
    "local_government_name": "KWAYA / KUSAR",
    "state_id": "8",
    "state_name": "BORNO",
    "location": {
      "latitude": 10.3989999,
      "longitude": 11.8139,
      "viewport": {
        "northeast": {
          "lat": 10.40034972989272,
          "lng": 11.81524982989272
        },
        "southwest": {
          "lat": 10.39765007010728,
          "lng": 11.81255017010728
        }
      },
      "formatted_address": "9RX7+HHR, 603103, Yumbu, Nigeria",
      "google_map_url": "https://maps.google.com?q=10.3989999,11.8139",
      "google_place_id": "ChIJP1bnGfYd_hARIDK4DACJuzs"
    }
  },
  {
    "id": "34075",
    "name": "GAIDAM K. BULAMA",
    "registration_area_id": "1852",
    "precise_location": null,
    "abbreviation": "010",
    "units": "010",
    "delimitation": "08/18/02/010",
    "remark": "EXISTING PU",
    "ward_id": "1852",
    "ward_name": "GUSI / BILLA",
    "local_government_id": "159",
    "local_government_name": "KWAYA / KUSAR",
    "state_id": "8",
    "state_name": "BORNO",
    "location": {
      "latitude": 10.5032627,
      "longitude": 11.8432746,
      "viewport": {
        "northeast": {
          "lat": 10.50452797989272,
          "lng": 11.84471717989272
        },
        "southwest": {
          "lat": 10.50182832010728,
          "lng": 11.84201752010728
        }
      },
      "formatted_address": "GR3V+882, Biu Rd, 603103, Kwaya, Nigeria",
      "google_map_url": "https://maps.google.com?q=10.5032627,11.8432746",
      "google_place_id": "ChIJhfK_f2_lARERythhCiMwRwY"
    }
  },
  {
    "id": "34076",
    "name": "KWATHLANG K. BULAMA",
    "registration_area_id": "1852",
    "precise_location": null,
    "abbreviation": "011",
    "units": "011",
    "delimitation": "08/18/02/011",
    "remark": "EXISTING PU",
    "ward_id": "1852",
    "ward_name": "GUSI / BILLA",
    "local_government_id": "159",
    "local_government_name": "KWAYA / KUSAR",
    "state_id": "8",
    "state_name": "BORNO",
    "location": {
      "latitude": 10.5032627,
      "longitude": 11.8432746,
      "viewport": {
        "northeast": {
          "lat": 10.50452797989272,
          "lng": 11.84471717989272
        },
        "southwest": {
          "lat": 10.50182832010728,
          "lng": 11.84201752010728
        }
      },
      "formatted_address": "GR3V+882, Biu Rd, 603103, Kwaya, Nigeria",
      "google_map_url": "https://maps.google.com?q=10.5032627,11.8432746",
      "google_place_id": "ChIJhfK_f2_lARERythhCiMwRwY"
    }
  },
  {
    "id": "34077",
    "name": "GUSI PRIMARY HEALTH CARE",
    "registration_area_id": "1852",
    "precise_location": null,
    "abbreviation": "012",
    "units": "012",
    "delimitation": "08/18/02/012",
    "remark": "NEW PU",
    "ward_id": "1852",
    "ward_name": "GUSI / BILLA",
    "local_government_id": "159",
    "local_government_name": "KWAYA / KUSAR",
    "state_id": "8",
    "state_name": "BORNO",
    "location": {
      "latitude": 10.3989999,
      "longitude": 11.8139,
      "viewport": {
        "northeast": {
          "lat": 10.40034972989272,
          "lng": 11.81524982989272
        },
        "southwest": {
          "lat": 10.39765007010728,
          "lng": 11.81255017010728
        }
      },
      "formatted_address": "9RX7+HHR, 603103, Yumbu, Nigeria",
      "google_map_url": "https://maps.google.com?q=10.3989999,11.8139",
      "google_place_id": "ChIJP1bnGfYd_hARIDK4DACJuzs"
    }
  }
]