[
  {
    "id": "23993",
    "name": "ZAFAWEI/IGBONS/AKORI/AGINABIRI SQUARE",
    "registration_area_id": "1298",
    "precise_location": null,
    "abbreviation": "001",
    "units": "001",
    "delimitation": "06/02/11/001",
    "remark": "EXISTING PU",
    "ward_id": "1298",
    "ward_name": "EDUWINI I",
    "local_government_id": "112",
    "local_government_name": "EKEREMOR",
    "state_id": "6",
    "state_name": "BAYELSA",
    "location": {
      "latitude": 4.9511791,
      "longitude": 5.8142885,
      "viewport": {
        "northeast": {
          "lat": 4.952528929892722,
          "lng": 5.815638329892722
        },
        "southwest": {
          "lat": 4.949829270107278,
          "lng": 5.812938670107278
        }
      },
      "formatted_address": "XR27+FPF, Bilabiri community in ekeremor local Govt area, Azagbene, Nigeria",
      "google_map_url": "https://maps.google.com?q=4.9511791,5.8142885",
      "google_place_id": "ChIJ_6IkZ29_ahAR6nA17t8Dcxw"
    }
  },
  {
    "id": "23994",
    "name": "AYAMS/BAKIRI ZION SQUARE",
    "registration_area_id": "1298",
    "precise_location": null,
    "abbreviation": "002",
    "units": "002",
    "delimitation": "06/02/11/002",
    "remark": "EXISTING PU",
    "ward_id": "1298",
    "ward_name": "EDUWINI I",
    "local_government_id": "112",
    "local_government_name": "EKEREMOR",
    "state_id": "6",
    "state_name": "BAYELSA",
    "location": {
      "latitude": 4.921162100000001,
      "longitude": 6.274773400000001,
      "viewport": {
        "northeast": {
          "lat": 4.922174829892723,
          "lng": 6.275647500000001
        },
        "southwest": {
          "lat": 4.919475170107279,
          "lng": 6.272151099999999
        }
      },
      "formatted_address": "W7CF+FW6, 569101, Yenagoa, Nigeria",
      "google_map_url": "https://maps.google.com?q=4.921162100000001,6.274773400000001",
      "google_place_id": "ChIJK4MGSloFahARrV-Kk_Rm6J4"
    }
  },
  {
    "id": "23995",
    "name": "AGBERIGBARI/GUODE. SQUARE",
    "registration_area_id": "1298",
    "precise_location": null,
    "abbreviation": "003",
    "units": "003",
    "delimitation": "06/02/11/003",
    "remark": "EXISTING PU",
    "ward_id": "1298",
    "ward_name": "EDUWINI I",
    "local_government_id": "112",
    "local_government_name": "EKEREMOR",
    "state_id": "6",
    "state_name": "BAYELSA",
    "location": {
      "latitude": 4.9747023,
      "longitude": 5.6402798,
      "viewport": {
        "northeast": {
          "lat": 4.976027629892722,
          "lng": 5.641656179892722
        },
        "southwest": {
          "lat": 4.973327970107278,
          "lng": 5.638956520107278
        }
      },
      "formatted_address": "ekiere2 peretorugbene, ekeremor LGA, Nigeria",
      "google_map_url": "https://maps.google.com?q=4.9747023,5.6402798",
      "google_place_id": "ChIJg1Qb-ouDahAR0uyQecHoZW8"
    }
  },
  {
    "id": "23996",
    "name": "MARKET/YAPREGBA ZION SQUARE",
    "registration_area_id": "1298",
    "precise_location": null,
    "abbreviation": "004",
    "units": "004",
    "delimitation": "06/02/11/004",
    "remark": "EXISTING PU",
    "ward_id": "1298",
    "ward_name": "EDUWINI I",
    "local_government_id": "112",
    "local_government_name": "EKEREMOR",
    "state_id": "6",
    "state_name": "BAYELSA",
    "location": {
      "latitude": 4.921162100000001,
      "longitude": 6.274773400000001,
      "viewport": {
        "northeast": {
          "lat": 4.922174829892723,
          "lng": 6.275647500000001
        },
        "southwest": {
          "lat": 4.919475170107279,
          "lng": 6.272151099999999
        }
      },
      "formatted_address": "W7CF+FW6, 569101, Yenagoa, Nigeria",
      "google_map_url": "https://maps.google.com?q=4.921162100000001,6.274773400000001",
      "google_place_id": "ChIJK4MGSloFahARrV-Kk_Rm6J4"
    }
  },
  {
    "id": "23997",
    "name": "AZATITOR/FAMOUS ZION QTRS",
    "registration_area_id": "1298",
    "precise_location": null,
    "abbreviation": "005",
    "units": "005",
    "delimitation": "06/02/11/005",
    "remark": "EXISTING PU",
    "ward_id": "1298",
    "ward_name": "EDUWINI I",
    "local_government_id": "112",
    "local_government_name": "EKEREMOR",
    "state_id": "6",
    "state_name": "BAYELSA",
    "location": {
      "latitude": 4.921162100000001,
      "longitude": 6.274773400000001,
      "viewport": {
        "northeast": {
          "lat": 4.922174829892723,
          "lng": 6.275647500000001
        },
        "southwest": {
          "lat": 4.919475170107279,
          "lng": 6.272151099999999
        }
      },
      "formatted_address": "W7CF+FW6, 569101, Yenagoa, Nigeria",
      "google_map_url": "https://maps.google.com?q=4.921162100000001,6.274773400000001",
      "google_place_id": "ChIJK4MGSloFahARrV-Kk_Rm6J4"
    }
  },
  {
    "id": "23998",
    "name": "AMAZER",
    "registration_area_id": "1298",
    "precise_location": null,
    "abbreviation": "006",
    "units": "006",
    "delimitation": "06/02/11/006",
    "remark": "EXISTING PU",
    "ward_id": "1298",
    "ward_name": "EDUWINI I",
    "local_government_id": "112",
    "local_government_name": "EKEREMOR",
    "state_id": "6",
    "state_name": "BAYELSA",
    "location": {
      "latitude": 4.9511791,
      "longitude": 5.8142885,
      "viewport": {
        "northeast": {
          "lat": 5.1653113,
          "lng": 5.992768499999999
        },
        "southwest": {
          "lat": 4.7232711,
          "lng": 5.3794774
        }
      },
      "formatted_address": "Ekeremor, 561102, Nigeria",
      "google_map_url": "https://maps.google.com?q=4.9511791,5.8142885",
      "google_place_id": "ChIJh6S4s9eGahARTS_Oz2nqNyM"
    }
  },
  {
    "id": "23999",
    "name": "OSUMAIBIC/WAREBAKEFE",
    "registration_area_id": "1298",
    "precise_location": null,
    "abbreviation": "007",
    "units": "007",
    "delimitation": "06/02/11/007",
    "remark": "EXISTING PU",
    "ward_id": "1298",
    "ward_name": "EDUWINI I",
    "local_government_id": "112",
    "local_government_name": "EKEREMOR",
    "state_id": "6",
    "state_name": "BAYELSA",
    "location": {
      "latitude": 4.921162100000001,
      "longitude": 6.274773400000001,
      "viewport": {
        "northeast": {
          "lat": 4.922174829892723,
          "lng": 6.275647500000001
        },
        "southwest": {
          "lat": 4.919475170107279,
          "lng": 6.272151099999999
        }
      },
      "formatted_address": "W7CF+FW6, 569101, Yenagoa, Nigeria",
      "google_map_url": "https://maps.google.com?q=4.921162100000001,6.274773400000001",
      "google_place_id": "ChIJK4MGSloFahARrV-Kk_Rm6J4"
    }
  },
  {
    "id": "24000",
    "name": "AGGE PALM BUSH QTRS",
    "registration_area_id": "1298",
    "precise_location": null,
    "abbreviation": "008",
    "units": "008",
    "delimitation": "06/02/11/008",
    "remark": "EXISTING PU",
    "ward_id": "1298",
    "ward_name": "EDUWINI I",
    "local_government_id": "112",
    "local_government_name": "EKEREMOR",
    "state_id": "6",
    "state_name": "BAYELSA",
    "location": null
  },
  {
    "id": "24001",
    "name": "IDUERE/EGBE EBE QTRS",
    "registration_area_id": "1298",
    "precise_location": null,
    "abbreviation": "009",
    "units": "009",
    "delimitation": "06/02/11/009",
    "remark": "EXISTING PU",
    "ward_id": "1298",
    "ward_name": "EDUWINI I",
    "local_government_id": "112",
    "local_government_name": "EKEREMOR",
    "state_id": "6",
    "state_name": "BAYELSA",
    "location": {
      "latitude": 4.9747023,
      "longitude": 5.6402798,
      "viewport": {
        "northeast": {
          "lat": 4.976027629892722,
          "lng": 5.641656179892722
        },
        "southwest": {
          "lat": 4.973327970107278,
          "lng": 5.638956520107278
        }
      },
      "formatted_address": "ekiere2 peretorugbene, ekeremor LGA, Nigeria",
      "google_map_url": "https://maps.google.com?q=4.9747023,5.6402798",
      "google_place_id": "ChIJg1Qb-ouDahAR0uyQecHoZW8"
    }
  },
  {
    "id": "24002",
    "name": "AMATUF/AZAMABIRI SQUARE",
    "registration_area_id": "1298",
    "precise_location": null,
    "abbreviation": "010",
    "units": "010",
    "delimitation": "06/02/11/010",
    "remark": "EXISTING PU",
    "ward_id": "1298",
    "ward_name": "EDUWINI I",
    "local_government_id": "112",
    "local_government_name": "EKEREMOR",
    "state_id": "6",
    "state_name": "BAYELSA",
    "location": {
      "latitude": 4.921162100000001,
      "longitude": 6.274773400000001,
      "viewport": {
        "northeast": {
          "lat": 4.922174829892723,
          "lng": 6.275647500000001
        },
        "southwest": {
          "lat": 4.919475170107279,
          "lng": 6.272151099999999
        }
      },
      "formatted_address": "W7CF+FW6, 569101, Yenagoa, Nigeria",
      "google_map_url": "https://maps.google.com?q=4.921162100000001,6.274773400000001",
      "google_place_id": "ChIJK4MGSloFahARrV-Kk_Rm6J4"
    }
  },
  {
    "id": "24003",
    "name": "OGBERINTU SQUARE",
    "registration_area_id": "1298",
    "precise_location": null,
    "abbreviation": "011",
    "units": "011",
    "delimitation": "06/02/11/011",
    "remark": "EXISTING PU",
    "ward_id": "1298",
    "ward_name": "EDUWINI I",
    "local_government_id": "112",
    "local_government_name": "EKEREMOR",
    "state_id": "6",
    "state_name": "BAYELSA",
    "location": {
      "latitude": 4.9747023,
      "longitude": 5.6402798,
      "viewport": {
        "northeast": {
          "lat": 4.976027629892722,
          "lng": 5.641656179892722
        },
        "southwest": {
          "lat": 4.973327970107278,
          "lng": 5.638956520107278
        }
      },
      "formatted_address": "ekiere2 peretorugbene, ekeremor LGA, Nigeria",
      "google_map_url": "https://maps.google.com?q=4.9747023,5.6402798",
      "google_place_id": "ChIJg1Qb-ouDahAR0uyQecHoZW8"
    }
  },
  {
    "id": "24004",
    "name": "OROBIRI SQUARE",
    "registration_area_id": "1298",
    "precise_location": null,
    "abbreviation": "012",
    "units": "012",
    "delimitation": "06/02/11/012",
    "remark": "EXISTING PU",
    "ward_id": "1298",
    "ward_name": "EDUWINI I",
    "local_government_id": "112",
    "local_government_name": "EKEREMOR",
    "state_id": "6",
    "state_name": "BAYELSA",
    "location": {
      "latitude": 4.921162100000001,
      "longitude": 6.274773400000001,
      "viewport": {
        "northeast": {
          "lat": 4.922174829892723,
          "lng": 6.275647500000001
        },
        "southwest": {
          "lat": 4.919475170107279,
          "lng": 6.272151099999999
        }
      },
      "formatted_address": "W7CF+FW6, 569101, Yenagoa, Nigeria",
      "google_map_url": "https://maps.google.com?q=4.921162100000001,6.274773400000001",
      "google_place_id": "ChIJK4MGSloFahARrV-Kk_Rm6J4"
    }
  },
  {
    "id": "24005",
    "name": "COM. PRI. SCH. AGHORO I",
    "registration_area_id": "1298",
    "precise_location": null,
    "abbreviation": "013",
    "units": "013",
    "delimitation": "06/02/11/013",
    "remark": "NEW PU",
    "ward_id": "1298",
    "ward_name": "EDUWINI I",
    "local_government_id": "112",
    "local_government_name": "EKEREMOR",
    "state_id": "6",
    "state_name": "BAYELSA",
    "location": {
      "latitude": 4.9397177,
      "longitude": 6.279738,
      "viewport": {
        "northeast": {
          "lat": 4.941094379892721,
          "lng": 6.281024079892721
        },
        "southwest": {
          "lat": 4.938394720107278,
          "lng": 6.278324420107277
        }
      },
      "formatted_address": "W7QH+VVQ, 569101, Yenagoa, Nigeria",
      "google_map_url": "https://maps.google.com?q=4.9397177,6.279738",
      "google_place_id": "ChIJ9ZvNtywEahAReUdPe7FgkaY"
    }
  },
  {
    "id": "24006",
    "name": "TOWN HALL AGHORO",
    "registration_area_id": "1298",
    "precise_location": null,
    "abbreviation": "014",
    "units": "014",
    "delimitation": "06/02/11/014",
    "remark": "NEW PU",
    "ward_id": "1298",
    "ward_name": "EDUWINI I",
    "local_government_id": "112",
    "local_government_name": "EKEREMOR",
    "state_id": "6",
    "state_name": "BAYELSA",
    "location": {
      "latitude": 5.362697,
      "longitude": 5.7931558,
      "viewport": {
        "northeast": {
          "lat": 5.364076829892721,
          "lng": 5.794480829892722
        },
        "southwest": {
          "lat": 5.361377170107278,
          "lng": 5.791781170107278
        }
      },
      "formatted_address": "9Q7V+37J, 333115, Egbo Ide, Nigeria",
      "google_map_url": "https://maps.google.com?q=5.362697,5.7931558",
      "google_place_id": "ChIJe1m5ynTKQRAR9Z2Zmxw0Gqs"
    }
  },
  {
    "id": "24007",
    "name": "COM. SEC. SCH. AGHORO",
    "registration_area_id": "1298",
    "precise_location": null,
    "abbreviation": "015",
    "units": "015",
    "delimitation": "06/02/11/015",
    "remark": "NEW PU",
    "ward_id": "1298",
    "ward_name": "EDUWINI I",
    "local_government_id": "112",
    "local_government_name": "EKEREMOR",
    "state_id": "6",
    "state_name": "BAYELSA",
    "location": {
      "latitude": 4.9676499,
      "longitude": 5.6386219,
      "viewport": {
        "northeast": {
          "lat": 4.969242429892722,
          "lng": 5.639922929892721
        },
        "southwest": {
          "lat": 4.966542770107278,
          "lng": 5.637223270107278
        }
      },
      "formatted_address": "Oporomor IV, 561102, Budra Creek, Nigeria",
      "google_map_url": "https://maps.google.com?q=4.9676499,5.6386219",
      "google_place_id": "ChIJqeaML-SDahAR77ZIuSLCYF4"
    }
  },
  {
    "id": "24008",
    "name": "COM. PRI. SCH. AMATU II",
    "registration_area_id": "1298",
    "precise_location": null,
    "abbreviation": "016",
    "units": "016",
    "delimitation": "06/02/11/016",
    "remark": "NEW PU",
    "ward_id": "1298",
    "ward_name": "EDUWINI I",
    "local_government_id": "112",
    "local_government_name": "EKEREMOR",
    "state_id": "6",
    "state_name": "BAYELSA",
    "location": {
      "latitude": 4.921162100000001,
      "longitude": 6.274773400000001,
      "viewport": {
        "northeast": {
          "lat": 4.922174829892723,
          "lng": 6.275647500000001
        },
        "southwest": {
          "lat": 4.919475170107279,
          "lng": 6.272151099999999
        }
      },
      "formatted_address": "W7CF+FW6, 569101, Yenagoa, Nigeria",
      "google_map_url": "https://maps.google.com?q=4.921162100000001,6.274773400000001",
      "google_place_id": "ChIJK4MGSloFahARrV-Kk_Rm6J4"
    }
  },
  {
    "id": "24009",
    "name": "AZAMABIRI COMMUNITY HA",
    "registration_area_id": "1298",
    "precise_location": null,
    "abbreviation": "017",
    "units": "017",
    "delimitation": "06/02/11/017",
    "remark": "NEW PU",
    "ward_id": "1298",
    "ward_name": "EDUWINI I",
    "local_government_id": "112",
    "local_government_name": "EKEREMOR",
    "state_id": "6",
    "state_name": "BAYELSA",
    "location": {
      "latitude": 4.9511791,
      "longitude": 5.8142885,
      "viewport": {
        "northeast": {
          "lat": 4.952528929892722,
          "lng": 5.815638329892722
        },
        "southwest": {
          "lat": 4.949829270107278,
          "lng": 5.812938670107278
        }
      },
      "formatted_address": "XR27+FPF, Bilabiri community in ekeremor local Govt area, Azagbene, Nigeria",
      "google_map_url": "https://maps.google.com?q=4.9511791,5.8142885",
      "google_place_id": "ChIJ_6IkZ29_ahAR6nA17t8Dcxw"
    }
  },
  {
    "id": "24010",
    "name": "COM. PRI. SCH. AGGE",
    "registration_area_id": "1298",
    "precise_location": null,
    "abbreviation": "018",
    "units": "018",
    "delimitation": "06/02/11/018",
    "remark": "NEW PU",
    "ward_id": "1298",
    "ward_name": "EDUWINI I",
    "local_government_id": "112",
    "local_government_name": "EKEREMOR",
    "state_id": "6",
    "state_name": "BAYELSA",
    "location": {
      "latitude": 5.1298574,
      "longitude": 5.3943628,
      "viewport": {
        "northeast": {
          "lat": 5.131207229892722,
          "lng": 5.395712629892722
        },
        "southwest": {
          "lat": 5.128507570107278,
          "lng": 5.393012970107279
        }
      },
      "formatted_address": "49HV+WPX, Osumaibio Community in Local Government Area of, Agge, Nigeria",
      "google_map_url": "https://maps.google.com?q=5.1298574,5.3943628",
      "google_place_id": "ChIJyXm58wciQBAR9ZExf3WLBW8"
    }
  },
  {
    "id": "24011",
    "name": "COM. PRI. SCH. OROBIRI",
    "registration_area_id": "1298",
    "precise_location": null,
    "abbreviation": "019",
    "units": "019",
    "delimitation": "06/02/11/019",
    "remark": "NEW PU",
    "ward_id": "1298",
    "ward_name": "EDUWINI I",
    "local_government_id": "112",
    "local_government_name": "EKEREMOR",
    "state_id": "6",
    "state_name": "BAYELSA",
    "location": {
      "latitude": 4.998332,
      "longitude": 6.1190843,
      "viewport": {
        "northeast": {
          "lat": 4.999654329892723,
          "lng": 6.120307179892722
        },
        "southwest": {
          "lat": 4.996954670107279,
          "lng": 6.117607520107279
        }
      },
      "formatted_address": "X4X9+8MV, 561101, Amassoma, Nigeria",
      "google_map_url": "https://maps.google.com?q=4.998332,6.1190843",
      "google_place_id": "ChIJe1a0gfALahARkAlriUeO9Lw"
    }
  }
]