[
  {
    "id": "100380",
    "name": "TSAGEM - TSAGEM PRI.SCHOOL",
    "registration_area_id": "5100",
    "precise_location": null,
    "abbreviation": "001",
    "units": "001",
    "delimitation": "20/26/05/001",
    "remark": "EXISTING PU",
    "ward_id": "5100",
    "ward_name": "TSAGEM/TAKUSHEYI",
    "local_government_id": "439",
    "local_government_name": "MANI",
    "state_id": "20",
    "state_name": "KATSINA",
    "location": {
      "latitude": 12.9993073,
      "longitude": 7.836625400000001,
      "viewport": {
        "northeast": {
          "lat": 13.00067277989272,
          "lng": 7.837970529892722
        },
        "southwest": {
          "lat": 12.99797312010728,
          "lng": 7.835270870107278
        }
      },
      "formatted_address": "Indukun Primary School, 823101, Nbuku, Nigeria",
      "google_map_url": "https://maps.google.com?q=12.9993073,7.836625400000001",
      "google_place_id": "ChIJiT6rIfverxERTvkQQ-ukn_0"
    }
  },
  {
    "id": "100381",
    "name": "MUSAWAR HABE - K/BALANGE",
    "registration_area_id": "5100",
    "precise_location": null,
    "abbreviation": "002",
    "units": "002",
    "delimitation": "20/26/05/002",
    "remark": "EXISTING PU",
    "ward_id": "5100",
    "ward_name": "TSAGEM/TAKUSHEYI",
    "local_government_id": "439",
    "local_government_name": "MANI",
    "state_id": "20",
    "state_name": "KATSINA",
    "location": {
      "latitude": 12.9771627,
      "longitude": 7.638197799999999,
      "viewport": {
        "northeast": {
          "lat": 12.97805492989272,
          "lng": 7.63987762989272
        },
        "southwest": {
          "lat": 12.97535527010728,
          "lng": 7.637177970107277
        }
      },
      "formatted_address": "XJGQ+V78, 820101, Katsina, Nigeria",
      "google_map_url": "https://maps.google.com?q=12.9771627,7.638197799999999",
      "google_place_id": "ChIJEcs1mGYjsBERLlylGjIVr-M"
    }
  },
  {
    "id": "100382",
    "name": "MUSAWAR FULANI - TAKO",
    "registration_area_id": "5100",
    "precise_location": null,
    "abbreviation": "003",
    "units": "003",
    "delimitation": "20/26/05/003",
    "remark": "EXISTING PU",
    "ward_id": "5100",
    "ward_name": "TSAGEM/TAKUSHEYI",
    "local_government_id": "439",
    "local_government_name": "MANI",
    "state_id": "20",
    "state_name": "KATSINA",
    "location": {
      "latitude": 12.9751065,
      "longitude": 7.8395151,
      "viewport": {
        "northeast": {
          "lat": 13.0278246,
          "lng": 7.9233732
        },
        "southwest": {
          "lat": 12.9227977,
          "lng": 7.790679399999998
        }
      },
      "formatted_address": "Tsagem Takusheyi, 823101, Nigeria",
      "google_map_url": "https://maps.google.com?q=12.9751065,7.8395151",
      "google_place_id": "ChIJQaeAErrerxERibizzYoxtbA"
    }
  },
  {
    "id": "100383",
    "name": "BARYAWAR HABE - TSHA",
    "registration_area_id": "5100",
    "precise_location": null,
    "abbreviation": "004",
    "units": "004",
    "delimitation": "20/26/05/004",
    "remark": "EXISTING PU",
    "ward_id": "5100",
    "ward_name": "TSAGEM/TAKUSHEYI",
    "local_government_id": "439",
    "local_government_name": "MANI",
    "state_id": "20",
    "state_name": "KATSINA",
    "location": null
  },
  {
    "id": "100384",
    "name": "BARYAWAR BUGAJE - G/LIMAN",
    "registration_area_id": "5100",
    "precise_location": null,
    "abbreviation": "005",
    "units": "005",
    "delimitation": "20/26/05/005",
    "remark": "EXISTING PU",
    "ward_id": "5100",
    "ward_name": "TSAGEM/TAKUSHEYI",
    "local_government_id": "439",
    "local_government_name": "MANI",
    "state_id": "20",
    "state_name": "KATSINA",
    "location": {
      "latitude": 12.8617034,
      "longitude": 7.880101100000001,
      "viewport": {
        "northeast": {
          "lat": 12.86301652989272,
          "lng": 7.881284679892723
        },
        "southwest": {
          "lat": 12.86031687010728,
          "lng": 7.878585020107279
        }
      },
      "formatted_address": "VV6J+M2Q, 823101, Mani, Nigeria",
      "google_map_url": "https://maps.google.com?q=12.8617034,7.880101100000001",
      "google_place_id": "ChIJgQCXTa7QrxERC1DGzF3q6yA"
    }
  },
  {
    "id": "100385",
    "name": "KWABRA - K/UNG",
    "registration_area_id": "5100",
    "precise_location": null,
    "abbreviation": "006",
    "units": "006",
    "delimitation": "20/26/05/006",
    "remark": "EXISTING PU",
    "ward_id": "5100",
    "ward_name": "TSAGEM/TAKUSHEYI",
    "local_government_id": "439",
    "local_government_name": "MANI",
    "state_id": "20",
    "state_name": "KATSINA",
    "location": {
      "latitude": 12.9771627,
      "longitude": 7.638197799999999,
      "viewport": {
        "northeast": {
          "lat": 12.97805492989272,
          "lng": 7.63987762989272
        },
        "southwest": {
          "lat": 12.97535527010728,
          "lng": 7.637177970107277
        }
      },
      "formatted_address": "XJGQ+V78, 820101, Katsina, Nigeria",
      "google_map_url": "https://maps.google.com?q=12.9771627,7.638197799999999",
      "google_place_id": "ChIJEcs1mGYjsBERLlylGjIVr-M"
    }
  },
  {
    "id": "100386",
    "name": "GUNKI - PRI.SCHOOL",
    "registration_area_id": "5100",
    "precise_location": null,
    "abbreviation": "007",
    "units": "007",
    "delimitation": "20/26/05/007",
    "remark": "EXISTING PU",
    "ward_id": "5100",
    "ward_name": "TSAGEM/TAKUSHEYI",
    "local_government_id": "439",
    "local_government_name": "MANI",
    "state_id": "20",
    "state_name": "KATSINA",
    "location": {
      "latitude": 12.8615445,
      "longitude": 7.877502,
      "viewport": {
        "northeast": {
          "lat": 12.86308487989272,
          "lng": 7.878774079892721
        },
        "southwest": {
          "lat": 12.86038522010728,
          "lng": 7.876074420107277
        }
      },
      "formatted_address": "Opposite General Hospital, 823101, Mani, Nigeria",
      "google_map_url": "https://maps.google.com?q=12.8615445,7.877502",
      "google_place_id": "ChIJpRjjSFjRrxERARTIQCuOusc"
    }
  },
  {
    "id": "100387",
    "name": "DINDIN - K/UNG",
    "registration_area_id": "5100",
    "precise_location": null,
    "abbreviation": "008",
    "units": "008",
    "delimitation": "20/26/05/008",
    "remark": "EXISTING PU",
    "ward_id": "5100",
    "ward_name": "TSAGEM/TAKUSHEYI",
    "local_government_id": "439",
    "local_government_name": "MANI",
    "state_id": "20",
    "state_name": "KATSINA",
    "location": null
  },
  {
    "id": "100388",
    "name": "TAKUSHEYI PRI.SCHOOL",
    "registration_area_id": "5100",
    "precise_location": null,
    "abbreviation": "009",
    "units": "009",
    "delimitation": "20/26/05/009",
    "remark": "EXISTING PU",
    "ward_id": "5100",
    "ward_name": "TSAGEM/TAKUSHEYI",
    "local_government_id": "439",
    "local_government_name": "MANI",
    "state_id": "20",
    "state_name": "KATSINA",
    "location": {
      "latitude": 12.967111,
      "longitude": 7.650070099999999,
      "viewport": {
        "northeast": {
          "lat": 12.96848242989272,
          "lng": 7.651439629892723
        },
        "southwest": {
          "lat": 12.96578277010728,
          "lng": 7.648739970107279
        }
      },
      "formatted_address": "behind NYSC Camp, 820102, Katsina, Nigeria",
      "google_map_url": "https://maps.google.com?q=12.967111,7.650070099999999",
      "google_place_id": "ChIJa7VRDyMlsBER0UFiENvlRvg"
    }
  },
  {
    "id": "100389",
    "name": "SHAUTAWA - SHAUTAWA",
    "registration_area_id": "5100",
    "precise_location": null,
    "abbreviation": "010",
    "units": "010",
    "delimitation": "20/26/05/010",
    "remark": "EXISTING PU",
    "ward_id": "5100",
    "ward_name": "TSAGEM/TAKUSHEYI",
    "local_government_id": "439",
    "local_government_name": "MANI",
    "state_id": "20",
    "state_name": "KATSINA",
    "location": {
      "latitude": 12.9751065,
      "longitude": 7.8395151,
      "viewport": {
        "northeast": {
          "lat": 13.0278246,
          "lng": 7.9233732
        },
        "southwest": {
          "lat": 12.9227977,
          "lng": 7.790679399999998
        }
      },
      "formatted_address": "Tsagem Takusheyi, 823101, Nigeria",
      "google_map_url": "https://maps.google.com?q=12.9751065,7.8395151",
      "google_place_id": "ChIJQaeAErrerxERibizzYoxtbA"
    }
  },
  {
    "id": "100390",
    "name": "HAYEWA - K/UNGUWA",
    "registration_area_id": "5100",
    "precise_location": null,
    "abbreviation": "011",
    "units": "011",
    "delimitation": "20/26/05/011",
    "remark": "EXISTING PU",
    "ward_id": "5100",
    "ward_name": "TSAGEM/TAKUSHEYI",
    "local_government_id": "439",
    "local_government_name": "MANI",
    "state_id": "20",
    "state_name": "KATSINA",
    "location": null
  },
  {
    "id": "100391",
    "name": "INDUKUN PRI.SCHOOL",
    "registration_area_id": "5100",
    "precise_location": null,
    "abbreviation": "012",
    "units": "012",
    "delimitation": "20/26/05/012",
    "remark": "EXISTING PU",
    "ward_id": "5100",
    "ward_name": "TSAGEM/TAKUSHEYI",
    "local_government_id": "439",
    "local_government_name": "MANI",
    "state_id": "20",
    "state_name": "KATSINA",
    "location": {
      "latitude": 12.8615445,
      "longitude": 7.877502,
      "viewport": {
        "northeast": {
          "lat": 12.86308487989272,
          "lng": 7.878774079892721
        },
        "southwest": {
          "lat": 12.86038522010728,
          "lng": 7.876074420107277
        }
      },
      "formatted_address": "Opposite General Hospital, 823101, Mani, Nigeria",
      "google_map_url": "https://maps.google.com?q=12.8615445,7.877502",
      "google_place_id": "ChIJpRjjSFjRrxERARTIQCuOusc"
    }
  },
  {
    "id": "100392",
    "name": "FANKADAN - TASHA",
    "registration_area_id": "5100",
    "precise_location": null,
    "abbreviation": "013",
    "units": "013",
    "delimitation": "20/26/05/013",
    "remark": "EXISTING PU",
    "ward_id": "5100",
    "ward_name": "TSAGEM/TAKUSHEYI",
    "local_government_id": "439",
    "local_government_name": "MANI",
    "state_id": "20",
    "state_name": "KATSINA",
    "location": {
      "latitude": 12.9771627,
      "longitude": 7.638197799999999,
      "viewport": {
        "northeast": {
          "lat": 12.97805492989272,
          "lng": 7.63987762989272
        },
        "southwest": {
          "lat": 12.97535527010728,
          "lng": 7.637177970107277
        }
      },
      "formatted_address": "XJGQ+V78, 820101, Katsina, Nigeria",
      "google_map_url": "https://maps.google.com?q=12.9771627,7.638197799999999",
      "google_place_id": "ChIJEcs1mGYjsBERLlylGjIVr-M"
    }
  },
  {
    "id": "100393",
    "name": "SHEME PRI.SCHOOL",
    "registration_area_id": "5100",
    "precise_location": null,
    "abbreviation": "014",
    "units": "014",
    "delimitation": "20/26/05/014",
    "remark": "EXISTING PU",
    "ward_id": "5100",
    "ward_name": "TSAGEM/TAKUSHEYI",
    "local_government_id": "439",
    "local_government_name": "MANI",
    "state_id": "20",
    "state_name": "KATSINA",
    "location": {
      "latitude": 12.8615445,
      "longitude": 7.877502,
      "viewport": {
        "northeast": {
          "lat": 12.86308487989272,
          "lng": 7.878774079892721
        },
        "southwest": {
          "lat": 12.86038522010728,
          "lng": 7.876074420107277
        }
      },
      "formatted_address": "Opposite General Hospital, 823101, Mani, Nigeria",
      "google_map_url": "https://maps.google.com?q=12.8615445,7.877502",
      "google_place_id": "ChIJpRjjSFjRrxERARTIQCuOusc"
    }
  },
  {
    "id": "100394",
    "name": "GAGEN - K/UNG",
    "registration_area_id": "5100",
    "precise_location": null,
    "abbreviation": "015",
    "units": "015",
    "delimitation": "20/26/05/015",
    "remark": "EXISTING PU",
    "ward_id": "5100",
    "ward_name": "TSAGEM/TAKUSHEYI",
    "local_government_id": "439",
    "local_government_name": "MANI",
    "state_id": "20",
    "state_name": "KATSINA",
    "location": null
  },
  {
    "id": "100395",
    "name": "GAMDANA - PRI.SCHOOL",
    "registration_area_id": "5100",
    "precise_location": null,
    "abbreviation": "016",
    "units": "016",
    "delimitation": "20/26/05/016",
    "remark": "EXISTING PU",
    "ward_id": "5100",
    "ward_name": "TSAGEM/TAKUSHEYI",
    "local_government_id": "439",
    "local_government_name": "MANI",
    "state_id": "20",
    "state_name": "KATSINA",
    "location": {
      "latitude": 12.9438771,
      "longitude": 7.871394800000001,
      "viewport": {
        "northeast": {
          "lat": 12.94531592989272,
          "lng": 7.872753479892721
        },
        "southwest": {
          "lat": 12.94261627010728,
          "lng": 7.870053820107278
        }
      },
      "formatted_address": "Gamdana Primary School, 823101, Nigeria",
      "google_map_url": "https://maps.google.com?q=12.9438771,7.871394800000001",
      "google_place_id": "ChIJ3ylgaF_ZrxERvBJA3-HEMdY"
    }
  },
  {
    "id": "100396",
    "name": "KUNA - TASHA",
    "registration_area_id": "5100",
    "precise_location": null,
    "abbreviation": "017",
    "units": "017",
    "delimitation": "20/26/05/017",
    "remark": "EXISTING PU",
    "ward_id": "5100",
    "ward_name": "TSAGEM/TAKUSHEYI",
    "local_government_id": "439",
    "local_government_name": "MANI",
    "state_id": "20",
    "state_name": "KATSINA",
    "location": {
      "latitude": 12.9767166,
      "longitude": 7.6324748,
      "viewport": {
        "northeast": {
          "lat": 12.97803877989272,
          "lng": 7.633809179892721
        },
        "southwest": {
          "lat": 12.97533912010728,
          "lng": 7.631109520107278
        }
      },
      "formatted_address": "XJGJ+MXQ, Mani Rd, 820101, Katsina, Nigeria",
      "google_map_url": "https://maps.google.com?q=12.9767166,7.6324748",
      "google_place_id": "ChIJScqLxRAjsBERxIlMzzOzqTU"
    }
  },
  {
    "id": "100397",
    "name": "DAN MAGIRA - K/GUNG",
    "registration_area_id": "5100",
    "precise_location": null,
    "abbreviation": "018",
    "units": "018",
    "delimitation": "20/26/05/018",
    "remark": "EXISTING PU",
    "ward_id": "5100",
    "ward_name": "TSAGEM/TAKUSHEYI",
    "local_government_id": "439",
    "local_government_name": "MANI",
    "state_id": "20",
    "state_name": "KATSINA",
    "location": {
      "latitude": 12.9771627,
      "longitude": 7.638197799999999,
      "viewport": {
        "northeast": {
          "lat": 12.97805492989272,
          "lng": 7.63987762989272
        },
        "southwest": {
          "lat": 12.97535527010728,
          "lng": 7.637177970107277
        }
      },
      "formatted_address": "XJGQ+V78, 820101, Katsina, Nigeria",
      "google_map_url": "https://maps.google.com?q=12.9771627,7.638197799999999",
      "google_place_id": "ChIJEcs1mGYjsBERLlylGjIVr-M"
    }
  },
  {
    "id": "100398",
    "name": "ZAMGUNA - K/UNG",
    "registration_area_id": "5100",
    "precise_location": null,
    "abbreviation": "019",
    "units": "019",
    "delimitation": "20/26/05/019",
    "remark": "EXISTING PU",
    "ward_id": "5100",
    "ward_name": "TSAGEM/TAKUSHEYI",
    "local_government_id": "439",
    "local_government_name": "MANI",
    "state_id": "20",
    "state_name": "KATSINA",
    "location": {
      "latitude": 12.8617034,
      "longitude": 7.880101100000001,
      "viewport": {
        "northeast": {
          "lat": 12.86301652989272,
          "lng": 7.881284679892723
        },
        "southwest": {
          "lat": 12.86031687010728,
          "lng": 7.878585020107279
        }
      },
      "formatted_address": "VV6J+M2Q, 823101, Mani, Nigeria",
      "google_map_url": "https://maps.google.com?q=12.8617034,7.880101100000001",
      "google_place_id": "ChIJgQCXTa7QrxERC1DGzF3q6yA"
    }
  },
  {
    "id": "100399",
    "name": "GUNKI PRI.SCHOOL",
    "registration_area_id": "5100",
    "precise_location": null,
    "abbreviation": "020",
    "units": "020",
    "delimitation": "20/26/05/020",
    "remark": "EXISTING PU",
    "ward_id": "5100",
    "ward_name": "TSAGEM/TAKUSHEYI",
    "local_government_id": "439",
    "local_government_name": "MANI",
    "state_id": "20",
    "state_name": "KATSINA",
    "location": {
      "latitude": 12.8615445,
      "longitude": 7.877502,
      "viewport": {
        "northeast": {
          "lat": 12.86308487989272,
          "lng": 7.878774079892721
        },
        "southwest": {
          "lat": 12.86038522010728,
          "lng": 7.876074420107277
        }
      },
      "formatted_address": "Opposite General Hospital, 823101, Mani, Nigeria",
      "google_map_url": "https://maps.google.com?q=12.8615445,7.877502",
      "google_place_id": "ChIJpRjjSFjRrxERARTIQCuOusc"
    }
  },
  {
    "id": "100400",
    "name": "KARKARA KOFAR GIDAN MAI UNGUWA (MASALLACI)",
    "registration_area_id": "5100",
    "precise_location": null,
    "abbreviation": "021",
    "units": "021",
    "delimitation": "20/26/05/021",
    "remark": "NEW PU",
    "ward_id": "5100",
    "ward_name": "TSAGEM/TAKUSHEYI",
    "local_government_id": "439",
    "local_government_name": "MANI",
    "state_id": "20",
    "state_name": "KATSINA",
    "location": null
  },
  {
    "id": "100401",
    "name": "BAGARUWA PRI. SCH",
    "registration_area_id": "5100",
    "precise_location": null,
    "abbreviation": "022",
    "units": "022",
    "delimitation": "20/26/05/022",
    "remark": "NEW PU",
    "ward_id": "5100",
    "ward_name": "TSAGEM/TAKUSHEYI",
    "local_government_id": "439",
    "local_government_name": "MANI",
    "state_id": "20",
    "state_name": "KATSINA",
    "location": {
      "latitude": 12.967111,
      "longitude": 7.650070099999999,
      "viewport": {
        "northeast": {
          "lat": 12.96848242989272,
          "lng": 7.651439629892723
        },
        "southwest": {
          "lat": 12.96578277010728,
          "lng": 7.648739970107279
        }
      },
      "formatted_address": "behind NYSC Camp, 820102, Katsina, Nigeria",
      "google_map_url": "https://maps.google.com?q=12.967111,7.650070099999999",
      "google_place_id": "ChIJa7VRDyMlsBER0UFiENvlRvg"
    }
  },
  {
    "id": "100402",
    "name": "SHAISKAWA HEALTH CLINIC",
    "registration_area_id": "5100",
    "precise_location": null,
    "abbreviation": "023",
    "units": "023",
    "delimitation": "20/26/05/023",
    "remark": "NEW PU",
    "ward_id": "5100",
    "ward_name": "TSAGEM/TAKUSHEYI",
    "local_government_id": "439",
    "local_government_name": "MANI",
    "state_id": "20",
    "state_name": "KATSINA",
    "location": {
      "latitude": 12.9532,
      "longitude": 7.825399999999999,
      "viewport": {
        "northeast": {
          "lat": 12.95469797989272,
          "lng": 7.826864929892722
        },
        "southwest": {
          "lat": 12.95199832010728,
          "lng": 7.824165270107279
        }
      },
      "formatted_address": "XR3G+75C, 823101, Katsina, Nigeria",
      "google_map_url": "https://maps.google.com?q=12.9532,7.825399999999999",
      "google_place_id": "ChIJo0UAe9fYrxERsJgQeHb7U-o"
    }
  }
]