[
  {
    "id": "333128",
    "name": "READING ROOM - PB I",
    "registration_area_id": "16919",
    "precise_location": null,
    "abbreviation": "001",
    "units": "001",
    "delimitation": "25/08/05/001",
    "remark": "EXISTING PU",
    "ward_id": "16919",
    "ward_name": "ASSAKIO",
    "local_government_id": "533",
    "local_government_name": "LAFIA",
    "state_id": "25",
    "state_name": "NASARAWA",
    "location": null
  },
  {
    "id": "333129",
    "name": "READING ROOM - PB II",
    "registration_area_id": "16919",
    "precise_location": null,
    "abbreviation": "002",
    "units": "002",
    "delimitation": "25/08/05/002",
    "remark": "EXISTING PU",
    "ward_id": "16919",
    "ward_name": "ASSAKIO",
    "local_government_id": "533",
    "local_government_name": "LAFIA",
    "state_id": "25",
    "state_name": "NASARAWA",
    "location": null
  },
  {
    "id": "333130",
    "name": "KOFAR MADAKI - OP",
    "registration_area_id": "16919",
    "precise_location": null,
    "abbreviation": "003",
    "units": "003",
    "delimitation": "25/08/05/003",
    "remark": "EXISTING PU",
    "ward_id": "16919",
    "ward_name": "ASSAKIO",
    "local_government_id": "533",
    "local_government_name": "LAFIA",
    "state_id": "25",
    "state_name": "NASARAWA",
    "location": {
      "latitude": 8.5143073,
      "longitude": 8.8803925,
      "viewport": {
        "northeast": {
          "lat": 8.6618123,
          "lng": 9.0085762
        },
        "southwest": {
          "lat": 8.400403899999999,
          "lng": 8.7728514
        }
      },
      "formatted_address": "Assakio, Nigeria",
      "google_map_url": "https://maps.google.com?q=8.5143073,8.8803925",
      "google_place_id": "ChIJiyrx7xkjURARz2cxUa4XYi8"
    }
  },
  {
    "id": "333131",
    "name": "KOFAR SARKI - OP",
    "registration_area_id": "16919",
    "precise_location": null,
    "abbreviation": "004",
    "units": "004",
    "delimitation": "25/08/05/004",
    "remark": "EXISTING PU",
    "ward_id": "16919",
    "ward_name": "ASSAKIO",
    "local_government_id": "533",
    "local_government_name": "LAFIA",
    "state_id": "25",
    "state_name": "NASARAWA",
    "location": {
      "latitude": 8.5143073,
      "longitude": 8.8803925,
      "viewport": {
        "northeast": {
          "lat": 8.6618123,
          "lng": 9.0085762
        },
        "southwest": {
          "lat": 8.400403899999999,
          "lng": 8.7728514
        }
      },
      "formatted_address": "Assakio, Nigeria",
      "google_map_url": "https://maps.google.com?q=8.5143073,8.8803925",
      "google_place_id": "ChIJiyrx7xkjURARz2cxUa4XYi8"
    }
  },
  {
    "id": "333132",
    "name": "SUM PRI.SCHOOL - ASSAKIO PB",
    "registration_area_id": "16919",
    "precise_location": null,
    "abbreviation": "005",
    "units": "005",
    "delimitation": "25/08/05/005",
    "remark": "EXISTING PU",
    "ward_id": "16919",
    "ward_name": "ASSAKIO",
    "local_government_id": "533",
    "local_government_name": "LAFIA",
    "state_id": "25",
    "state_name": "NASARAWA",
    "location": {
      "latitude": 8.5357969,
      "longitude": 8.5317393,
      "viewport": {
        "northeast": {
          "lat": 8.53718217989272,
          "lng": 8.532880829892722
        },
        "southwest": {
          "lat": 8.534482520107277,
          "lng": 8.530181170107278
        }
      },
      "formatted_address": "Bukan Sidi Primary School, 950101, Lafia, Nigeria",
      "google_map_url": "https://maps.google.com?q=8.5357969,8.5317393",
      "google_place_id": "ChIJhalG8eoHURAR_CsFIq0gPQg"
    }
  },
  {
    "id": "333133",
    "name": "KOFAR AKIKA",
    "registration_area_id": "16919",
    "precise_location": null,
    "abbreviation": "006",
    "units": "006",
    "delimitation": "25/08/05/006",
    "remark": "EXISTING PU",
    "ward_id": "16919",
    "ward_name": "ASSAKIO",
    "local_government_id": "533",
    "local_government_name": "LAFIA",
    "state_id": "25",
    "state_name": "NASARAWA",
    "location": {
      "latitude": 8.5143073,
      "longitude": 8.8803925,
      "viewport": {
        "northeast": {
          "lat": 8.6618123,
          "lng": 9.0085762
        },
        "southwest": {
          "lat": 8.400403899999999,
          "lng": 8.7728514
        }
      },
      "formatted_address": "Assakio, Nigeria",
      "google_map_url": "https://maps.google.com?q=8.5143073,8.8803925",
      "google_place_id": "ChIJiyrx7xkjURARz2cxUa4XYi8"
    }
  },
  {
    "id": "333134",
    "name": "ASHIGOGO PRI.SCHOOL - PB",
    "registration_area_id": "16919",
    "precise_location": null,
    "abbreviation": "007",
    "units": "007",
    "delimitation": "25/08/05/007",
    "remark": "EXISTING PU",
    "ward_id": "16919",
    "ward_name": "ASSAKIO",
    "local_government_id": "533",
    "local_government_name": "LAFIA",
    "state_id": "25",
    "state_name": "NASARAWA",
    "location": {
      "latitude": 8.509976,
      "longitude": 8.4605599,
      "viewport": {
        "northeast": {
          "lat": 8.511737379892724,
          "lng": 8.461976329892721
        },
        "southwest": {
          "lat": 8.50903772010728,
          "lng": 8.459276670107277
        }
      },
      "formatted_address": "GF56+X6V, 950101, Lafia, Nigeria",
      "google_map_url": "https://maps.google.com?q=8.509976,8.4605599",
      "google_place_id": "ChIJi6lz9ripURARHnBXcGME6u4"
    }
  },
  {
    "id": "333135",
    "name": "DISPENSARY - PB",
    "registration_area_id": "16919",
    "precise_location": null,
    "abbreviation": "008",
    "units": "008",
    "delimitation": "25/08/05/008",
    "remark": "EXISTING PU",
    "ward_id": "16919",
    "ward_name": "ASSAKIO",
    "local_government_id": "533",
    "local_government_name": "LAFIA",
    "state_id": "25",
    "state_name": "NASARAWA",
    "location": null
  },
  {
    "id": "333136",
    "name": "DISPENSARY",
    "registration_area_id": "16919",
    "precise_location": null,
    "abbreviation": "009",
    "units": "009",
    "delimitation": "25/08/05/009",
    "remark": "EXISTING PU",
    "ward_id": "16919",
    "ward_name": "ASSAKIO",
    "local_government_id": "533",
    "local_government_name": "LAFIA",
    "state_id": "25",
    "state_name": "NASARAWA",
    "location": {
      "latitude": 8.5967045,
      "longitude": 8.853955899999999,
      "viewport": {
        "northeast": {
          "lat": 8.59804702989272,
          "lng": 8.855308729892721
        },
        "southwest": {
          "lat": 8.595347370107277,
          "lng": 8.852609070107277
        }
      },
      "formatted_address": "HVW3+MHP, 950102, Assaikio, Nigeria",
      "google_map_url": "https://maps.google.com?q=8.5967045,8.853955899999999",
      "google_place_id": "ChIJrSaqC3Q9URARO_r6inCgU-U"
    }
  },
  {
    "id": "333137",
    "name": "GIDAN GAMBO - OP",
    "registration_area_id": "16919",
    "precise_location": null,
    "abbreviation": "010",
    "units": "010",
    "delimitation": "25/08/05/010",
    "remark": "EXISTING PU",
    "ward_id": "16919",
    "ward_name": "ASSAKIO",
    "local_government_id": "533",
    "local_government_name": "LAFIA",
    "state_id": "25",
    "state_name": "NASARAWA",
    "location": {
      "latitude": 8.535019,
      "longitude": 8.5310769,
      "viewport": {
        "northeast": {
          "lat": 8.536557079892722,
          "lng": 8.532466329892724
        },
        "southwest": {
          "lat": 8.533857420107278,
          "lng": 8.52976667010728
        }
      },
      "formatted_address": "GGPJ+2C4, 950101, Nasarawa, Nigeria",
      "google_map_url": "https://maps.google.com?q=8.535019,8.5310769",
      "google_place_id": "ChIJb1bNp00GURARB3A5aslyQZw"
    }
  },
  {
    "id": "333138",
    "name": "TUNGA PRI.SCHOOL - PB",
    "registration_area_id": "16919",
    "precise_location": null,
    "abbreviation": "011",
    "units": "011",
    "delimitation": "25/08/05/011",
    "remark": "EXISTING PU",
    "ward_id": "16919",
    "ward_name": "ASSAKIO",
    "local_government_id": "533",
    "local_government_name": "LAFIA",
    "state_id": "25",
    "state_name": "NASARAWA",
    "location": {
      "latitude": 8.509976,
      "longitude": 8.4605599,
      "viewport": {
        "northeast": {
          "lat": 8.511737379892724,
          "lng": 8.461976329892721
        },
        "southwest": {
          "lat": 8.50903772010728,
          "lng": 8.459276670107277
        }
      },
      "formatted_address": "GF56+X6V, 950101, Lafia, Nigeria",
      "google_map_url": "https://maps.google.com?q=8.509976,8.4605599",
      "google_place_id": "ChIJi6lz9ripURARHnBXcGME6u4"
    }
  },
  {
    "id": "333139",
    "name": "TUNGA GIDAN ABASHIYA - OP",
    "registration_area_id": "16919",
    "precise_location": null,
    "abbreviation": "012",
    "units": "012",
    "delimitation": "25/08/05/012",
    "remark": "EXISTING PU",
    "ward_id": "16919",
    "ward_name": "ASSAKIO",
    "local_government_id": "533",
    "local_government_name": "LAFIA",
    "state_id": "25",
    "state_name": "NASARAWA",
    "location": {
      "latitude": 8.5060115,
      "longitude": 8.5226706,
      "viewport": {
        "northeast": {
          "lat": 8.507225029892721,
          "lng": 8.524209729892721
        },
        "southwest": {
          "lat": 8.504525370107277,
          "lng": 8.521510070107277
        }
      },
      "formatted_address": "ASHANWGA MARKET,LAFIA ESTATE DEV AREA, Lafia, Nigeria",
      "google_map_url": "https://maps.google.com?q=8.5060115,8.5226706",
      "google_place_id": "ChIJh8BvC2AHURARxCF95UXBm9c"
    }
  },
  {
    "id": "333140",
    "name": "GIDAN AKAAVE - OP",
    "registration_area_id": "16919",
    "precise_location": null,
    "abbreviation": "013",
    "units": "013",
    "delimitation": "25/08/05/013",
    "remark": "EXISTING PU",
    "ward_id": "16919",
    "ward_name": "ASSAKIO",
    "local_government_id": "533",
    "local_government_name": "LAFIA",
    "state_id": "25",
    "state_name": "NASARAWA",
    "location": {
      "latitude": 8.5143073,
      "longitude": 8.8803925,
      "viewport": {
        "northeast": {
          "lat": 8.6618123,
          "lng": 9.0085762
        },
        "southwest": {
          "lat": 8.400403899999999,
          "lng": 8.7728514
        }
      },
      "formatted_address": "Assakio, Nigeria",
      "google_map_url": "https://maps.google.com?q=8.5143073,8.8803925",
      "google_place_id": "ChIJiyrx7xkjURARz2cxUa4XYi8"
    }
  },
  {
    "id": "333141",
    "name": "S/GIDA/KOFAR SARKI - OP",
    "registration_area_id": "16919",
    "precise_location": null,
    "abbreviation": "014",
    "units": "014",
    "delimitation": "25/08/05/014",
    "remark": "EXISTING PU",
    "ward_id": "16919",
    "ward_name": "ASSAKIO",
    "local_government_id": "533",
    "local_government_name": "LAFIA",
    "state_id": "25",
    "state_name": "NASARAWA",
    "location": {
      "latitude": 8.5143073,
      "longitude": 8.8803925,
      "viewport": {
        "northeast": {
          "lat": 8.6618123,
          "lng": 9.0085762
        },
        "southwest": {
          "lat": 8.400403899999999,
          "lng": 8.7728514
        }
      },
      "formatted_address": "Assakio, Nigeria",
      "google_map_url": "https://maps.google.com?q=8.5143073,8.8803925",
      "google_place_id": "ChIJiyrx7xkjURARz2cxUa4XYi8"
    }
  },
  {
    "id": "333142",
    "name": "SABON GIDA PRI.SCHOOL - PB",
    "registration_area_id": "16919",
    "precise_location": null,
    "abbreviation": "015",
    "units": "015",
    "delimitation": "25/08/05/015",
    "remark": "EXISTING PU",
    "ward_id": "16919",
    "ward_name": "ASSAKIO",
    "local_government_id": "533",
    "local_government_name": "LAFIA",
    "state_id": "25",
    "state_name": "NASARAWA",
    "location": {
      "latitude": 8.5357969,
      "longitude": 8.5317393,
      "viewport": {
        "northeast": {
          "lat": 8.53718217989272,
          "lng": 8.532880829892722
        },
        "southwest": {
          "lat": 8.534482520107277,
          "lng": 8.530181170107278
        }
      },
      "formatted_address": "Bukan Sidi Primary School, 950101, Lafia, Nigeria",
      "google_map_url": "https://maps.google.com?q=8.5357969,8.5317393",
      "google_place_id": "ChIJhalG8eoHURAR_CsFIq0gPQg"
    }
  },
  {
    "id": "333143",
    "name": "GIDAN NYITSE - OP",
    "registration_area_id": "16919",
    "precise_location": null,
    "abbreviation": "016",
    "units": "016",
    "delimitation": "25/08/05/016",
    "remark": "EXISTING PU",
    "ward_id": "16919",
    "ward_name": "ASSAKIO",
    "local_government_id": "533",
    "local_government_name": "LAFIA",
    "state_id": "25",
    "state_name": "NASARAWA",
    "location": {
      "latitude": 8.5357969,
      "longitude": 8.5317393,
      "viewport": {
        "northeast": {
          "lat": 8.53718217989272,
          "lng": 8.532880829892722
        },
        "southwest": {
          "lat": 8.534482520107277,
          "lng": 8.530181170107278
        }
      },
      "formatted_address": "Bukan Sidi Primary School, 950101, Lafia, Nigeria",
      "google_map_url": "https://maps.google.com?q=8.5357969,8.5317393",
      "google_place_id": "ChIJhalG8eoHURAR_CsFIq0gPQg"
    }
  },
  {
    "id": "333144",
    "name": "GIDAN CHIA - OP",
    "registration_area_id": "16919",
    "precise_location": null,
    "abbreviation": "017",
    "units": "017",
    "delimitation": "25/08/05/017",
    "remark": "EXISTING PU",
    "ward_id": "16919",
    "ward_name": "ASSAKIO",
    "local_government_id": "533",
    "local_government_name": "LAFIA",
    "state_id": "25",
    "state_name": "NASARAWA",
    "location": {
      "latitude": 8.5202961,
      "longitude": 8.522644,
      "viewport": {
        "northeast": {
          "lat": 8.521531979892723,
          "lng": 8.52398407989272
        },
        "southwest": {
          "lat": 8.518832320107279,
          "lng": 8.521284420107277
        }
      },
      "formatted_address": "GGCF+436, 950101, Lafia, Nigeria",
      "google_map_url": "https://maps.google.com?q=8.5202961,8.522644",
      "google_place_id": "ChIJ79BSMgcHURARKFj953PfoMs"
    }
  },
  {
    "id": "333145",
    "name": "AKUNI PRI.SCHOOL - PB",
    "registration_area_id": "16919",
    "precise_location": null,
    "abbreviation": "018",
    "units": "018",
    "delimitation": "25/08/05/018",
    "remark": "EXISTING PU",
    "ward_id": "16919",
    "ward_name": "ASSAKIO",
    "local_government_id": "533",
    "local_government_name": "LAFIA",
    "state_id": "25",
    "state_name": "NASARAWA",
    "location": {
      "latitude": 8.531829,
      "longitude": 8.531324999999999,
      "viewport": {
        "northeast": {
          "lat": 8.53320427989272,
          "lng": 8.53271227989272
        },
        "southwest": {
          "lat": 8.530504620107276,
          "lng": 8.530012620107277
        }
      },
      "formatted_address": "GGJJ+PGP, Unnamed Road, 950101, Lafia, Nigeria",
      "google_map_url": "https://maps.google.com?q=8.531829,8.531324999999999",
      "google_place_id": "ChIJc264Ox4HURARNd1d7mmVWOA"
    }
  },
  {
    "id": "333146",
    "name": "ASSAKIO  GARAGE",
    "registration_area_id": "16919",
    "precise_location": null,
    "abbreviation": "019",
    "units": "019",
    "delimitation": "25/08/05/019",
    "remark": "EXISTING PU",
    "ward_id": "16919",
    "ward_name": "ASSAKIO",
    "local_government_id": "533",
    "local_government_name": "LAFIA",
    "state_id": "25",
    "state_name": "NASARAWA",
    "location": {
      "latitude": 8.5143073,
      "longitude": 8.8803925,
      "viewport": {
        "northeast": {
          "lat": 8.6618123,
          "lng": 9.0085762
        },
        "southwest": {
          "lat": 8.400403899999999,
          "lng": 8.7728514
        }
      },
      "formatted_address": "Assakio, Nigeria",
      "google_map_url": "https://maps.google.com?q=8.5143073,8.8803925",
      "google_place_id": "ChIJiyrx7xkjURARz2cxUa4XYi8"
    }
  },
  {
    "id": "333147",
    "name": "LOWER BENUE",
    "registration_area_id": "16919",
    "precise_location": null,
    "abbreviation": "020",
    "units": "020",
    "delimitation": "25/08/05/020",
    "remark": "NEW PU",
    "ward_id": "16919",
    "ward_name": "ASSAKIO",
    "local_government_id": "533",
    "local_government_name": "LAFIA",
    "state_id": "25",
    "state_name": "NASARAWA",
    "location": {
      "latitude": 8.5357969,
      "longitude": 8.5317393,
      "viewport": {
        "northeast": {
          "lat": 8.53718217989272,
          "lng": 8.532880829892722
        },
        "southwest": {
          "lat": 8.534482520107277,
          "lng": 8.530181170107278
        }
      },
      "formatted_address": "Bukan Sidi Primary School, 950101, Lafia, Nigeria",
      "google_map_url": "https://maps.google.com?q=8.5357969,8.5317393",
      "google_place_id": "ChIJhalG8eoHURAR_CsFIq0gPQg"
    }
  },
  {
    "id": "333148",
    "name": "PHC SABON GIDA",
    "registration_area_id": "16919",
    "precise_location": null,
    "abbreviation": "021",
    "units": "021",
    "delimitation": "25/08/05/021",
    "remark": "NEW PU",
    "ward_id": "16919",
    "ward_name": "ASSAKIO",
    "local_government_id": "533",
    "local_government_name": "LAFIA",
    "state_id": "25",
    "state_name": "NASARAWA",
    "location": {
      "latitude": 8.5073889,
      "longitude": 8.5206082,
      "viewport": {
        "northeast": {
          "lat": 8.508744079892724,
          "lng": 8.521919479892722
        },
        "southwest": {
          "lat": 8.50604442010728,
          "lng": 8.519219820107278
        }
      },
      "formatted_address": "GG4C+X65, Makurdi - Jos Rd, 950101, Lafia, Nigeria",
      "google_map_url": "https://maps.google.com?q=8.5073889,8.5206082",
      "google_place_id": "ChIJp7cfyBsHURAR-ydN4bdXfvU"
    }
  },
  {
    "id": "333149",
    "name": "OPAMBE (II)",
    "registration_area_id": "16919",
    "precise_location": null,
    "abbreviation": "022",
    "units": "022",
    "delimitation": "25/08/05/022",
    "remark": "NEW PU",
    "ward_id": "16919",
    "ward_name": "ASSAKIO",
    "local_government_id": "533",
    "local_government_name": "LAFIA",
    "state_id": "25",
    "state_name": "NASARAWA",
    "location": {
      "latitude": 8.5143073,
      "longitude": 8.8803925,
      "viewport": {
        "northeast": {
          "lat": 8.6618123,
          "lng": 9.0085762
        },
        "southwest": {
          "lat": 8.400403899999999,
          "lng": 8.7728514
        }
      },
      "formatted_address": "Assakio, Nigeria",
      "google_map_url": "https://maps.google.com?q=8.5143073,8.8803925",
      "google_place_id": "ChIJiyrx7xkjURARz2cxUa4XYi8"
    }
  },
  {
    "id": "333150",
    "name": "OTOJI",
    "registration_area_id": "16919",
    "precise_location": null,
    "abbreviation": "023",
    "units": "023",
    "delimitation": "25/08/05/023",
    "remark": "NEW PU",
    "ward_id": "16919",
    "ward_name": "ASSAKIO",
    "local_government_id": "533",
    "local_government_name": "LAFIA",
    "state_id": "25",
    "state_name": "NASARAWA",
    "location": {
      "latitude": 8.5143073,
      "longitude": 8.8803925,
      "viewport": {
        "northeast": {
          "lat": 8.6618123,
          "lng": 9.0085762
        },
        "southwest": {
          "lat": 8.400403899999999,
          "lng": 8.7728514
        }
      },
      "formatted_address": "Assakio, Nigeria",
      "google_map_url": "https://maps.google.com?q=8.5143073,8.8803925",
      "google_place_id": "ChIJiyrx7xkjURARz2cxUa4XYi8"
    }
  },
  {
    "id": "333151",
    "name": "OPAMBE (I)",
    "registration_area_id": "16919",
    "precise_location": null,
    "abbreviation": "024",
    "units": "024",
    "delimitation": "25/08/05/024",
    "remark": "NEW PU",
    "ward_id": "16919",
    "ward_name": "ASSAKIO",
    "local_government_id": "533",
    "local_government_name": "LAFIA",
    "state_id": "25",
    "state_name": "NASARAWA",
    "location": {
      "latitude": 8.5143073,
      "longitude": 8.8803925,
      "viewport": {
        "northeast": {
          "lat": 8.6618123,
          "lng": 9.0085762
        },
        "southwest": {
          "lat": 8.400403899999999,
          "lng": 8.7728514
        }
      },
      "formatted_address": "Assakio, Nigeria",
      "google_map_url": "https://maps.google.com?q=8.5143073,8.8803925",
      "google_place_id": "ChIJiyrx7xkjURARz2cxUa4XYi8"
    }
  },
  {
    "id": "333152",
    "name": "OGYEBE",
    "registration_area_id": "16919",
    "precise_location": null,
    "abbreviation": "025",
    "units": "025",
    "delimitation": "25/08/05/025",
    "remark": "NEW PU",
    "ward_id": "16919",
    "ward_name": "ASSAKIO",
    "local_government_id": "533",
    "local_government_name": "LAFIA",
    "state_id": "25",
    "state_name": "NASARAWA",
    "location": {
      "latitude": 8.5143073,
      "longitude": 8.8803925,
      "viewport": {
        "northeast": {
          "lat": 8.6618123,
          "lng": 9.0085762
        },
        "southwest": {
          "lat": 8.400403899999999,
          "lng": 8.7728514
        }
      },
      "formatted_address": "Assakio, Nigeria",
      "google_map_url": "https://maps.google.com?q=8.5143073,8.8803925",
      "google_place_id": "ChIJiyrx7xkjURARz2cxUa4XYi8"
    }
  },
  {
    "id": "333153",
    "name": "ABO-MIRI",
    "registration_area_id": "16919",
    "precise_location": null,
    "abbreviation": "026",
    "units": "026",
    "delimitation": "25/08/05/026",
    "remark": "NEW PU",
    "ward_id": "16919",
    "ward_name": "ASSAKIO",
    "local_government_id": "533",
    "local_government_name": "LAFIA",
    "state_id": "25",
    "state_name": "NASARAWA",
    "location": {
      "latitude": 8.5143073,
      "longitude": 8.8803925,
      "viewport": {
        "northeast": {
          "lat": 8.6618123,
          "lng": 9.0085762
        },
        "southwest": {
          "lat": 8.400403899999999,
          "lng": 8.7728514
        }
      },
      "formatted_address": "Assakio, Nigeria",
      "google_map_url": "https://maps.google.com?q=8.5143073,8.8803925",
      "google_place_id": "ChIJiyrx7xkjURARz2cxUa4XYi8"
    }
  },
  {
    "id": "333154",
    "name": "OTOKOLO",
    "registration_area_id": "16919",
    "precise_location": null,
    "abbreviation": "027",
    "units": "027",
    "delimitation": "25/08/05/027",
    "remark": "NEW PU",
    "ward_id": "16919",
    "ward_name": "ASSAKIO",
    "local_government_id": "533",
    "local_government_name": "LAFIA",
    "state_id": "25",
    "state_name": "NASARAWA",
    "location": {
      "latitude": 8.5143073,
      "longitude": 8.8803925,
      "viewport": {
        "northeast": {
          "lat": 8.6618123,
          "lng": 9.0085762
        },
        "southwest": {
          "lat": 8.400403899999999,
          "lng": 8.7728514
        }
      },
      "formatted_address": "Assakio, Nigeria",
      "google_map_url": "https://maps.google.com?q=8.5143073,8.8803925",
      "google_place_id": "ChIJiyrx7xkjURARz2cxUa4XYi8"
    }
  },
  {
    "id": "333155",
    "name": "ODADU",
    "registration_area_id": "16919",
    "precise_location": null,
    "abbreviation": "028",
    "units": "028",
    "delimitation": "25/08/05/028",
    "remark": "NEW PU",
    "ward_id": "16919",
    "ward_name": "ASSAKIO",
    "local_government_id": "533",
    "local_government_name": "LAFIA",
    "state_id": "25",
    "state_name": "NASARAWA",
    "location": {
      "latitude": 8.5143073,
      "longitude": 8.8803925,
      "viewport": {
        "northeast": {
          "lat": 8.6618123,
          "lng": 9.0085762
        },
        "southwest": {
          "lat": 8.400403899999999,
          "lng": 8.7728514
        }
      },
      "formatted_address": "Assakio, Nigeria",
      "google_map_url": "https://maps.google.com?q=8.5143073,8.8803925",
      "google_place_id": "ChIJiyrx7xkjURARz2cxUa4XYi8"
    }
  },
  {
    "id": "333156",
    "name": "OKPE",
    "registration_area_id": "16919",
    "precise_location": null,
    "abbreviation": "029",
    "units": "029",
    "delimitation": "25/08/05/029",
    "remark": "NEW PU",
    "ward_id": "16919",
    "ward_name": "ASSAKIO",
    "local_government_id": "533",
    "local_government_name": "LAFIA",
    "state_id": "25",
    "state_name": "NASARAWA",
    "location": {
      "latitude": 8.5143073,
      "longitude": 8.8803925,
      "viewport": {
        "northeast": {
          "lat": 8.6618123,
          "lng": 9.0085762
        },
        "southwest": {
          "lat": 8.400403899999999,
          "lng": 8.7728514
        }
      },
      "formatted_address": "Assakio, Nigeria",
      "google_map_url": "https://maps.google.com?q=8.5143073,8.8803925",
      "google_place_id": "ChIJiyrx7xkjURARz2cxUa4XYi8"
    }
  },
  {
    "id": "333157",
    "name": "AKAMA",
    "registration_area_id": "16919",
    "precise_location": null,
    "abbreviation": "030",
    "units": "030",
    "delimitation": "25/08/05/030",
    "remark": "NEW PU",
    "ward_id": "16919",
    "ward_name": "ASSAKIO",
    "local_government_id": "533",
    "local_government_name": "LAFIA",
    "state_id": "25",
    "state_name": "NASARAWA",
    "location": {
      "latitude": 8.5143073,
      "longitude": 8.8803925,
      "viewport": {
        "northeast": {
          "lat": 8.6618123,
          "lng": 9.0085762
        },
        "southwest": {
          "lat": 8.400403899999999,
          "lng": 8.7728514
        }
      },
      "formatted_address": "Assakio, Nigeria",
      "google_map_url": "https://maps.google.com?q=8.5143073,8.8803925",
      "google_place_id": "ChIJiyrx7xkjURARz2cxUa4XYi8"
    }
  },
  {
    "id": "333158",
    "name": "AGYE",
    "registration_area_id": "16919",
    "precise_location": null,
    "abbreviation": "031",
    "units": "031",
    "delimitation": "25/08/05/031",
    "remark": "NEW PU",
    "ward_id": "16919",
    "ward_name": "ASSAKIO",
    "local_government_id": "533",
    "local_government_name": "LAFIA",
    "state_id": "25",
    "state_name": "NASARAWA",
    "location": {
      "latitude": 8.5143073,
      "longitude": 8.8803925,
      "viewport": {
        "northeast": {
          "lat": 8.6618123,
          "lng": 9.0085762
        },
        "southwest": {
          "lat": 8.400403899999999,
          "lng": 8.7728514
        }
      },
      "formatted_address": "Assakio, Nigeria",
      "google_map_url": "https://maps.google.com?q=8.5143073,8.8803925",
      "google_place_id": "ChIJiyrx7xkjURARz2cxUa4XYi8"
    }
  },
  {
    "id": "333159",
    "name": "OWUNO",
    "registration_area_id": "16919",
    "precise_location": null,
    "abbreviation": "032",
    "units": "032",
    "delimitation": "25/08/05/032",
    "remark": "NEW PU",
    "ward_id": "16919",
    "ward_name": "ASSAKIO",
    "local_government_id": "533",
    "local_government_name": "LAFIA",
    "state_id": "25",
    "state_name": "NASARAWA",
    "location": {
      "latitude": 8.5143073,
      "longitude": 8.8803925,
      "viewport": {
        "northeast": {
          "lat": 8.6618123,
          "lng": 9.0085762
        },
        "southwest": {
          "lat": 8.400403899999999,
          "lng": 8.7728514
        }
      },
      "formatted_address": "Assakio, Nigeria",
      "google_map_url": "https://maps.google.com?q=8.5143073,8.8803925",
      "google_place_id": "ChIJiyrx7xkjURARz2cxUa4XYi8"
    }
  },
  {
    "id": "333160",
    "name": "ONDA",
    "registration_area_id": "16919",
    "precise_location": null,
    "abbreviation": "033",
    "units": "033",
    "delimitation": "25/08/05/033",
    "remark": "NEW PU",
    "ward_id": "16919",
    "ward_name": "ASSAKIO",
    "local_government_id": "533",
    "local_government_name": "LAFIA",
    "state_id": "25",
    "state_name": "NASARAWA",
    "location": {
      "latitude": 8.5143073,
      "longitude": 8.8803925,
      "viewport": {
        "northeast": {
          "lat": 8.6618123,
          "lng": 9.0085762
        },
        "southwest": {
          "lat": 8.400403899999999,
          "lng": 8.7728514
        }
      },
      "formatted_address": "Assakio, Nigeria",
      "google_map_url": "https://maps.google.com?q=8.5143073,8.8803925",
      "google_place_id": "ChIJiyrx7xkjURARz2cxUa4XYi8"
    }
  }
]