[
  {
    "id": "25977",
    "name": "UKWONYO WESLEY PRI. SCH. PRI. SCH.",
    "registration_area_id": "1391",
    "precise_location": null,
    "abbreviation": "001",
    "units": "001",
    "delimitation": "07/01/09/001",
    "remark": "EXISTING PU",
    "ward_id": "1391",
    "ward_name": "UKWONYO",
    "local_government_id": "119",
    "local_government_name": "ADO",
    "state_id": "7",
    "state_name": "BENUE",
    "location": {
      "latitude": 6.956779399999999,
      "longitude": 8.032445300000001,
      "viewport": {
        "northeast": {
          "lat": 6.957976679892721,
          "lng": 8.033871929892719
        },
        "southwest": {
          "lat": 6.955277020107277,
          "lng": 8.031172270107275
        }
      },
      "formatted_address": "6FRCX24J+PX8, utonokon, 973110, Utonkon, Nigeria",
      "google_map_url": "https://maps.google.com?q=6.956779399999999,8.032445300000001",
      "google_place_id": "ChIJkz5_Wk0nWxAR43sYSUxZoYM"
    }
  },
  {
    "id": "25978",
    "name": "COUNCIL HALL I, BY COUNCIL HALL",
    "registration_area_id": "1391",
    "precise_location": null,
    "abbreviation": "002",
    "units": "002",
    "delimitation": "07/01/09/002",
    "remark": "EXISTING PU",
    "ward_id": "1391",
    "ward_name": "UKWONYO",
    "local_government_id": "119",
    "local_government_name": "ADO",
    "state_id": "7",
    "state_name": "BENUE",
    "location": {
      "latitude": 7.7142081,
      "longitude": 8.5229337,
      "viewport": {
        "northeast": {
          "lat": 7.71528307989272,
          "lng": 8.52431132989272
        },
        "southwest": {
          "lat": 7.712583420107276,
          "lng": 8.521611670107276
        }
      },
      "formatted_address": "PG7F+M5M, Abu Obe Road, Makurdi, Nigeria",
      "google_map_url": "https://maps.google.com?q=7.7142081,8.5229337",
      "google_place_id": "ChIJ7UB_NjKAUBARjmsL_YDITG4"
    }
  },
  {
    "id": "25979",
    "name": "ONWEGWE, PLAY GROUND",
    "registration_area_id": "1391",
    "precise_location": null,
    "abbreviation": "003",
    "units": "003",
    "delimitation": "07/01/09/003",
    "remark": "EXISTING PU",
    "ward_id": "1391",
    "ward_name": "UKWONYO",
    "local_government_id": "119",
    "local_government_name": "ADO",
    "state_id": "7",
    "state_name": "BENUE",
    "location": null
  },
  {
    "id": "25980",
    "name": "EFELO, PLAY GROUND",
    "registration_area_id": "1391",
    "precise_location": null,
    "abbreviation": "004",
    "units": "004",
    "delimitation": "07/01/09/004",
    "remark": "EXISTING PU",
    "ward_id": "1391",
    "ward_name": "UKWONYO",
    "local_government_id": "119",
    "local_government_name": "ADO",
    "state_id": "7",
    "state_name": "BENUE",
    "location": null
  },
  {
    "id": "25981",
    "name": "JAGWUE CLINIC, BY CLINIC",
    "registration_area_id": "1391",
    "precise_location": null,
    "abbreviation": "005",
    "units": "005",
    "delimitation": "07/01/09/005",
    "remark": "EXISTING PU",
    "ward_id": "1391",
    "ward_name": "UKWONYO",
    "local_government_id": "119",
    "local_government_name": "ADO",
    "state_id": "7",
    "state_name": "BENUE",
    "location": {
      "latitude": 7.8371618,
      "longitude": 8.5210029,
      "viewport": {
        "northeast": {
          "lat": 7.838726879892722,
          "lng": 8.521822229892722
        },
        "southwest": {
          "lat": 7.836027220107278,
          "lng": 8.519122570107278
        }
      },
      "formatted_address": "RGPC+V99, 970101, Kyaan, Nigeria",
      "google_map_url": "https://maps.google.com?q=7.8371618,8.5210029",
      "google_place_id": "ChIJ54IP9K6HUBARTrSyQ09m_R8"
    }
  },
  {
    "id": "25982",
    "name": "RETOREKOR, PLAY GROUND",
    "registration_area_id": "1391",
    "precise_location": null,
    "abbreviation": "006",
    "units": "006",
    "delimitation": "07/01/09/006",
    "remark": "EXISTING PU",
    "ward_id": "1391",
    "ward_name": "UKWONYO",
    "local_government_id": "119",
    "local_government_name": "ADO",
    "state_id": "7",
    "state_name": "BENUE",
    "location": null
  },
  {
    "id": "25983",
    "name": "OJIJE UKWONYO, PLAY GROUND",
    "registration_area_id": "1391",
    "precise_location": null,
    "abbreviation": "007",
    "units": "007",
    "delimitation": "07/01/09/007",
    "remark": "EXISTING PU",
    "ward_id": "1391",
    "ward_name": "UKWONYO",
    "local_government_id": "119",
    "local_government_name": "ADO",
    "state_id": "7",
    "state_name": "BENUE",
    "location": null
  },
  {
    "id": "25984",
    "name": "ST. PAUL SCH., UTONKON TOWN",
    "registration_area_id": "1391",
    "precise_location": null,
    "abbreviation": "008",
    "units": "008",
    "delimitation": "07/01/09/008",
    "remark": "EXISTING PU",
    "ward_id": "1391",
    "ward_name": "UKWONYO",
    "local_government_id": "119",
    "local_government_name": "ADO",
    "state_id": "7",
    "state_name": "BENUE",
    "location": {
      "latitude": 43.4253911,
      "longitude": -80.5162734,
      "viewport": {
        "northeast": {
          "lat": 43.42688567989272,
          "lng": -80.51469992010728
        },
        "southwest": {
          "lat": 43.42418602010728,
          "lng": -80.51739957989273
        }
      },
      "formatted_address": "45 Birchcliff Ave, Kitchener, ON N2M 4V7, Canada",
      "google_map_url": "https://maps.google.com?q=43.4253911,-80.5162734",
      "google_place_id": "ChIJw7MPamTzK4gRguNu5QdvYR4"
    }
  },
  {
    "id": "25985",
    "name": "OKONOJI/AJODE PLAY GROUND",
    "registration_area_id": "1391",
    "precise_location": null,
    "abbreviation": "009",
    "units": "009",
    "delimitation": "07/01/09/009",
    "remark": "EXISTING PU",
    "ward_id": "1391",
    "ward_name": "UKWONYO",
    "local_government_id": "119",
    "local_government_name": "ADO",
    "state_id": "7",
    "state_name": "BENUE",
    "location": {
      "latitude": 43.3813695,
      "longitude": -95.128075,
      "viewport": {
        "northeast": {
          "lat": 43.38267947989272,
          "lng": -95.12692827010727
        },
        "southwest": {
          "lat": 43.37997982010727,
          "lng": -95.12962792989272
        }
      },
      "formatted_address": "Okoboji, IA 51355, United States",
      "google_map_url": "https://maps.google.com?q=43.3813695,-95.128075",
      "google_place_id": "ChIJ2T-vWim1jIcRo1yj8nmW4Ik"
    }
  },
  {
    "id": "25986",
    "name": "ST. PAUL SCH., HAUSA/IDOMA I",
    "registration_area_id": "1391",
    "precise_location": null,
    "abbreviation": "010",
    "units": "010",
    "delimitation": "07/01/09/010",
    "remark": "EXISTING PU",
    "ward_id": "1391",
    "ward_name": "UKWONYO",
    "local_government_id": "119",
    "local_government_name": "ADO",
    "state_id": "7",
    "state_name": "BENUE",
    "location": {
      "latitude": 7.209091399999999,
      "longitude": 8.125237199999999,
      "viewport": {
        "northeast": {
          "lat": 7.210539479892722,
          "lng": 8.126438429892723
        },
        "southwest": {
          "lat": 7.207839820107278,
          "lng": 8.123738770107279
        }
      },
      "formatted_address": "645G+J3Q, Ahmadu Bello Way, 972261, Otukpo, Nigeria",
      "google_map_url": "https://maps.google.com?q=7.209091399999999,8.125237199999999",
      "google_place_id": "ChIJGUsTgqTCWhARsKis4YE-3v8"
    }
  },
  {
    "id": "25987",
    "name": "ST. PAUL SCH., HAUSA/IDOMA II",
    "registration_area_id": "1391",
    "precise_location": null,
    "abbreviation": "011",
    "units": "011",
    "delimitation": "07/01/09/011",
    "remark": "EXISTING PU",
    "ward_id": "1391",
    "ward_name": "UKWONYO",
    "local_government_id": "119",
    "local_government_name": "ADO",
    "state_id": "7",
    "state_name": "BENUE",
    "location": null
  },
  {
    "id": "25988",
    "name": "UDEBO, UKWONYO PRI. SCH.",
    "registration_area_id": "1391",
    "precise_location": null,
    "abbreviation": "012",
    "units": "012",
    "delimitation": "07/01/09/012",
    "remark": "EXISTING PU",
    "ward_id": "1391",
    "ward_name": "UKWONYO",
    "local_government_id": "119",
    "local_government_name": "ADO",
    "state_id": "7",
    "state_name": "BENUE",
    "location": {
      "latitude": 6.940581,
      "longitude": 8.058074999999999,
      "viewport": {
        "northeast": {
          "lat": 6.94205102989272,
          "lng": 8.059412329892723
        },
        "southwest": {
          "lat": 6.939351370107277,
          "lng": 8.056712670107279
        }
      },
      "formatted_address": "6FRCW3R5+66P, Udebo, 973110, Utonkon, Nigeria",
      "google_map_url": "https://maps.google.com?q=6.940581,8.058074999999999",
      "google_place_id": "ChIJEdTUeXEhWxARkpLw0pa_wX0"
    }
  },
  {
    "id": "25989",
    "name": "EVE, MKT. SQ.",
    "registration_area_id": "1391",
    "precise_location": null,
    "abbreviation": "013",
    "units": "013",
    "delimitation": "07/01/09/013",
    "remark": "EXISTING PU",
    "ward_id": "1391",
    "ward_name": "UKWONYO",
    "local_government_id": "119",
    "local_government_name": "ADO",
    "state_id": "7",
    "state_name": "BENUE",
    "location": {
      "latitude": 40.706877,
      "longitude": -74.0112654,
      "viewport": {
        "northeast": {
          "lat": 40.70861642989272,
          "lng": -74.00939112010727
        },
        "southwest": {
          "lat": 40.70591677010727,
          "lng": -74.01209077989272
        }
      },
      "formatted_address": "11 Wall St, New York, NY 10005, United States",
      "google_map_url": "https://maps.google.com?q=40.706877,-74.0112654",
      "google_place_id": "ChIJodiAGRZawokRHXCBqdWXV54"
    }
  },
  {
    "id": "25990",
    "name": "UKWONYO RICE MILL, BY RICE MILL SQ.",
    "registration_area_id": "1391",
    "precise_location": null,
    "abbreviation": "014",
    "units": "014",
    "delimitation": "07/01/09/014",
    "remark": "EXISTING PU",
    "ward_id": "1391",
    "ward_name": "UKWONYO",
    "local_government_id": "119",
    "local_government_name": "ADO",
    "state_id": "7",
    "state_name": "BENUE",
    "location": {
      "latitude": 7.5876959,
      "longitude": 8.2144316,
      "viewport": {
        "northeast": {
          "lat": 7.58893837989272,
          "lng": 8.215834279892723
        },
        "southwest": {
          "lat": 7.586238720107276,
          "lng": 8.21313462010728
        }
      },
      "formatted_address": "Rice mill No44, Naka, Nigeria",
      "google_map_url": "https://maps.google.com?q=7.5876959,8.2144316",
      "google_place_id": "ChIJ_ydSUj-ZWhARULVbRANy1vM"
    }
  },
  {
    "id": "25991",
    "name": "EVENING MKT., MKT. SQ.",
    "registration_area_id": "1391",
    "precise_location": null,
    "abbreviation": "015",
    "units": "015",
    "delimitation": "07/01/09/015",
    "remark": "EXISTING PU",
    "ward_id": "1391",
    "ward_name": "UKWONYO",
    "local_government_id": "119",
    "local_government_name": "ADO",
    "state_id": "7",
    "state_name": "BENUE",
    "location": {
      "latitude": 7.5932808,
      "longitude": 8.6347507,
      "viewport": {
        "northeast": {
          "lat": 7.594624329892722,
          "lng": 8.636111279892722
        },
        "southwest": {
          "lat": 7.591924670107278,
          "lng": 8.633411620107278
        }
      },
      "formatted_address": "Makurdi, Old Otukpo Road, Ikpayongo, Nigeria",
      "google_map_url": "https://maps.google.com?q=7.5932808,8.6347507",
      "google_place_id": "ChIJJ5AdDhB7WhARZN9U7lPvHQw"
    }
  },
  {
    "id": "25992",
    "name": "GOVT. COLLEGE UTONKON, GOVT COLL.",
    "registration_area_id": "1391",
    "precise_location": null,
    "abbreviation": "016",
    "units": "016",
    "delimitation": "07/01/09/016",
    "remark": "EXISTING PU",
    "ward_id": "1391",
    "ward_name": "UKWONYO",
    "local_government_id": "119",
    "local_government_name": "ADO",
    "state_id": "7",
    "state_name": "BENUE",
    "location": {
      "latitude": 7.152967299999999,
      "longitude": 8.1027516,
      "viewport": {
        "northeast": {
          "lat": 7.154317129892721,
          "lng": 8.10410142989272
        },
        "southwest": {
          "lat": 7.151617470107277,
          "lng": 8.101401770107277
        }
      },
      "formatted_address": "PMB 2213 Utonkon Road, Otukpo, Nigeria",
      "google_map_url": "https://maps.google.com?q=7.152967299999999,8.1027516",
      "google_place_id": "ChIJW6Zo4EyAUBARQqnxWkdKXH4"
    }
  },
  {
    "id": "25993",
    "name": "AGADAGBA, PLAY GROUND",
    "registration_area_id": "1391",
    "precise_location": null,
    "abbreviation": "017",
    "units": "017",
    "delimitation": "07/01/09/017",
    "remark": "EXISTING PU",
    "ward_id": "1391",
    "ward_name": "UKWONYO",
    "local_government_id": "119",
    "local_government_name": "ADO",
    "state_id": "7",
    "state_name": "BENUE",
    "location": {
      "latitude": 6.8041671,
      "longitude": 7.9729094,
      "viewport": {
        "northeast": {
          "lat": 6.805516929892722,
          "lng": 7.974259229892722
        },
        "southwest": {
          "lat": 6.802817270107278,
          "lng": 7.971559570107278
        }
      },
      "formatted_address": "Ogaba'S Compound Adaka Igumale Ado Lga Benue Sate, Nigeria",
      "google_map_url": "https://maps.google.com?q=6.8041671,7.9729094",
      "google_place_id": "ChIJzbGpQPY7WxAR_mtb9j-QRig"
    }
  },
  {
    "id": "25994",
    "name": "IKPEYI, PLAY GROUND",
    "registration_area_id": "1391",
    "precise_location": null,
    "abbreviation": "018",
    "units": "018",
    "delimitation": "07/01/09/018",
    "remark": "EXISTING PU",
    "ward_id": "1391",
    "ward_name": "UKWONYO",
    "local_government_id": "119",
    "local_government_name": "ADO",
    "state_id": "7",
    "state_name": "BENUE",
    "location": null
  },
  {
    "id": "25995",
    "name": "COUNCIL HALL II BY COUNCIL HALL",
    "registration_area_id": "1391",
    "precise_location": null,
    "abbreviation": "019",
    "units": "019",
    "delimitation": "07/01/09/019",
    "remark": "EXISTING PU",
    "ward_id": "1391",
    "ward_name": "UKWONYO",
    "local_government_id": "119",
    "local_government_name": "ADO",
    "state_id": "7",
    "state_name": "BENUE",
    "location": {
      "latitude": 5.1165573,
      "longitude": 7.3744862,
      "viewport": {
        "northeast": {
          "lat": 5.117811329892723,
          "lng": 7.375556529892723
        },
        "southwest": {
          "lat": 5.115111670107279,
          "lng": 7.372856870107279
        }
      },
      "formatted_address": "1 Industry Rd, Aba 450211, Aba, Nigeria",
      "google_map_url": "https://maps.google.com?q=5.1165573,7.3744862",
      "google_place_id": "ChIJ_4n1Sj-ZQhARklkxlx9W1Oc"
    }
  },
  {
    "id": "25996",
    "name": "NDEKMA PLAY GROUND",
    "registration_area_id": "1391",
    "precise_location": null,
    "abbreviation": "020",
    "units": "020",
    "delimitation": "07/01/09/020",
    "remark": "NEW PU",
    "ward_id": "1391",
    "ward_name": "UKWONYO",
    "local_government_id": "119",
    "local_government_name": "ADO",
    "state_id": "7",
    "state_name": "BENUE",
    "location": {
      "latitude": 7.7151777,
      "longitude": 8.5032863,
      "viewport": {
        "northeast": {
          "lat": 7.716579629892723,
          "lng": 8.504661129892721
        },
        "southwest": {
          "lat": 7.713879970107279,
          "lng": 8.501961470107277
        }
      },
      "formatted_address": "Margaret Ichen Street, Township 970101, Makurdi, Nigeria",
      "google_map_url": "https://maps.google.com?q=7.7151777,8.5032863",
      "google_place_id": "ChIJob-ofrKBUBAReRno3Ox3FT0"
    }
  }
]