[
  {
    "id": "91113",
    "name": "BABBAKA",
    "registration_area_id": "4655",
    "precise_location": null,
    "abbreviation": "001",
    "units": "001",
    "delimitation": "19/29/05/001",
    "remark": "EXISTING PU",
    "ward_id": "4655",
    "ward_name": "KOGUNA",
    "local_government_id": "398",
    "local_government_name": "MAKODA",
    "state_id": "19",
    "state_name": "KANO",
    "location": {
      "latitude": 12.3801316,
      "longitude": 8.458172099999999,
      "viewport": {
        "northeast": {
          "lat": 12.38149382989272,
          "lng": 8.459563479892722
        },
        "southwest": {
          "lat": 12.37879417010728,
          "lng": 8.456863820107278
        }
      },
      "formatted_address": "L.G.A, Shop No.2 Ubale House Koguna, Makoda Kano NG, 702105, Makoda, Nigeria",
      "google_map_url": "https://maps.google.com?q=12.3801316,8.458172099999999",
      "google_place_id": "ChIJSVpK7OxfrhERFBWq7914M_4"
    }
  },
  {
    "id": "91114",
    "name": "CHIDARI I",
    "registration_area_id": "4655",
    "precise_location": null,
    "abbreviation": "002",
    "units": "002",
    "delimitation": "19/29/05/002",
    "remark": "EXISTING PU",
    "ward_id": "4655",
    "ward_name": "KOGUNA",
    "local_government_id": "398",
    "local_government_name": "MAKODA",
    "state_id": "19",
    "state_name": "KANO",
    "location": {
      "latitude": 12.4187,
      "longitude": 8.4324999,
      "viewport": {
        "northeast": {
          "lat": 12.42007537989272,
          "lng": 8.43384637989272
        },
        "southwest": {
          "lat": 12.41737572010728,
          "lng": 8.431146720107277
        }
      },
      "formatted_address": "CC9J+FXQ, 702105, Kano, Nigeria",
      "google_map_url": "https://maps.google.com?q=12.4187,8.4324999",
      "google_place_id": "ChIJ-ZSMUyJZrhERGQfLzxj78Bw"
    }
  },
  {
    "id": "91115",
    "name": "CHIDARI II",
    "registration_area_id": "4655",
    "precise_location": null,
    "abbreviation": "003",
    "units": "003",
    "delimitation": "19/29/05/003",
    "remark": "EXISTING PU",
    "ward_id": "4655",
    "ward_name": "KOGUNA",
    "local_government_id": "398",
    "local_government_name": "MAKODA",
    "state_id": "19",
    "state_name": "KANO",
    "location": {
      "latitude": 12.4187,
      "longitude": 8.4324999,
      "viewport": {
        "northeast": {
          "lat": 12.42007537989272,
          "lng": 8.43384637989272
        },
        "southwest": {
          "lat": 12.41737572010728,
          "lng": 8.431146720107277
        }
      },
      "formatted_address": "CC9J+FXQ, 702105, Kano, Nigeria",
      "google_map_url": "https://maps.google.com?q=12.4187,8.4324999",
      "google_place_id": "ChIJ-ZSMUyJZrhERGQfLzxj78Bw"
    }
  },
  {
    "id": "91116",
    "name": "CHILAWA",
    "registration_area_id": "4655",
    "precise_location": null,
    "abbreviation": "004",
    "units": "004",
    "delimitation": "19/29/05/004",
    "remark": "EXISTING PU",
    "ward_id": "4655",
    "ward_name": "KOGUNA",
    "local_government_id": "398",
    "local_government_name": "MAKODA",
    "state_id": "19",
    "state_name": "KANO",
    "location": {
      "latitude": 12.4187,
      "longitude": 8.4324999,
      "viewport": {
        "northeast": {
          "lat": 12.42007537989272,
          "lng": 8.43384637989272
        },
        "southwest": {
          "lat": 12.41737572010728,
          "lng": 8.431146720107277
        }
      },
      "formatted_address": "CC9J+FXQ, 702105, Kano, Nigeria",
      "google_map_url": "https://maps.google.com?q=12.4187,8.4324999",
      "google_place_id": "ChIJ-ZSMUyJZrhERGQfLzxj78Bw"
    }
  },
  {
    "id": "91117",
    "name": "KOGUNA GARI I",
    "registration_area_id": "4655",
    "precise_location": null,
    "abbreviation": "005",
    "units": "005",
    "delimitation": "19/29/05/005",
    "remark": "EXISTING PU",
    "ward_id": "4655",
    "ward_name": "KOGUNA",
    "local_government_id": "398",
    "local_government_name": "MAKODA",
    "state_id": "19",
    "state_name": "KANO",
    "location": {
      "latitude": 12.386613,
      "longitude": 8.4513272,
      "viewport": {
        "northeast": {
          "lat": 12.4173944,
          "lng": 8.4906467
        },
        "southwest": {
          "lat": 12.3552812,
          "lng": 8.4015246
        }
      },
      "formatted_address": "Koguna, 702105, Nigeria",
      "google_map_url": "https://maps.google.com?q=12.386613,8.4513272",
      "google_place_id": "ChIJU20__CVfrhER9o-Fzaych2s"
    }
  },
  {
    "id": "91118",
    "name": "KOGUNA GARI II",
    "registration_area_id": "4655",
    "precise_location": null,
    "abbreviation": "006",
    "units": "006",
    "delimitation": "19/29/05/006",
    "remark": "EXISTING PU",
    "ward_id": "4655",
    "ward_name": "KOGUNA",
    "local_government_id": "398",
    "local_government_name": "MAKODA",
    "state_id": "19",
    "state_name": "KANO",
    "location": {
      "latitude": 12.386613,
      "longitude": 8.4513272,
      "viewport": {
        "northeast": {
          "lat": 12.4173944,
          "lng": 8.4906467
        },
        "southwest": {
          "lat": 12.3552812,
          "lng": 8.4015246
        }
      },
      "formatted_address": "Koguna, 702105, Nigeria",
      "google_map_url": "https://maps.google.com?q=12.386613,8.4513272",
      "google_place_id": "ChIJU20__CVfrhER9o-Fzaych2s"
    }
  },
  {
    "id": "91119",
    "name": "KUNKURAI I",
    "registration_area_id": "4655",
    "precise_location": null,
    "abbreviation": "007",
    "units": "007",
    "delimitation": "19/29/05/007",
    "remark": "EXISTING PU",
    "ward_id": "4655",
    "ward_name": "KOGUNA",
    "local_government_id": "398",
    "local_government_name": "MAKODA",
    "state_id": "19",
    "state_name": "KANO",
    "location": {
      "latitude": 12.386613,
      "longitude": 8.4513272,
      "viewport": {
        "northeast": {
          "lat": 12.4173944,
          "lng": 8.4906467
        },
        "southwest": {
          "lat": 12.3552812,
          "lng": 8.4015246
        }
      },
      "formatted_address": "Koguna, 702105, Nigeria",
      "google_map_url": "https://maps.google.com?q=12.386613,8.4513272",
      "google_place_id": "ChIJU20__CVfrhER9o-Fzaych2s"
    }
  },
  {
    "id": "91120",
    "name": "KUNKURAI II",
    "registration_area_id": "4655",
    "precise_location": null,
    "abbreviation": "008",
    "units": "008",
    "delimitation": "19/29/05/008",
    "remark": "EXISTING PU",
    "ward_id": "4655",
    "ward_name": "KOGUNA",
    "local_government_id": "398",
    "local_government_name": "MAKODA",
    "state_id": "19",
    "state_name": "KANO",
    "location": {
      "latitude": 12.386613,
      "longitude": 8.4513272,
      "viewport": {
        "northeast": {
          "lat": 12.4173944,
          "lng": 8.4906467
        },
        "southwest": {
          "lat": 12.3552812,
          "lng": 8.4015246
        }
      },
      "formatted_address": "Koguna, 702105, Nigeria",
      "google_map_url": "https://maps.google.com?q=12.386613,8.4513272",
      "google_place_id": "ChIJU20__CVfrhER9o-Fzaych2s"
    }
  },
  {
    "id": "91121",
    "name": "SABON RUWA",
    "registration_area_id": "4655",
    "precise_location": null,
    "abbreviation": "009",
    "units": "009",
    "delimitation": "19/29/05/009",
    "remark": "EXISTING PU",
    "ward_id": "4655",
    "ward_name": "KOGUNA",
    "local_government_id": "398",
    "local_government_name": "MAKODA",
    "state_id": "19",
    "state_name": "KANO",
    "location": {
      "latitude": 12.3714647,
      "longitude": 8.436244,
      "viewport": {
        "northeast": {
          "lat": 12.3821469,
          "lng": 8.450491000000001
        },
        "southwest": {
          "lat": 12.363258,
          "lng": 8.426601999999999
        }
      },
      "formatted_address": "702105, Sabon Ruwa, Nigeria",
      "google_map_url": "https://maps.google.com?q=12.3714647,8.436244",
      "google_place_id": "ChIJr38Us-FerhERYPEsw3KWIts"
    }
  },
  {
    "id": "91122",
    "name": "UNGUWAR BATURE",
    "registration_area_id": "4655",
    "precise_location": null,
    "abbreviation": "010",
    "units": "010",
    "delimitation": "19/29/05/010",
    "remark": "EXISTING PU",
    "ward_id": "4655",
    "ward_name": "KOGUNA",
    "local_government_id": "398",
    "local_government_name": "MAKODA",
    "state_id": "19",
    "state_name": "KANO",
    "location": {
      "latitude": 12.4187,
      "longitude": 8.4324999,
      "viewport": {
        "northeast": {
          "lat": 12.42007537989272,
          "lng": 8.43384637989272
        },
        "southwest": {
          "lat": 12.41737572010728,
          "lng": 8.431146720107277
        }
      },
      "formatted_address": "CC9J+FXQ, 702105, Kano, Nigeria",
      "google_map_url": "https://maps.google.com?q=12.4187,8.4324999",
      "google_place_id": "ChIJ-ZSMUyJZrhERGQfLzxj78Bw"
    }
  },
  {
    "id": "91123",
    "name": "WARBA I",
    "registration_area_id": "4655",
    "precise_location": null,
    "abbreviation": "011",
    "units": "011",
    "delimitation": "19/29/05/011",
    "remark": "EXISTING PU",
    "ward_id": "4655",
    "ward_name": "KOGUNA",
    "local_government_id": "398",
    "local_government_name": "MAKODA",
    "state_id": "19",
    "state_name": "KANO",
    "location": {
      "latitude": 12.4187,
      "longitude": 8.4324999,
      "viewport": {
        "northeast": {
          "lat": 12.42007537989272,
          "lng": 8.43384637989272
        },
        "southwest": {
          "lat": 12.41737572010728,
          "lng": 8.431146720107277
        }
      },
      "formatted_address": "CC9J+FXQ, 702105, Kano, Nigeria",
      "google_map_url": "https://maps.google.com?q=12.4187,8.4324999",
      "google_place_id": "ChIJ-ZSMUyJZrhERGQfLzxj78Bw"
    }
  },
  {
    "id": "91124",
    "name": "WARBA II",
    "registration_area_id": "4655",
    "precise_location": null,
    "abbreviation": "012",
    "units": "012",
    "delimitation": "19/29/05/012",
    "remark": "EXISTING PU",
    "ward_id": "4655",
    "ward_name": "KOGUNA",
    "local_government_id": "398",
    "local_government_name": "MAKODA",
    "state_id": "19",
    "state_name": "KANO",
    "location": {
      "latitude": 12.4187,
      "longitude": 8.4324999,
      "viewport": {
        "northeast": {
          "lat": 12.42007537989272,
          "lng": 8.43384637989272
        },
        "southwest": {
          "lat": 12.41737572010728,
          "lng": 8.431146720107277
        }
      },
      "formatted_address": "CC9J+FXQ, 702105, Kano, Nigeria",
      "google_map_url": "https://maps.google.com?q=12.4187,8.4324999",
      "google_place_id": "ChIJ-ZSMUyJZrhERGQfLzxj78Bw"
    }
  },
  {
    "id": "91125",
    "name": "CHIDARI III",
    "registration_area_id": "4655",
    "precise_location": null,
    "abbreviation": "013",
    "units": "013",
    "delimitation": "19/29/05/013",
    "remark": "NEW PU",
    "ward_id": "4655",
    "ward_name": "KOGUNA",
    "local_government_id": "398",
    "local_government_name": "MAKODA",
    "state_id": "19",
    "state_name": "KANO",
    "location": {
      "latitude": 12.4187,
      "longitude": 8.4324999,
      "viewport": {
        "northeast": {
          "lat": 12.42007537989272,
          "lng": 8.43384637989272
        },
        "southwest": {
          "lat": 12.41737572010728,
          "lng": 8.431146720107277
        }
      },
      "formatted_address": "CC9J+FXQ, 702105, Kano, Nigeria",
      "google_map_url": "https://maps.google.com?q=12.4187,8.4324999",
      "google_place_id": "ChIJ-ZSMUyJZrhERGQfLzxj78Bw"
    }
  },
  {
    "id": "91126",
    "name": "SABON RUWA II",
    "registration_area_id": "4655",
    "precise_location": null,
    "abbreviation": "014",
    "units": "014",
    "delimitation": "19/29/05/014",
    "remark": "NEW PU",
    "ward_id": "4655",
    "ward_name": "KOGUNA",
    "local_government_id": "398",
    "local_government_name": "MAKODA",
    "state_id": "19",
    "state_name": "KANO",
    "location": {
      "latitude": 12.386613,
      "longitude": 8.4513272,
      "viewport": {
        "northeast": {
          "lat": 12.4173944,
          "lng": 8.4906467
        },
        "southwest": {
          "lat": 12.3552812,
          "lng": 8.4015246
        }
      },
      "formatted_address": "Koguna, 702105, Nigeria",
      "google_map_url": "https://maps.google.com?q=12.386613,8.4513272",
      "google_place_id": "ChIJU20__CVfrhER9o-Fzaych2s"
    }
  },
  {
    "id": "91127",
    "name": "UNGUWAR CHIROMA I",
    "registration_area_id": "4655",
    "precise_location": null,
    "abbreviation": "015",
    "units": "015",
    "delimitation": "19/29/05/015",
    "remark": "NEW PU",
    "ward_id": "4655",
    "ward_name": "KOGUNA",
    "local_government_id": "398",
    "local_government_name": "MAKODA",
    "state_id": "19",
    "state_name": "KANO",
    "location": {
      "latitude": 12.3852584,
      "longitude": 8.701437499999999,
      "viewport": {
        "northeast": {
          "lat": 12.38656192989272,
          "lng": 8.70283937989272
        },
        "southwest": {
          "lat": 12.38386227010728,
          "lng": 8.700139720107277
        }
      },
      "formatted_address": "7F4C9PP2+3H6 Unguwar Ciroma, Tadwea 702104, Kano, Nigeria",
      "google_map_url": "https://maps.google.com?q=12.3852584,8.701437499999999",
      "google_place_id": "ChIJpSLcQbbtrhERUJOQv7lWia4"
    }
  },
  {
    "id": "91128",
    "name": "UNGUWAR CHIROMA II",
    "registration_area_id": "4655",
    "precise_location": null,
    "abbreviation": "016",
    "units": "016",
    "delimitation": "19/29/05/016",
    "remark": "NEW PU",
    "ward_id": "4655",
    "ward_name": "KOGUNA",
    "local_government_id": "398",
    "local_government_name": "MAKODA",
    "state_id": "19",
    "state_name": "KANO",
    "location": {
      "latitude": 12.4187,
      "longitude": 8.4324999,
      "viewport": {
        "northeast": {
          "lat": 12.42007537989272,
          "lng": 8.43384637989272
        },
        "southwest": {
          "lat": 12.41737572010728,
          "lng": 8.431146720107277
        }
      },
      "formatted_address": "CC9J+FXQ, 702105, Kano, Nigeria",
      "google_map_url": "https://maps.google.com?q=12.4187,8.4324999",
      "google_place_id": "ChIJ-ZSMUyJZrhERGQfLzxj78Bw"
    }
  }
]