[
  {
    "id": "79622",
    "name": "GD 17 BASHAMA ROAD",
    "registration_area_id": "4198",
    "precise_location": null,
    "abbreviation": "001",
    "units": "001",
    "delimitation": "18/10/07/001",
    "remark": "EXISTING PU",
    "ward_id": "4198",
    "ward_name": "TUDUN WADA SOUTH",
    "local_government_id": "356",
    "local_government_name": "KADUNA SOUTH",
    "state_id": "18",
    "state_name": "KADUNA",
    "location": {
      "latitude": 10.5076238,
      "longitude": 7.417149999999999,
      "viewport": {
        "northeast": {
          "lat": 10.50900057989272,
          "lng": 7.418510179892723
        },
        "southwest": {
          "lat": 10.50630092010728,
          "lng": 7.415810520107279
        }
      },
      "formatted_address": "gg2 Bashama Rd, Tudun Wada 800273, Kaduna, Nigeria",
      "google_map_url": "https://maps.google.com?q=10.5076238,7.417149999999999",
      "google_place_id": "ChIJydQ3gXs1TRARfn2LUTbUvbo"
    }
  },
  {
    "id": "79623",
    "name": "KX 48 HAUSAWA ROAD",
    "registration_area_id": "4198",
    "precise_location": null,
    "abbreviation": "002",
    "units": "002",
    "delimitation": "18/10/07/002",
    "remark": "EXISTING PU",
    "ward_id": "4198",
    "ward_name": "TUDUN WADA SOUTH",
    "local_government_id": "356",
    "local_government_name": "KADUNA SOUTH",
    "state_id": "18",
    "state_name": "KADUNA",
    "location": {
      "latitude": 10.5078702,
      "longitude": 7.413803100000001,
      "viewport": {
        "northeast": {
          "lat": 10.50922002989272,
          "lng": 7.415152929892723
        },
        "southwest": {
          "lat": 10.50652037010728,
          "lng": 7.412453270107279
        }
      },
      "formatted_address": "48 Hausawa Rd, Tudun Wada 800282, Kaduna, Nigeria",
      "google_map_url": "https://maps.google.com?q=10.5078702,7.413803100000001",
      "google_place_id": "EjE0OCBIYXVzYXdhIFJkLCBUdWR1biBXYWRhIDgwMDI4MiwgS2FkdW5hLCBOaWdlcmlhIjASLgoUChIJaZjcARU1TRARF4xNSh59tAcQMCoUChIJE9-mqxU1TRARxtPo2Y9EVFQ"
    }
  },
  {
    "id": "79624",
    "name": "KX 41 LERE STREET",
    "registration_area_id": "4198",
    "precise_location": null,
    "abbreviation": "003",
    "units": "003",
    "delimitation": "18/10/07/003",
    "remark": "EXISTING PU",
    "ward_id": "4198",
    "ward_name": "TUDUN WADA SOUTH",
    "local_government_id": "356",
    "local_government_name": "KADUNA SOUTH",
    "state_id": "18",
    "state_name": "KADUNA",
    "location": {
      "latitude": 10.5057948,
      "longitude": 7.413823900000001,
      "viewport": {
        "northeast": {
          "lat": 10.50714462989272,
          "lng": 7.415173729892722
        },
        "southwest": {
          "lat": 10.50444497010728,
          "lng": 7.412474070107279
        }
      },
      "formatted_address": "41 Lere St, Tudun Wada 800282, Kaduna, Nigeria",
      "google_map_url": "https://maps.google.com?q=10.5057948,7.413823900000001",
      "google_place_id": "Ei40MSBMZXJlIFN0LCBUdWR1biBXYWRhIDgwMDI4MiwgS2FkdW5hLCBOaWdlcmlhIjASLgoUChIJ1TCsYhQ1TRARCNM7HjWbLIYQKSoUChIJAXkKfRQ1TRARFjk0fwDEbVo"
    }
  },
  {
    "id": "79625",
    "name": "KX 80 HAUSAWA ROAD",
    "registration_area_id": "4198",
    "precise_location": null,
    "abbreviation": "004",
    "units": "004",
    "delimitation": "18/10/07/004",
    "remark": "EXISTING PU",
    "ward_id": "4198",
    "ward_name": "TUDUN WADA SOUTH",
    "local_government_id": "356",
    "local_government_name": "KADUNA SOUTH",
    "state_id": "18",
    "state_name": "KADUNA",
    "location": {
      "latitude": 10.5078702,
      "longitude": 7.413803100000001,
      "viewport": {
        "northeast": {
          "lat": 10.50922002989272,
          "lng": 7.415152929892723
        },
        "southwest": {
          "lat": 10.50652037010728,
          "lng": 7.412453270107279
        }
      },
      "formatted_address": "80 Hausawa Rd, Tudun Wada 800282, Kaduna, Nigeria",
      "google_map_url": "https://maps.google.com?q=10.5078702,7.413803100000001",
      "google_place_id": "EjE4MCBIYXVzYXdhIFJkLCBUdWR1biBXYWRhIDgwMDI4MiwgS2FkdW5hLCBOaWdlcmlhIjASLgoUChIJaZjcARU1TRARF4xNSh59tAcQUCoUChIJE9-mqxU1TRARxtPo2Y9EVFQ"
    }
  },
  {
    "id": "79626",
    "name": "KZ 30 HAUSAWA ROAD",
    "registration_area_id": "4198",
    "precise_location": null,
    "abbreviation": "005",
    "units": "005",
    "delimitation": "18/10/07/005",
    "remark": "EXISTING PU",
    "ward_id": "4198",
    "ward_name": "TUDUN WADA SOUTH",
    "local_government_id": "356",
    "local_government_name": "KADUNA SOUTH",
    "state_id": "18",
    "state_name": "KADUNA",
    "location": {
      "latitude": 10.5078702,
      "longitude": 7.413803100000001,
      "viewport": {
        "northeast": {
          "lat": 10.50922002989272,
          "lng": 7.415152929892723
        },
        "southwest": {
          "lat": 10.50652037010728,
          "lng": 7.412453270107279
        }
      },
      "formatted_address": "30 Hausawa Rd, Tudun Wada 800282, Kaduna, Nigeria",
      "google_map_url": "https://maps.google.com?q=10.5078702,7.413803100000001",
      "google_place_id": "EjEzMCBIYXVzYXdhIFJkLCBUdWR1biBXYWRhIDgwMDI4MiwgS2FkdW5hLCBOaWdlcmlhIjASLgoUChIJaZjcARU1TRARF4xNSh59tAcQHioUChIJE9-mqxU1TRARxtPo2Y9EVFQ"
    }
  },
  {
    "id": "79627",
    "name": "GH 9 FULANI ROAD",
    "registration_area_id": "4198",
    "precise_location": null,
    "abbreviation": "006",
    "units": "006",
    "delimitation": "18/10/07/006",
    "remark": "EXISTING PU",
    "ward_id": "4198",
    "ward_name": "TUDUN WADA SOUTH",
    "local_government_id": "356",
    "local_government_name": "KADUNA SOUTH",
    "state_id": "18",
    "state_name": "KADUNA",
    "location": {
      "latitude": 10.5080682,
      "longitude": 7.414635199999999,
      "viewport": {
        "northeast": {
          "lat": 10.50941802989272,
          "lng": 7.415985029892721
        },
        "southwest": {
          "lat": 10.50671837010728,
          "lng": 7.413285370107277
        }
      },
      "formatted_address": "Fulani Road, Tudun Wada 800282, Tudun Wada, Nigeria",
      "google_map_url": "https://maps.google.com?q=10.5080682,7.414635199999999",
      "google_place_id": "ChIJi0URqBU1TRARDz0iL6kqDlY"
    }
  },
  {
    "id": "79628",
    "name": "GH 3 LERE STREET",
    "registration_area_id": "4198",
    "precise_location": null,
    "abbreviation": "007",
    "units": "007",
    "delimitation": "18/10/07/007",
    "remark": "EXISTING PU",
    "ward_id": "4198",
    "ward_name": "TUDUN WADA SOUTH",
    "local_government_id": "356",
    "local_government_name": "KADUNA SOUTH",
    "state_id": "18",
    "state_name": "KADUNA",
    "location": {
      "latitude": 10.5057948,
      "longitude": 7.413823900000001,
      "viewport": {
        "northeast": {
          "lat": 10.50714462989272,
          "lng": 7.415173729892722
        },
        "southwest": {
          "lat": 10.50444497010728,
          "lng": 7.412474070107279
        }
      },
      "formatted_address": "3 Lere St, Tudun Wada 800282, Kaduna, Nigeria",
      "google_map_url": "https://maps.google.com?q=10.5057948,7.413823900000001",
      "google_place_id": "Ei0zIExlcmUgU3QsIFR1ZHVuIFdhZGEgODAwMjgyLCBLYWR1bmEsIE5pZ2VyaWEiMBIuChQKEgnVMKxiFDVNEBEI0zseNZsshhADKhQKEgkBeQp9FDVNEBEWOTR_AMRtWg"
    }
  },
  {
    "id": "79629",
    "name": "KZ 7A LERE STREET",
    "registration_area_id": "4198",
    "precise_location": null,
    "abbreviation": "008",
    "units": "008",
    "delimitation": "18/10/07/008",
    "remark": "EXISTING PU",
    "ward_id": "4198",
    "ward_name": "TUDUN WADA SOUTH",
    "local_government_id": "356",
    "local_government_name": "KADUNA SOUTH",
    "state_id": "18",
    "state_name": "KADUNA",
    "location": {
      "latitude": 10.5067054,
      "longitude": 7.414092999999999,
      "viewport": {
        "northeast": {
          "lat": 10.50804407989272,
          "lng": 7.415476529892723
        },
        "southwest": {
          "lat": 10.50534442010728,
          "lng": 7.412776870107279
        }
      },
      "formatted_address": "7 Lere St, Tudun Wada 800282, Kaduna, Nigeria",
      "google_map_url": "https://maps.google.com?q=10.5067054,7.414092999999999",
      "google_place_id": "ChIJf-il9hQ1TRARM_xZdsRW7Mw"
    }
  },
  {
    "id": "79630",
    "name": "GB 10 RICHIFA/BASIMA RD",
    "registration_area_id": "4198",
    "precise_location": null,
    "abbreviation": "009",
    "units": "009",
    "delimitation": "18/10/07/009",
    "remark": "EXISTING PU",
    "ward_id": "4198",
    "ward_name": "TUDUN WADA SOUTH",
    "local_government_id": "356",
    "local_government_name": "KADUNA SOUTH",
    "state_id": "18",
    "state_name": "KADUNA",
    "location": null
  },
  {
    "id": "79631",
    "name": "KX 70 HAUSAWA ROAD",
    "registration_area_id": "4198",
    "precise_location": null,
    "abbreviation": "010",
    "units": "010",
    "delimitation": "18/10/07/010",
    "remark": "EXISTING PU",
    "ward_id": "4198",
    "ward_name": "TUDUN WADA SOUTH",
    "local_government_id": "356",
    "local_government_name": "KADUNA SOUTH",
    "state_id": "18",
    "state_name": "KADUNA",
    "location": {
      "latitude": 10.5078702,
      "longitude": 7.413803100000001,
      "viewport": {
        "northeast": {
          "lat": 10.50922002989272,
          "lng": 7.415152929892723
        },
        "southwest": {
          "lat": 10.50652037010728,
          "lng": 7.412453270107279
        }
      },
      "formatted_address": "70 Hausawa Rd, Tudun Wada 800282, Kaduna, Nigeria",
      "google_map_url": "https://maps.google.com?q=10.5078702,7.413803100000001",
      "google_place_id": "EjE3MCBIYXVzYXdhIFJkLCBUdWR1biBXYWRhIDgwMDI4MiwgS2FkdW5hLCBOaWdlcmlhIjASLgoUChIJaZjcARU1TRARF4xNSh59tAcQRioUChIJE9-mqxU1TRARxtPo2Y9EVFQ"
    }
  },
  {
    "id": "79632",
    "name": "KV 158 KACHIYA ROAD",
    "registration_area_id": "4198",
    "precise_location": null,
    "abbreviation": "011",
    "units": "011",
    "delimitation": "18/10/07/011",
    "remark": "EXISTING PU",
    "ward_id": "4198",
    "ward_name": "TUDUN WADA SOUTH",
    "local_government_id": "356",
    "local_government_name": "KADUNA SOUTH",
    "state_id": "18",
    "state_name": "KADUNA",
    "location": {
      "latitude": 10.4822228,
      "longitude": 7.415154899999999,
      "viewport": {
        "northeast": {
          "lat": 10.48356682989272,
          "lng": 7.416515579892724
        },
        "southwest": {
          "lat": 10.48086717010728,
          "lng": 7.41381592010728
        }
      },
      "formatted_address": "FCJ8+V4R Kaduna Junction, Makera Road, Kakuri 800282, Kaduna Junction, Nigeria",
      "google_map_url": "https://maps.google.com?q=10.4822228,7.415154899999999",
      "google_place_id": "ChIJD880H6I1TRAR18BCHHjWx8Y"
    }
  },
  {
    "id": "79633",
    "name": "KV 143 BASHAMA",
    "registration_area_id": "4198",
    "precise_location": null,
    "abbreviation": "012",
    "units": "012",
    "delimitation": "18/10/07/012",
    "remark": "EXISTING PU",
    "ward_id": "4198",
    "ward_name": "TUDUN WADA SOUTH",
    "local_government_id": "356",
    "local_government_name": "KADUNA SOUTH",
    "state_id": "18",
    "state_name": "KADUNA",
    "location": {
      "latitude": 10.514205,
      "longitude": 7.4057506,
      "viewport": {
        "northeast": {
          "lat": 10.51555237989272,
          "lng": 7.407085679892721
        },
        "southwest": {
          "lat": 10.51285272010728,
          "lng": 7.404386020107277
        }
      },
      "formatted_address": "GC74+M7Q, Tudun Wada 800282, Kaduna, Nigeria",
      "google_map_url": "https://maps.google.com?q=10.514205,7.4057506",
      "google_place_id": "ChIJ44-n0jw1TRAR1nCfkCmnUhY"
    }
  },
  {
    "id": "79634",
    "name": "KV 126 BASHAMA ROAD",
    "registration_area_id": "4198",
    "precise_location": null,
    "abbreviation": "013",
    "units": "013",
    "delimitation": "18/10/07/013",
    "remark": "EXISTING PU",
    "ward_id": "4198",
    "ward_name": "TUDUN WADA SOUTH",
    "local_government_id": "356",
    "local_government_name": "KADUNA SOUTH",
    "state_id": "18",
    "state_name": "KADUNA",
    "location": {
      "latitude": 10.5107476,
      "longitude": 7.4074622,
      "viewport": {
        "northeast": {
          "lat": 10.51205477989272,
          "lng": 7.408812779892722
        },
        "southwest": {
          "lat": 10.50935512010728,
          "lng": 7.406113120107278
        }
      },
      "formatted_address": "CD1, Bashama Rd, Tudun Wada, Kaduna, Nigeria",
      "google_map_url": "https://maps.google.com?q=10.5107476,7.4074622",
      "google_place_id": "ChIJP1UYXhE1TRAR3yWuZ2ZqYoQ"
    }
  },
  {
    "id": "79635",
    "name": "GH 1 FULANI ROAD",
    "registration_area_id": "4198",
    "precise_location": null,
    "abbreviation": "014",
    "units": "014",
    "delimitation": "18/10/07/014",
    "remark": "EXISTING PU",
    "ward_id": "4198",
    "ward_name": "TUDUN WADA SOUTH",
    "local_government_id": "356",
    "local_government_name": "KADUNA SOUTH",
    "state_id": "18",
    "state_name": "KADUNA",
    "location": {
      "latitude": 10.5079876,
      "longitude": 7.4146744,
      "viewport": {
        "northeast": {
          "lat": 10.50936552989272,
          "lng": 7.416035079892723
        },
        "southwest": {
          "lat": 10.50666587010728,
          "lng": 7.413335420107279
        }
      },
      "formatted_address": "1 Fulani Road, U/Rimi 800282, Kaduna, Nigeria",
      "google_map_url": "https://maps.google.com?q=10.5079876,7.4146744",
      "google_place_id": "ChIJj-FmHBU1TRARTlIA0LRXpWE"
    }
  },
  {
    "id": "79636",
    "name": "KV 96 FULANI ROAD",
    "registration_area_id": "4198",
    "precise_location": null,
    "abbreviation": "015",
    "units": "015",
    "delimitation": "18/10/07/015",
    "remark": "EXISTING PU",
    "ward_id": "4198",
    "ward_name": "TUDUN WADA SOUTH",
    "local_government_id": "356",
    "local_government_name": "KADUNA SOUTH",
    "state_id": "18",
    "state_name": "KADUNA",
    "location": {
      "latitude": 10.5078621,
      "longitude": 7.408421300000001,
      "viewport": {
        "northeast": {
          "lat": 10.50928757989272,
          "lng": 7.409872679892723
        },
        "southwest": {
          "lat": 10.50658792010728,
          "lng": 7.40717302010728
        }
      },
      "formatted_address": "JA 14 Gubuchi Road, by poly road, Kaduna, Tudun Wada, Kaduna, Nigeria",
      "google_map_url": "https://maps.google.com?q=10.5078621,7.408421300000001",
      "google_place_id": "ChIJq8V55xU1TRARp8q4cl1kHo4"
    }
  },
  {
    "id": "79637",
    "name": "PM 2 MAKARFI ROAD",
    "registration_area_id": "4198",
    "precise_location": null,
    "abbreviation": "016",
    "units": "016",
    "delimitation": "18/10/07/016",
    "remark": "EXISTING PU",
    "ward_id": "4198",
    "ward_name": "TUDUN WADA SOUTH",
    "local_government_id": "356",
    "local_government_name": "KADUNA SOUTH",
    "state_id": "18",
    "state_name": "KADUNA",
    "location": {
      "latitude": 10.5106663,
      "longitude": 7.413476900000001,
      "viewport": {
        "northeast": {
          "lat": 10.51201882989272,
          "lng": 7.414827679892723
        },
        "southwest": {
          "lat": 10.50931917010728,
          "lng": 7.412128020107279
        }
      },
      "formatted_address": "2 Makarfi Rd, Rigasa 800282, Kaduna, Nigeria",
      "google_map_url": "https://maps.google.com?q=10.5106663,7.413476900000001",
      "google_place_id": "ChIJ6YIoKj41TRARNxXh_Q1bpxQ"
    }
  },
  {
    "id": "79638",
    "name": "PR 6 IGABI ROAD",
    "registration_area_id": "4198",
    "precise_location": null,
    "abbreviation": "017",
    "units": "017",
    "delimitation": "18/10/07/017",
    "remark": "EXISTING PU",
    "ward_id": "4198",
    "ward_name": "TUDUN WADA SOUTH",
    "local_government_id": "356",
    "local_government_name": "KADUNA SOUTH",
    "state_id": "18",
    "state_name": "KADUNA",
    "location": {
      "latitude": 10.5060897,
      "longitude": 7.4119914,
      "viewport": {
        "northeast": {
          "lat": 10.50745297989272,
          "lng": 7.413346479892722
        },
        "southwest": {
          "lat": 10.50475332010728,
          "lng": 7.410646820107278
        }
      },
      "formatted_address": "3 Bima Road, Tudun Wada 800282, Kaduna, Nigeria",
      "google_map_url": "https://maps.google.com?q=10.5060897,7.4119914",
      "google_place_id": "ChIJq16JQzk1TRAR2RxRv0iYTo8"
    }
  },
  {
    "id": "79639",
    "name": "PT 10 NUMAN ROAD",
    "registration_area_id": "4198",
    "precise_location": null,
    "abbreviation": "018",
    "units": "018",
    "delimitation": "18/10/07/018",
    "remark": "EXISTING PU",
    "ward_id": "4198",
    "ward_name": "TUDUN WADA SOUTH",
    "local_government_id": "356",
    "local_government_name": "KADUNA SOUTH",
    "state_id": "18",
    "state_name": "KADUNA",
    "location": {
      "latitude": 10.5086148,
      "longitude": 7.4161211,
      "viewport": {
        "northeast": {
          "lat": 10.50996462989272,
          "lng": 7.417470929892722
        },
        "southwest": {
          "lat": 10.50726497010728,
          "lng": 7.414771270107278
        }
      },
      "formatted_address": "10 Numan Rd, Tudun Wada 800282, Kaduna, Nigeria",
      "google_map_url": "https://maps.google.com?q=10.5086148,7.4161211",
      "google_place_id": "Ei8xMCBOdW1hbiBSZCwgVHVkdW4gV2FkYSA4MDAyODIsIEthZHVuYSwgTmlnZXJpYSIwEi4KFAoSCfFFNTIVNU0QEYo8XrLZkEQ8EAoqFAoSCXVdhI89NU0QEYQVVOAV4xTu"
    }
  },
  {
    "id": "79640",
    "name": "ASIBITIN YARA",
    "registration_area_id": "4198",
    "precise_location": null,
    "abbreviation": "019",
    "units": "019",
    "delimitation": "18/10/07/019",
    "remark": "EXISTING PU",
    "ward_id": "4198",
    "ward_name": "TUDUN WADA SOUTH",
    "local_government_id": "356",
    "local_government_name": "KADUNA SOUTH",
    "state_id": "18",
    "state_name": "KADUNA",
    "location": {
      "latitude": 10.5109019,
      "longitude": 7.4138912,
      "viewport": {
        "northeast": {
          "lat": 10.51226397989272,
          "lng": 7.415207329892723
        },
        "southwest": {
          "lat": 10.50956432010728,
          "lng": 7.412507670107279
        }
      },
      "formatted_address": "GC67+9H6, Soba Street, Tudun Wada 800282, Tudun Wada, Nigeria",
      "google_map_url": "https://maps.google.com?q=10.5109019,7.4138912",
      "google_place_id": "ChIJP2nBkrM1TRARKkAdh93fa1w"
    }
  },
  {
    "id": "79641",
    "name": "PG. 4 IBRAHIM TAIWO ROAD",
    "registration_area_id": "4198",
    "precise_location": null,
    "abbreviation": "020",
    "units": "020",
    "delimitation": "18/10/07/020",
    "remark": "EXISTING PU",
    "ward_id": "4198",
    "ward_name": "TUDUN WADA SOUTH",
    "local_government_id": "356",
    "local_government_name": "KADUNA SOUTH",
    "state_id": "18",
    "state_name": "KADUNA",
    "location": {
      "latitude": 10.5126977,
      "longitude": 7.420192399999999,
      "viewport": {
        "northeast": {
          "lat": 10.51402497989272,
          "lng": 7.421564629892722
        },
        "southwest": {
          "lat": 10.51132532010728,
          "lng": 7.418864970107278
        }
      },
      "formatted_address": "Pd2, Ibrahim Taiwo Rd, Tudun Wada, Kaduna, Nigeria",
      "google_map_url": "https://maps.google.com?q=10.5126977,7.420192399999999",
      "google_place_id": "ChIJkWIU9XU1TRARuBQR2l5ay28"
    }
  },
  {
    "id": "79642",
    "name": "PC 10 MAKARFI ROAD",
    "registration_area_id": "4198",
    "precise_location": null,
    "abbreviation": "021",
    "units": "021",
    "delimitation": "18/10/07/021",
    "remark": "EXISTING PU",
    "ward_id": "4198",
    "ward_name": "TUDUN WADA SOUTH",
    "local_government_id": "356",
    "local_government_name": "KADUNA SOUTH",
    "state_id": "18",
    "state_name": "KADUNA",
    "location": {
      "latitude": 10.5104795,
      "longitude": 7.416459199999999,
      "viewport": {
        "northeast": {
          "lat": 10.51181817989272,
          "lng": 7.41784342989272
        },
        "southwest": {
          "lat": 10.50911852010728,
          "lng": 7.415143770107276
        }
      },
      "formatted_address": "GC68+5HW, Yakubu Gowon Way, Tudun Wada 800282, Kaduna, Nigeria",
      "google_map_url": "https://maps.google.com?q=10.5104795,7.416459199999999",
      "google_place_id": "ChIJJenUjfo1TRARMcqXYlBwoJ4"
    }
  },
  {
    "id": "79643",
    "name": "PBI IBRAHIM TAIWO ROAD",
    "registration_area_id": "4198",
    "precise_location": null,
    "abbreviation": "022",
    "units": "022",
    "delimitation": "18/10/07/022",
    "remark": "EXISTING PU",
    "ward_id": "4198",
    "ward_name": "TUDUN WADA SOUTH",
    "local_government_id": "356",
    "local_government_name": "KADUNA SOUTH",
    "state_id": "18",
    "state_name": "KADUNA",
    "location": {
      "latitude": 10.5126977,
      "longitude": 7.420192399999999,
      "viewport": {
        "northeast": {
          "lat": 10.51402497989272,
          "lng": 7.421564629892722
        },
        "southwest": {
          "lat": 10.51132532010728,
          "lng": 7.418864970107278
        }
      },
      "formatted_address": "Tundun, NO. NN1, Ibrahim Taiwo Rd, Tudun Wada, Kaduna, Nigeria",
      "google_map_url": "https://maps.google.com?q=10.5126977,7.420192399999999",
      "google_place_id": "ChIJd0p9blo1TRARyGKzaR7_p-Y"
    }
  },
  {
    "id": "79644",
    "name": "KV 21 MAKARFI ROAD",
    "registration_area_id": "4198",
    "precise_location": null,
    "abbreviation": "023",
    "units": "023",
    "delimitation": "18/10/07/023",
    "remark": "EXISTING PU",
    "ward_id": "4198",
    "ward_name": "TUDUN WADA SOUTH",
    "local_government_id": "356",
    "local_government_name": "KADUNA SOUTH",
    "state_id": "18",
    "state_name": "KADUNA",
    "location": {
      "latitude": 10.5104795,
      "longitude": 7.416459199999999,
      "viewport": {
        "northeast": {
          "lat": 10.51181817989272,
          "lng": 7.41784342989272
        },
        "southwest": {
          "lat": 10.50911852010728,
          "lng": 7.415143770107276
        }
      },
      "formatted_address": "Gbagyi Villa, Orlu Road Gbagyi Villa Kaduna, Kaduna, Nigeria",
      "google_map_url": "https://maps.google.com?q=10.5104795,7.416459199999999",
      "google_place_id": "ChIJyQC_lOI1TRARnWRXQELCEpo"
    }
  },
  {
    "id": "79645",
    "name": "KV 181 IGABI ROAD",
    "registration_area_id": "4198",
    "precise_location": null,
    "abbreviation": "024",
    "units": "024",
    "delimitation": "18/10/07/024",
    "remark": "EXISTING PU",
    "ward_id": "4198",
    "ward_name": "TUDUN WADA SOUTH",
    "local_government_id": "356",
    "local_government_name": "KADUNA SOUTH",
    "state_id": "18",
    "state_name": "KADUNA",
    "location": {
      "latitude": 10.5098617,
      "longitude": 7.414359399999999,
      "viewport": {
        "northeast": {
          "lat": 10.51333620000005,
          "lng": 7.423441499999997
        },
        "southwest": {
          "lat": 10.50675139999995,
          "lng": 7.404211099999999
        }
      },
      "formatted_address": "Igabi Rd, Tudun Wada 800282, Tudun Wada, Nigeria",
      "google_map_url": "https://maps.google.com?q=10.5098617,7.414359399999999",
      "google_place_id": "EjJJZ2FiaSBSZCwgVHVkdW4gTnVwYXdhIDgwMDI4MiwgVHVkdW4gV2FkYSwgTmlnZXJpYSIuKiwKFAoSCaHSFu09NU0QEWocfMPwLZ2fEhQKEgl994WEDzVNEBE3zmBxzX_YFQ"
    }
  },
  {
    "id": "79646",
    "name": "KV 121 IGABI ROAD",
    "registration_area_id": "4198",
    "precise_location": null,
    "abbreviation": "025",
    "units": "025",
    "delimitation": "18/10/07/025",
    "remark": "EXISTING PU",
    "ward_id": "4198",
    "ward_name": "TUDUN WADA SOUTH",
    "local_government_id": "356",
    "local_government_name": "KADUNA SOUTH",
    "state_id": "18",
    "state_name": "KADUNA",
    "location": {
      "latitude": 10.5104795,
      "longitude": 7.416459199999999,
      "viewport": {
        "northeast": {
          "lat": 10.51181817989272,
          "lng": 7.41784342989272
        },
        "southwest": {
          "lat": 10.50911852010728,
          "lng": 7.415143770107276
        }
      },
      "formatted_address": "No 1 adjacent Goshen primary school, Kudenda, Kaduna, Nigeria",
      "google_map_url": "https://maps.google.com?q=10.5104795,7.416459199999999",
      "google_place_id": "ChIJL_s85N01TRARpe2n0Px4qC8"
    }
  },
  {
    "id": "79647",
    "name": "KV 8 SOBA STREET",
    "registration_area_id": "4198",
    "precise_location": null,
    "abbreviation": "026",
    "units": "026",
    "delimitation": "18/10/07/026",
    "remark": "EXISTING PU",
    "ward_id": "4198",
    "ward_name": "TUDUN WADA SOUTH",
    "local_government_id": "356",
    "local_government_name": "KADUNA SOUTH",
    "state_id": "18",
    "state_name": "KADUNA",
    "location": {
      "latitude": 10.5104795,
      "longitude": 7.416459199999999,
      "viewport": {
        "northeast": {
          "lat": 10.51181817989272,
          "lng": 7.41784342989272
        },
        "southwest": {
          "lat": 10.50911852010728,
          "lng": 7.415143770107276
        }
      },
      "formatted_address": "GC68+5HW, Unnamed Road, Kaduna, janruwa road opposite yacowa, Alhaji Ibrahim Musa Road, Kaduna, Nigeria",
      "google_map_url": "https://maps.google.com?q=10.5104795,7.416459199999999",
      "google_place_id": "ChIJYXZPGs41TRARF9Iu6cTI5Q8"
    }
  },
  {
    "id": "79648",
    "name": "PT. 20 NUMAN ROAD",
    "registration_area_id": "4198",
    "precise_location": null,
    "abbreviation": "027",
    "units": "027",
    "delimitation": "18/10/07/027",
    "remark": "EXISTING PU",
    "ward_id": "4198",
    "ward_name": "TUDUN WADA SOUTH",
    "local_government_id": "356",
    "local_government_name": "KADUNA SOUTH",
    "state_id": "18",
    "state_name": "KADUNA",
    "location": {
      "latitude": 10.5086148,
      "longitude": 7.4161211,
      "viewport": {
        "northeast": {
          "lat": 10.50996462989272,
          "lng": 7.417470929892722
        },
        "southwest": {
          "lat": 10.50726497010728,
          "lng": 7.414771270107278
        }
      },
      "formatted_address": "20 Numan Rd, Tudun Wada 800282, Kaduna, Nigeria",
      "google_map_url": "https://maps.google.com?q=10.5086148,7.4161211",
      "google_place_id": "Ei8yMCBOdW1hbiBSZCwgVHVkdW4gV2FkYSA4MDAyODIsIEthZHVuYSwgTmlnZXJpYSIwEi4KFAoSCfFFNTIVNU0QEYo8XrLZkEQ8EBQqFAoSCXVdhI89NU0QEYQVVOAV4xTu"
    }
  },
  {
    "id": "79649",
    "name": "PW 10 SOBA STREET",
    "registration_area_id": "4198",
    "precise_location": null,
    "abbreviation": "028",
    "units": "028",
    "delimitation": "18/10/07/028",
    "remark": "EXISTING PU",
    "ward_id": "4198",
    "ward_name": "TUDUN WADA SOUTH",
    "local_government_id": "356",
    "local_government_name": "KADUNA SOUTH",
    "state_id": "18",
    "state_name": "KADUNA",
    "location": {
      "latitude": 10.5104795,
      "longitude": 7.416459199999999,
      "viewport": {
        "northeast": {
          "lat": 10.51181817989272,
          "lng": 7.41784342989272
        },
        "southwest": {
          "lat": 10.50911852010728,
          "lng": 7.415143770107276
        }
      },
      "formatted_address": "G, Ira Rd, Ungwan Boro, Kaduna, Nigeria",
      "google_map_url": "https://maps.google.com?q=10.5104795,7.416459199999999",
      "google_place_id": "ChIJp_n6Z-A1TRARDrQDLarkwIk"
    }
  },
  {
    "id": "79650",
    "name": "PH 19 IGABI ROAD",
    "registration_area_id": "4198",
    "precise_location": null,
    "abbreviation": "029",
    "units": "029",
    "delimitation": "18/10/07/029",
    "remark": "EXISTING PU",
    "ward_id": "4198",
    "ward_name": "TUDUN WADA SOUTH",
    "local_government_id": "356",
    "local_government_name": "KADUNA SOUTH",
    "state_id": "18",
    "state_name": "KADUNA",
    "location": {
      "latitude": 10.5104795,
      "longitude": 7.416459199999999,
      "viewport": {
        "northeast": {
          "lat": 10.51181817989272,
          "lng": 7.41784342989272
        },
        "southwest": {
          "lat": 10.50911852010728,
          "lng": 7.415143770107276
        }
      },
      "formatted_address": "No 1 adjacent Goshen primary school, Kudenda, Kaduna, Nigeria",
      "google_map_url": "https://maps.google.com?q=10.5104795,7.416459199999999",
      "google_place_id": "ChIJL_s85N01TRARpe2n0Px4qC8"
    }
  },
  {
    "id": "79651",
    "name": "KY 4 IGABI ROAD",
    "registration_area_id": "4198",
    "precise_location": null,
    "abbreviation": "030",
    "units": "030",
    "delimitation": "18/10/07/030",
    "remark": "EXISTING PU",
    "ward_id": "4198",
    "ward_name": "TUDUN WADA SOUTH",
    "local_government_id": "356",
    "local_government_name": "KADUNA SOUTH",
    "state_id": "18",
    "state_name": "KADUNA",
    "location": {
      "latitude": 10.5052126,
      "longitude": 7.411626699999999,
      "viewport": {
        "northeast": {
          "lat": 10.50660107989272,
          "lng": 7.412994179892721
        },
        "southwest": {
          "lat": 10.50390142010728,
          "lng": 7.410294520107277
        }
      },
      "formatted_address": "Tundun, KY 7, Shika Rd, Tudun Wada, Kaduna, Nigeria",
      "google_map_url": "https://maps.google.com?q=10.5052126,7.411626699999999",
      "google_place_id": "ChIJCwGWvhI1TRARr-R-zKvrYQU"
    }
  },
  {
    "id": "79652",
    "name": "NO.56 KATAGUN ROAD I.",
    "registration_area_id": "4198",
    "precise_location": null,
    "abbreviation": "031",
    "units": "031",
    "delimitation": "18/10/07/031",
    "remark": "EXISTING PU",
    "ward_id": "4198",
    "ward_name": "TUDUN WADA SOUTH",
    "local_government_id": "356",
    "local_government_name": "KADUNA SOUTH",
    "state_id": "18",
    "state_name": "KADUNA",
    "location": null
  },
  {
    "id": "79653",
    "name": "NO.56 KATAGUN ROAD II",
    "registration_area_id": "4198",
    "precise_location": null,
    "abbreviation": "032",
    "units": "032",
    "delimitation": "18/10/07/032",
    "remark": "EXISTING PU",
    "ward_id": "4198",
    "ward_name": "TUDUN WADA SOUTH",
    "local_government_id": "356",
    "local_government_name": "KADUNA SOUTH",
    "state_id": "18",
    "state_name": "KADUNA",
    "location": null
  },
  {
    "id": "79654",
    "name": "KV 12 KAJE ROAD",
    "registration_area_id": "4198",
    "precise_location": null,
    "abbreviation": "033",
    "units": "033",
    "delimitation": "18/10/07/033",
    "remark": "EXISTING PU",
    "ward_id": "4198",
    "ward_name": "TUDUN WADA SOUTH",
    "local_government_id": "356",
    "local_government_name": "KADUNA SOUTH",
    "state_id": "18",
    "state_name": "KADUNA",
    "location": {
      "latitude": 10.514205,
      "longitude": 7.4057506,
      "viewport": {
        "northeast": {
          "lat": 10.51555237989272,
          "lng": 7.407085679892721
        },
        "southwest": {
          "lat": 10.51285272010728,
          "lng": 7.404386020107277
        }
      },
      "formatted_address": "GC74+M7Q, Tudun Wada 800282, Kaduna, Nigeria",
      "google_map_url": "https://maps.google.com?q=10.514205,7.4057506",
      "google_place_id": "ChIJ44-n0jw1TRAR1nCfkCmnUhY"
    }
  },
  {
    "id": "79655",
    "name": "KV 80 HAUSAWA ROAD",
    "registration_area_id": "4198",
    "precise_location": null,
    "abbreviation": "034",
    "units": "034",
    "delimitation": "18/10/07/034",
    "remark": "EXISTING PU",
    "ward_id": "4198",
    "ward_name": "TUDUN WADA SOUTH",
    "local_government_id": "356",
    "local_government_name": "KADUNA SOUTH",
    "state_id": "18",
    "state_name": "KADUNA",
    "location": {
      "latitude": 10.502592,
      "longitude": 7.402505100000001,
      "viewport": {
        "northeast": {
          "lat": 10.50388037989272,
          "lng": 7.403865629892722
        },
        "southwest": {
          "lat": 10.50118072010728,
          "lng": 7.401165970107278
        }
      },
      "formatted_address": "Unnamed Rd, Tudun Wada 800282, Kaduna, Nigeria",
      "google_map_url": "https://maps.google.com?q=10.502592,7.402505100000001",
      "google_place_id": "ChIJDee9pVc1TRAR7IjyykG9mRc"
    }
  },
  {
    "id": "79656",
    "name": "GM 10 HAUSAWA ROAD",
    "registration_area_id": "4198",
    "precise_location": null,
    "abbreviation": "035",
    "units": "035",
    "delimitation": "18/10/07/035",
    "remark": "EXISTING PU",
    "ward_id": "4198",
    "ward_name": "TUDUN WADA SOUTH",
    "local_government_id": "356",
    "local_government_name": "KADUNA SOUTH",
    "state_id": "18",
    "state_name": "KADUNA",
    "location": {
      "latitude": 10.5104795,
      "longitude": 7.416459199999999,
      "viewport": {
        "northeast": {
          "lat": 10.51181817989272,
          "lng": 7.41784342989272
        },
        "southwest": {
          "lat": 10.50911852010728,
          "lng": 7.415143770107276
        }
      },
      "formatted_address": "Royal Market, 94 Archimodes Mega Plaza, Kaduna, Nigeria",
      "google_map_url": "https://maps.google.com?q=10.5104795,7.416459199999999",
      "google_place_id": "ChIJMUT3UKE1TRARvvls67tGxQM"
    }
  },
  {
    "id": "79657",
    "name": "KY 18 KAJE/ ZANGO ROAD",
    "registration_area_id": "4198",
    "precise_location": null,
    "abbreviation": "036",
    "units": "036",
    "delimitation": "18/10/07/036",
    "remark": "EXISTING PU",
    "ward_id": "4198",
    "ward_name": "TUDUN WADA SOUTH",
    "local_government_id": "356",
    "local_government_name": "KADUNA SOUTH",
    "state_id": "18",
    "state_name": "KADUNA",
    "location": null
  },
  {
    "id": "79658",
    "name": "KY 2 SHETIMA ROAD",
    "registration_area_id": "4198",
    "precise_location": null,
    "abbreviation": "037",
    "units": "037",
    "delimitation": "18/10/07/037",
    "remark": "EXISTING PU",
    "ward_id": "4198",
    "ward_name": "TUDUN WADA SOUTH",
    "local_government_id": "356",
    "local_government_name": "KADUNA SOUTH",
    "state_id": "18",
    "state_name": "KADUNA",
    "location": {
      "latitude": 10.5072016,
      "longitude": 7.4122544,
      "viewport": {
        "northeast": {
          "lat": 10.50853457989272,
          "lng": 7.413647329892721
        },
        "southwest": {
          "lat": 10.50583492010728,
          "lng": 7.410947670107277
        }
      },
      "formatted_address": "GC46+VWJ, Shettima Rd, Tudun Wada 800282, Kaduna, Nigeria",
      "google_map_url": "https://maps.google.com?q=10.5072016,7.4122544",
      "google_place_id": "ChIJ89U0OBc1TRARFC_O2OjcYg4"
    }
  },
  {
    "id": "79659",
    "name": "KY 2 KATAGUM/ SHETIMA ROAD",
    "registration_area_id": "4198",
    "precise_location": null,
    "abbreviation": "038",
    "units": "038",
    "delimitation": "18/10/07/038",
    "remark": "EXISTING PU",
    "ward_id": "4198",
    "ward_name": "TUDUN WADA SOUTH",
    "local_government_id": "356",
    "local_government_name": "KADUNA SOUTH",
    "state_id": "18",
    "state_name": "KADUNA",
    "location": {
      "latitude": 10.5073701,
      "longitude": 7.4125988,
      "viewport": {
        "northeast": {
          "lat": 10.50871992989272,
          "lng": 7.413948629892722
        },
        "southwest": {
          "lat": 10.50602027010728,
          "lng": 7.411248970107278
        }
      },
      "formatted_address": "2 Katagum Rd, Tudun Wada 800282, Kaduna, Nigeria",
      "google_map_url": "https://maps.google.com?q=10.5073701,7.4125988",
      "google_place_id": "EjAyIEthdGFndW0gUmQsIFR1ZHVuIFdhZGEgODAwMjgyLCBLYWR1bmEsIE5pZ2VyaWEiMBIuChQKEgnNOdhOFDVNEBExgu-As0k59RACKhQKEgkl7urxFDVNEBEG-w6ikysz-A"
    }
  },
  {
    "id": "79660",
    "name": "KAJE ROAD",
    "registration_area_id": "4198",
    "precise_location": null,
    "abbreviation": "039",
    "units": "039",
    "delimitation": "18/10/07/039",
    "remark": "EXISTING PU",
    "ward_id": "4198",
    "ward_name": "TUDUN WADA SOUTH",
    "local_government_id": "356",
    "local_government_name": "KADUNA SOUTH",
    "state_id": "18",
    "state_name": "KADUNA",
    "location": {
      "latitude": 10.5074966,
      "longitude": 7.413467199999999,
      "viewport": {
        "northeast": {
          "lat": 10.50884642989272,
          "lng": 7.414817029892721
        },
        "southwest": {
          "lat": 10.50614677010728,
          "lng": 7.412117370107278
        }
      },
      "formatted_address": "Kaje Rd, Tudun Wada 800282, Tudun Wada, Nigeria",
      "google_map_url": "https://maps.google.com?q=10.5074966,7.413467199999999",
      "google_place_id": "ChIJC3rA1hU1TRAReTBoXk7vfjE"
    }
  },
  {
    "id": "79661",
    "name": "KY 5 BIMA ROAD",
    "registration_area_id": "4198",
    "precise_location": null,
    "abbreviation": "040",
    "units": "040",
    "delimitation": "18/10/07/040",
    "remark": "EXISTING PU",
    "ward_id": "4198",
    "ward_name": "TUDUN WADA SOUTH",
    "local_government_id": "356",
    "local_government_name": "KADUNA SOUTH",
    "state_id": "18",
    "state_name": "KADUNA",
    "location": {
      "latitude": 10.5057676,
      "longitude": 7.4133,
      "viewport": {
        "northeast": {
          "lat": 10.50705687989272,
          "lng": 7.414625329892721
        },
        "southwest": {
          "lat": 10.50435722010728,
          "lng": 7.411925670107276
        }
      },
      "formatted_address": "5 Bima Road, Tudun Wada 800282, Kaduna, Nigeria",
      "google_map_url": "https://maps.google.com?q=10.5057676,7.4133",
      "google_place_id": "Ei81IEJpbWEgUm9hZCwgVHVkdW4gV2FkYSA4MDAyODIsIEthZHVuYSwgTmlnZXJpYSIwEi4KFAoSCe231m0UNU0QESCylfX1_ZDoEAUqFAoSCV3z8RYUNU0QEc4lSp2aPeJ-"
    }
  },
  {
    "id": "79662",
    "name": "KY MASHI/ ZANGO ROAD",
    "registration_area_id": "4198",
    "precise_location": null,
    "abbreviation": "041",
    "units": "041",
    "delimitation": "18/10/07/041",
    "remark": "EXISTING PU",
    "ward_id": "4198",
    "ward_name": "TUDUN WADA SOUTH",
    "local_government_id": "356",
    "local_government_name": "KADUNA SOUTH",
    "state_id": "18",
    "state_name": "KADUNA",
    "location": {
      "latitude": 10.513559,
      "longitude": 7.4098089,
      "viewport": {
        "northeast": {
          "lat": 10.51494862989272,
          "lng": 7.411173379892722
        },
        "southwest": {
          "lat": 10.51224897010728,
          "lng": 7.408473720107278
        }
      },
      "formatted_address": "GC75+CWP, Tudun Wada 800282, Kaduna, Nigeria",
      "google_map_url": "https://maps.google.com?q=10.513559,7.4098089",
      "google_place_id": "ChIJ34mlv681TRARt7OjInesyhI"
    }
  },
  {
    "id": "79663",
    "name": "GO 6 HAUSAWA ROAD",
    "registration_area_id": "4198",
    "precise_location": null,
    "abbreviation": "042",
    "units": "042",
    "delimitation": "18/10/07/042",
    "remark": "EXISTING PU",
    "ward_id": "4198",
    "ward_name": "TUDUN WADA SOUTH",
    "local_government_id": "356",
    "local_government_name": "KADUNA SOUTH",
    "state_id": "18",
    "state_name": "KADUNA",
    "location": {
      "latitude": 10.5078702,
      "longitude": 7.413803100000001,
      "viewport": {
        "northeast": {
          "lat": 10.50922002989272,
          "lng": 7.415152929892723
        },
        "southwest": {
          "lat": 10.50652037010728,
          "lng": 7.412453270107279
        }
      },
      "formatted_address": "6 Hausawa Rd, Tudun Wada 800282, Kaduna, Nigeria",
      "google_map_url": "https://maps.google.com?q=10.5078702,7.413803100000001",
      "google_place_id": "EjA2IEhhdXNhd2EgUmQsIFR1ZHVuIFdhZGEgODAwMjgyLCBLYWR1bmEsIE5pZ2VyaWEiMBIuChQKEglpmNwBFTVNEBEXjE1KHn20BxAGKhQKEgkT36arFTVNEBHG0-jZj0RUVA"
    }
  },
  {
    "id": "79664",
    "name": "KV 34 SHETIMA ROAD",
    "registration_area_id": "4198",
    "precise_location": null,
    "abbreviation": "043",
    "units": "043",
    "delimitation": "18/10/07/043",
    "remark": "EXISTING PU",
    "ward_id": "4198",
    "ward_name": "TUDUN WADA SOUTH",
    "local_government_id": "356",
    "local_government_name": "KADUNA SOUTH",
    "state_id": "18",
    "state_name": "KADUNA",
    "location": null
  },
  {
    "id": "79665",
    "name": "KY 11 KAJE ROAD",
    "registration_area_id": "4198",
    "precise_location": null,
    "abbreviation": "044",
    "units": "044",
    "delimitation": "18/10/07/044",
    "remark": "EXISTING PU",
    "ward_id": "4198",
    "ward_name": "TUDUN WADA SOUTH",
    "local_government_id": "356",
    "local_government_name": "KADUNA SOUTH",
    "state_id": "18",
    "state_name": "KADUNA",
    "location": {
      "latitude": 10.5074551,
      "longitude": 7.413577500000001,
      "viewport": {
        "northeast": {
          "lat": 10.50880492989272,
          "lng": 7.414927329892723
        },
        "southwest": {
          "lat": 10.50610527010728,
          "lng": 7.412227670107279
        }
      },
      "formatted_address": "11 Kaje Rd, Tudun Wada 800282, Kaduna, Nigeria",
      "google_map_url": "https://maps.google.com?q=10.5074551,7.413577500000001",
      "google_place_id": "Ei4xMSBLYWplIFJkLCBUdWR1biBXYWRhIDgwMDI4MiwgS2FkdW5hLCBOaWdlcmlhIjASLgoUChIJw2-5-BQ1TRARfhj8ESW0kWgQCyoUChIJC3rA1hU1TRAReTBoXk7vfjE"
    }
  },
  {
    "id": "79666",
    "name": "GD 17 BASHAMA ROAD I",
    "registration_area_id": "4198",
    "precise_location": null,
    "abbreviation": "045",
    "units": "045",
    "delimitation": "18/10/07/045",
    "remark": "NEW PU",
    "ward_id": "4198",
    "ward_name": "TUDUN WADA SOUTH",
    "local_government_id": "356",
    "local_government_name": "KADUNA SOUTH",
    "state_id": "18",
    "state_name": "KADUNA",
    "location": {
      "latitude": 10.5085589,
      "longitude": 7.4148102,
      "viewport": {
        "northeast": {
          "lat": 10.51240710000005,
          "lng": 7.423817700000002
        },
        "southwest": {
          "lat": 10.50489909999995,
          "lng": 7.4047705
        }
      },
      "formatted_address": "Bashama Rd, Nigeria",
      "google_map_url": "https://maps.google.com?q=10.5085589,7.4148102",
      "google_place_id": "EhNCYXNoYW1hIFJkLCBOaWdlcmlhIi4qLAoUChIJrXbtIBY1TRARqyBgRWERtJkSFAoSCX33hYQPNU0QETfOYHHNf9gV"
    }
  },
  {
    "id": "79667",
    "name": "K2 30 HAUSAWA ROAD I",
    "registration_area_id": "4198",
    "precise_location": null,
    "abbreviation": "046",
    "units": "046",
    "delimitation": "18/10/07/046",
    "remark": "NEW PU",
    "ward_id": "4198",
    "ward_name": "TUDUN WADA SOUTH",
    "local_government_id": "356",
    "local_government_name": "KADUNA SOUTH",
    "state_id": "18",
    "state_name": "KADUNA",
    "location": {
      "latitude": 10.5078702,
      "longitude": 7.413803100000001,
      "viewport": {
        "northeast": {
          "lat": 10.50922002989272,
          "lng": 7.415152929892723
        },
        "southwest": {
          "lat": 10.50652037010728,
          "lng": 7.412453270107279
        }
      },
      "formatted_address": "k2, 30 Hausawa Rd, Tudun Wada 800282, Kaduna, Nigeria",
      "google_map_url": "https://maps.google.com?q=10.5078702,7.413803100000001",
      "google_place_id": "EjVrMiwgMzAgSGF1c2F3YSBSZCwgVHVkdW4gV2FkYSA4MDAyODIsIEthZHVuYSwgTmlnZXJpYSI4GjYKMBIuChQKEglpmNwBFTVNEBEXjE1KHn20BxAeKhQKEgkT36arFTVNEBHG0-jZj0RUVBICazI"
    }
  },
  {
    "id": "79668",
    "name": "KV 158 KACHIYA ROAD I",
    "registration_area_id": "4198",
    "precise_location": null,
    "abbreviation": "047",
    "units": "047",
    "delimitation": "18/10/07/047",
    "remark": "NEW PU",
    "ward_id": "4198",
    "ward_name": "TUDUN WADA SOUTH",
    "local_government_id": "356",
    "local_government_name": "KADUNA SOUTH",
    "state_id": "18",
    "state_name": "KADUNA",
    "location": {
      "latitude": 10.5065883,
      "longitude": 7.4121081,
      "viewport": {
        "northeast": {
          "lat": 10.50793812989272,
          "lng": 7.413457929892722
        },
        "southwest": {
          "lat": 10.50523847010728,
          "lng": 7.410758270107278
        }
      },
      "formatted_address": "Kv 49, Jada Rd, T/Wada, Kaduna, Nigeria",
      "google_map_url": "https://maps.google.com?q=10.5065883,7.4121081",
      "google_place_id": "ChIJqYK6q181TRAR_fcxqwpLA5k"
    }
  },
  {
    "id": "79669",
    "name": "KV 143 BASHAMA ROAD I",
    "registration_area_id": "4198",
    "precise_location": null,
    "abbreviation": "048",
    "units": "048",
    "delimitation": "18/10/07/048",
    "remark": "NEW PU",
    "ward_id": "4198",
    "ward_name": "TUDUN WADA SOUTH",
    "local_government_id": "356",
    "local_government_name": "KADUNA SOUTH",
    "state_id": "18",
    "state_name": "KADUNA",
    "location": {
      "latitude": 10.5065883,
      "longitude": 7.4121081,
      "viewport": {
        "northeast": {
          "lat": 10.50793812989272,
          "lng": 7.413457929892722
        },
        "southwest": {
          "lat": 10.50523847010728,
          "lng": 7.410758270107278
        }
      },
      "formatted_address": "Kv 49, Jada Rd, T/Wada, Kaduna, Nigeria",
      "google_map_url": "https://maps.google.com?q=10.5065883,7.4121081",
      "google_place_id": "ChIJqYK6q181TRAR_fcxqwpLA5k"
    }
  },
  {
    "id": "79670",
    "name": "KV 126 BASHAMA ROAD I",
    "registration_area_id": "4198",
    "precise_location": null,
    "abbreviation": "049",
    "units": "049",
    "delimitation": "18/10/07/049",
    "remark": "NEW PU",
    "ward_id": "4198",
    "ward_name": "TUDUN WADA SOUTH",
    "local_government_id": "356",
    "local_government_name": "KADUNA SOUTH",
    "state_id": "18",
    "state_name": "KADUNA",
    "location": {
      "latitude": 10.5101128,
      "longitude": 7.410653699999999,
      "viewport": {
        "northeast": {
          "lat": 10.51146262989272,
          "lng": 7.412003529892721
        },
        "southwest": {
          "lat": 10.50876297010728,
          "lng": 7.409303870107277
        }
      },
      "formatted_address": "126 Bashama Rd, Tudun Wada 800282, Kaduna, Nigeria",
      "google_map_url": "https://maps.google.com?q=10.5101128,7.410653699999999",
      "google_place_id": "EjIxMjYgQmFzaGFtYSBSZCwgVHVkdW4gV2FkYSA4MDAyODIsIEthZHVuYSwgTmlnZXJpYSIwEi4KFAoSCS_StwQWNU0QEXmyD7k2S9LyEH4qFAoSCa127SAWNU0QEasgYEVhEbSZ"
    }
  },
  {
    "id": "79671",
    "name": "ASIBITIN YARA I",
    "registration_area_id": "4198",
    "precise_location": null,
    "abbreviation": "050",
    "units": "050",
    "delimitation": "18/10/07/050",
    "remark": "NEW PU",
    "ward_id": "4198",
    "ward_name": "TUDUN WADA SOUTH",
    "local_government_id": "356",
    "local_government_name": "KADUNA SOUTH",
    "state_id": "18",
    "state_name": "KADUNA",
    "location": {
      "latitude": 10.5109019,
      "longitude": 7.4138912,
      "viewport": {
        "northeast": {
          "lat": 10.51226397989272,
          "lng": 7.415207329892723
        },
        "southwest": {
          "lat": 10.50956432010728,
          "lng": 7.412507670107279
        }
      },
      "formatted_address": "GC67+9H6, Soba Street, Tudun Wada 800282, Tudun Wada, Nigeria",
      "google_map_url": "https://maps.google.com?q=10.5109019,7.4138912",
      "google_place_id": "ChIJP2nBkrM1TRARKkAdh93fa1w"
    }
  },
  {
    "id": "79672",
    "name": "PC 10 MAKARFI ROAD I",
    "registration_area_id": "4198",
    "precise_location": null,
    "abbreviation": "051",
    "units": "051",
    "delimitation": "18/10/07/051",
    "remark": "NEW PU",
    "ward_id": "4198",
    "ward_name": "TUDUN WADA SOUTH",
    "local_government_id": "356",
    "local_government_name": "KADUNA SOUTH",
    "state_id": "18",
    "state_name": "KADUNA",
    "location": {
      "latitude": 10.5106663,
      "longitude": 7.413476900000001,
      "viewport": {
        "northeast": {
          "lat": 10.51201882989272,
          "lng": 7.414827679892723
        },
        "southwest": {
          "lat": 10.50931917010728,
          "lng": 7.412128020107279
        }
      },
      "formatted_address": "2 Makarfi Rd, Rigasa 800282, Kaduna, Nigeria",
      "google_map_url": "https://maps.google.com?q=10.5106663,7.413476900000001",
      "google_place_id": "ChIJs9l0iY81TRARPMgReCm8k3I"
    }
  },
  {
    "id": "79673",
    "name": "FB I IBRAHIM TAIWO RD I",
    "registration_area_id": "4198",
    "precise_location": null,
    "abbreviation": "052",
    "units": "052",
    "delimitation": "18/10/07/052",
    "remark": "NEW PU",
    "ward_id": "4198",
    "ward_name": "TUDUN WADA SOUTH",
    "local_government_id": "356",
    "local_government_name": "KADUNA SOUTH",
    "state_id": "18",
    "state_name": "KADUNA",
    "location": {
      "latitude": 10.5150369,
      "longitude": 7.409131299999999,
      "viewport": {
        "northeast": {
          "lat": 10.51640237989272,
          "lng": 7.410476929892722
        },
        "southwest": {
          "lat": 10.51370272010728,
          "lng": 7.407777270107278
        }
      },
      "formatted_address": "BB 2A, Ibrahim Taiwo Rd, Tudun Wada, Kaduna, Nigeria",
      "google_map_url": "https://maps.google.com?q=10.5150369,7.409131299999999",
      "google_place_id": "ChIJwReE9IE1TRARl0HQJlbkHSk"
    }
  },
  {
    "id": "79674",
    "name": "KY 4 IGABI ROAD I",
    "registration_area_id": "4198",
    "precise_location": null,
    "abbreviation": "053",
    "units": "053",
    "delimitation": "18/10/07/053",
    "remark": "NEW PU",
    "ward_id": "4198",
    "ward_name": "TUDUN WADA SOUTH",
    "local_government_id": "356",
    "local_government_name": "KADUNA SOUTH",
    "state_id": "18",
    "state_name": "KADUNA",
    "location": {
      "latitude": 10.5098617,
      "longitude": 7.414359399999999,
      "viewport": {
        "northeast": {
          "lat": 10.51333620000005,
          "lng": 7.423441499999997
        },
        "southwest": {
          "lat": 10.50675139999995,
          "lng": 7.404211099999999
        }
      },
      "formatted_address": "Igabi Rd, Tudun Wada 800282, Tudun Wada, Nigeria",
      "google_map_url": "https://maps.google.com?q=10.5098617,7.414359399999999",
      "google_place_id": "EjJJZ2FiaSBSZCwgVHVkdW4gTnVwYXdhIDgwMDI4MiwgVHVkdW4gV2FkYSwgTmlnZXJpYSIuKiwKFAoSCaHSFu09NU0QEWocfMPwLZ2fEhQKEgl994WEDzVNEBE3zmBxzX_YFQ"
    }
  },
  {
    "id": "79675",
    "name": "KY MASHI/ZANGO ROAD I",
    "registration_area_id": "4198",
    "precise_location": null,
    "abbreviation": "054",
    "units": "054",
    "delimitation": "18/10/07/054",
    "remark": "NEW PU",
    "ward_id": "4198",
    "ward_name": "TUDUN WADA SOUTH",
    "local_government_id": "356",
    "local_government_name": "KADUNA SOUTH",
    "state_id": "18",
    "state_name": "KADUNA",
    "location": {
      "latitude": 10.5050218,
      "longitude": 7.4075203,
      "viewport": {
        "northeast": {
          "lat": 10.50638727989272,
          "lng": 7.408945529892722
        },
        "southwest": {
          "lat": 10.50368762010728,
          "lng": 7.406245870107278
        }
      },
      "formatted_address": "Zango Rd, Tudun Wada 800282, Kaduna, Nigeria",
      "google_map_url": "https://maps.google.com?q=10.5050218,7.4075203",
      "google_place_id": "ChIJPXzczBA1TRAR1CQLOiaIpvk"
    }
  },
  {
    "id": "79676",
    "name": "G06 HAUSAWA ROAD I",
    "registration_area_id": "4198",
    "precise_location": null,
    "abbreviation": "055",
    "units": "055",
    "delimitation": "18/10/07/055",
    "remark": "NEW PU",
    "ward_id": "4198",
    "ward_name": "TUDUN WADA SOUTH",
    "local_government_id": "356",
    "local_government_name": "KADUNA SOUTH",
    "state_id": "18",
    "state_name": "KADUNA",
    "location": {
      "latitude": 10.513559,
      "longitude": 7.4098089,
      "viewport": {
        "northeast": {
          "lat": 10.51494862989272,
          "lng": 7.411173379892722
        },
        "southwest": {
          "lat": 10.51224897010728,
          "lng": 7.408473720107278
        }
      },
      "formatted_address": "GC75+CWP, Tudun Wada 800282, Kaduna, Nigeria",
      "google_map_url": "https://maps.google.com?q=10.513559,7.4098089",
      "google_place_id": "ChIJ34mlv681TRARt7OjInesyhI"
    }
  }
]