[
  {
    "id": "22712",
    "name": "WURO MAYO / BADARA  I,   KOFAR SARKI",
    "registration_area_id": "1244",
    "precise_location": null,
    "abbreviation": "001",
    "units": "001",
    "delimitation": "05/17/10/001",
    "remark": "EXISTING PU",
    "ward_id": "1244",
    "ward_name": "DULL",
    "local_government_id": "107",
    "local_government_name": "TAFAWA BALEWA",
    "state_id": "5",
    "state_name": "BAUCHI",
    "location": {
      "latitude": 10.2784037,
      "longitude": 9.7968781,
      "viewport": {
        "northeast": {
          "lat": 10.27976082989272,
          "lng": 9.798227729892721
        },
        "southwest": {
          "lat": 10.27706117010728,
          "lng": 9.795528070107277
        }
      },
      "formatted_address": "ATBU, 740102, Bauchi, Nigeria",
      "google_map_url": "https://maps.google.com?q=10.2784037,9.7968781",
      "google_place_id": "ChIJ73y4wRHaVBARhlgwTNs5kaM"
    }
  },
  {
    "id": "22713",
    "name": "WURO MAYO / BADARA  II,   KOFAR SARKI",
    "registration_area_id": "1244",
    "precise_location": null,
    "abbreviation": "002",
    "units": "002",
    "delimitation": "05/17/10/002",
    "remark": "EXISTING PU",
    "ward_id": "1244",
    "ward_name": "DULL",
    "local_government_id": "107",
    "local_government_name": "TAFAWA BALEWA",
    "state_id": "5",
    "state_name": "BAUCHI",
    "location": {
      "latitude": 10.2784037,
      "longitude": 9.7968781,
      "viewport": {
        "northeast": {
          "lat": 10.27976082989272,
          "lng": 9.798227729892721
        },
        "southwest": {
          "lat": 10.27706117010728,
          "lng": 9.795528070107277
        }
      },
      "formatted_address": "ATBU, 740102, Bauchi, Nigeria",
      "google_map_url": "https://maps.google.com?q=10.2784037,9.7968781",
      "google_place_id": "ChIJ73y4wRHaVBARhlgwTNs5kaM"
    }
  },
  {
    "id": "22714",
    "name": "SARKIN YAMMA,   KOFAR SARKI",
    "registration_area_id": "1244",
    "precise_location": null,
    "abbreviation": "003",
    "units": "003",
    "delimitation": "05/17/10/003",
    "remark": "EXISTING PU",
    "ward_id": "1244",
    "ward_name": "DULL",
    "local_government_id": "107",
    "local_government_name": "TAFAWA BALEWA",
    "state_id": "5",
    "state_name": "BAUCHI",
    "location": {
      "latitude": 10.2784037,
      "longitude": 9.7968781,
      "viewport": {
        "northeast": {
          "lat": 10.27976082989272,
          "lng": 9.798227729892721
        },
        "southwest": {
          "lat": 10.27706117010728,
          "lng": 9.795528070107277
        }
      },
      "formatted_address": "ATBU, 740102, Bauchi, Nigeria",
      "google_map_url": "https://maps.google.com?q=10.2784037,9.7968781",
      "google_place_id": "ChIJ73y4wRHaVBARhlgwTNs5kaM"
    }
  },
  {
    "id": "22715",
    "name": "GIDGID HAMMA,   PRIMARY SCHOOL",
    "registration_area_id": "1244",
    "precise_location": null,
    "abbreviation": "004",
    "units": "004",
    "delimitation": "05/17/10/004",
    "remark": "EXISTING PU",
    "ward_id": "1244",
    "ward_name": "DULL",
    "local_government_id": "107",
    "local_government_name": "TAFAWA BALEWA",
    "state_id": "5",
    "state_name": "BAUCHI",
    "location": {
      "latitude": 10.1068281,
      "longitude": 9.6595649,
      "viewport": {
        "northeast": {
          "lat": 10.10837747989272,
          "lng": 9.660903629892722
        },
        "southwest": {
          "lat": 10.10567782010728,
          "lng": 9.658203970107278
        }
      },
      "formatted_address": "Bauchi-Tafawa Balewa Rd, 740102, Lugge, Nigeria",
      "google_map_url": "https://maps.google.com?q=10.1068281,9.6595649",
      "google_place_id": "ChIJh8hk0dzpVBARryN4-iyq56s"
    }
  },
  {
    "id": "22716",
    "name": "MBAT DAYA,  KOFAR SARKI",
    "registration_area_id": "1244",
    "precise_location": null,
    "abbreviation": "005",
    "units": "005",
    "delimitation": "05/17/10/005",
    "remark": "EXISTING PU",
    "ward_id": "1244",
    "ward_name": "DULL",
    "local_government_id": "107",
    "local_government_name": "TAFAWA BALEWA",
    "state_id": "5",
    "state_name": "BAUCHI",
    "location": {
      "latitude": 10.280075,
      "longitude": 9.79455,
      "viewport": {
        "northeast": {
          "lat": 10.28144382989272,
          "lng": 9.795900379892721
        },
        "southwest": {
          "lat": 10.27874417010728,
          "lng": 9.793200720107277
        }
      },
      "formatted_address": "University Hostel Rd, 740102, Yelwa, Nigeria",
      "google_map_url": "https://maps.google.com?q=10.280075,9.79455",
      "google_place_id": "ChIJGfQX_pHbVBAR0uWcgIreF6s"
    }
  },
  {
    "id": "22717",
    "name": "DULL UNG.  I,  PRIMARY SCHOOL",
    "registration_area_id": "1244",
    "precise_location": null,
    "abbreviation": "006",
    "units": "006",
    "delimitation": "05/17/10/006",
    "remark": "EXISTING PU",
    "ward_id": "1244",
    "ward_name": "DULL",
    "local_government_id": "107",
    "local_government_name": "TAFAWA BALEWA",
    "state_id": "5",
    "state_name": "BAUCHI",
    "location": {
      "latitude": 10.3131991,
      "longitude": 9.8254878,
      "viewport": {
        "northeast": {
          "lat": 10.31437592989272,
          "lng": 9.826858679892723
        },
        "southwest": {
          "lat": 10.31167627010728,
          "lng": 9.82415902010728
        }
      },
      "formatted_address": "8R7G+75X, Mohammed Bello, Kirfi Road, Bauchi, Nigeria",
      "google_map_url": "https://maps.google.com?q=10.3131991,9.8254878",
      "google_place_id": "ChIJQxXjWTjXVBARjhMWulMBi8g"
    }
  },
  {
    "id": "22718",
    "name": "DULL UNG.  II,  PRIMARY SCHOOL",
    "registration_area_id": "1244",
    "precise_location": null,
    "abbreviation": "007",
    "units": "007",
    "delimitation": "05/17/10/007",
    "remark": "EXISTING PU",
    "ward_id": "1244",
    "ward_name": "DULL",
    "local_government_id": "107",
    "local_government_name": "TAFAWA BALEWA",
    "state_id": "5",
    "state_name": "BAUCHI",
    "location": {
      "latitude": 10.2784037,
      "longitude": 9.7968781,
      "viewport": {
        "northeast": {
          "lat": 10.27976082989272,
          "lng": 9.798227729892721
        },
        "southwest": {
          "lat": 10.27706117010728,
          "lng": 9.795528070107277
        }
      },
      "formatted_address": "ATBU, 740102, Bauchi, Nigeria",
      "google_map_url": "https://maps.google.com?q=10.2784037,9.7968781",
      "google_place_id": "ChIJ73y4wRHaVBARhlgwTNs5kaM"
    }
  },
  {
    "id": "22719",
    "name": "BADAKOSHI,  KOFAR SARKI",
    "registration_area_id": "1244",
    "precise_location": null,
    "abbreviation": "008",
    "units": "008",
    "delimitation": "05/17/10/008",
    "remark": "EXISTING PU",
    "ward_id": "1244",
    "ward_name": "DULL",
    "local_government_id": "107",
    "local_government_name": "TAFAWA BALEWA",
    "state_id": "5",
    "state_name": "BAUCHI",
    "location": {
      "latitude": 9.7560479,
      "longitude": 9.556221899999999,
      "viewport": {
        "northeast": {
          "lat": 9.7807581,
          "lng": 9.568546
        },
        "southwest": {
          "lat": 9.7493689,
          "lng": 9.534934999999999
        }
      },
      "formatted_address": "741102, Tafawa Balewa, Nigeria",
      "google_map_url": "https://maps.google.com?q=9.7560479,9.556221899999999",
      "google_place_id": "ChIJKdQ0o-ZfVBARe4hN81oru7Y"
    }
  },
  {
    "id": "22720",
    "name": "KANTANA,  KOFAR SARKI",
    "registration_area_id": "1244",
    "precise_location": null,
    "abbreviation": "009",
    "units": "009",
    "delimitation": "05/17/10/009",
    "remark": "EXISTING PU",
    "ward_id": "1244",
    "ward_name": "DULL",
    "local_government_id": "107",
    "local_government_name": "TAFAWA BALEWA",
    "state_id": "5",
    "state_name": "BAUCHI",
    "location": {
      "latitude": 10.2784037,
      "longitude": 9.7968781,
      "viewport": {
        "northeast": {
          "lat": 10.27976082989272,
          "lng": 9.798227729892721
        },
        "southwest": {
          "lat": 10.27706117010728,
          "lng": 9.795528070107277
        }
      },
      "formatted_address": "ATBU, 740102, Bauchi, Nigeria",
      "google_map_url": "https://maps.google.com?q=10.2784037,9.7968781",
      "google_place_id": "ChIJ73y4wRHaVBARhlgwTNs5kaM"
    }
  },
  {
    "id": "22721",
    "name": "MBALANBULA,  PRIMARY SCHOOL",
    "registration_area_id": "1244",
    "precise_location": null,
    "abbreviation": "010",
    "units": "010",
    "delimitation": "05/17/10/010",
    "remark": "EXISTING PU",
    "ward_id": "1244",
    "ward_name": "DULL",
    "local_government_id": "107",
    "local_government_name": "TAFAWA BALEWA",
    "state_id": "5",
    "state_name": "BAUCHI",
    "location": {
      "latitude": 9.755970699999999,
      "longitude": 9.5562183,
      "viewport": {
        "northeast": {
          "lat": 9.757355629892723,
          "lng": 9.557580079892722
        },
        "southwest": {
          "lat": 9.75465597010728,
          "lng": 9.554880420107278
        }
      },
      "formatted_address": "Ungwar, Tafawa Balewa, Nigeria",
      "google_map_url": "https://maps.google.com?q=9.755970699999999,9.5562183",
      "google_place_id": "ChIJW2n_7PBfVBARdedXmyEb30I"
    }
  },
  {
    "id": "22722",
    "name": "MBAT BIYU,  PRIMARY SCHOOL",
    "registration_area_id": "1244",
    "precise_location": null,
    "abbreviation": "011",
    "units": "011",
    "delimitation": "05/17/10/011",
    "remark": "EXISTING PU",
    "ward_id": "1244",
    "ward_name": "DULL",
    "local_government_id": "107",
    "local_government_name": "TAFAWA BALEWA",
    "state_id": "5",
    "state_name": "BAUCHI",
    "location": {
      "latitude": 10.278406,
      "longitude": 9.796878000000001,
      "viewport": {
        "northeast": {
          "lat": 10.27976082989272,
          "lng": 9.798227729892721
        },
        "southwest": {
          "lat": 10.27706117010728,
          "lng": 9.795528070107277
        }
      },
      "formatted_address": "7QHW+9Q6, Lushi, Yelwa, Dads Road, Bauchi, Nigeria",
      "google_map_url": "https://maps.google.com?q=10.278406,9.796878000000001",
      "google_place_id": "ChIJ5ZOYTbHbVBARwYd6tHQ_2AU"
    }
  },
  {
    "id": "22723",
    "name": "MBUTBIN,  PRIMARY SCHOOL",
    "registration_area_id": "1244",
    "precise_location": null,
    "abbreviation": "012",
    "units": "012",
    "delimitation": "05/17/10/012",
    "remark": "EXISTING PU",
    "ward_id": "1244",
    "ward_name": "DULL",
    "local_government_id": "107",
    "local_government_name": "TAFAWA BALEWA",
    "state_id": "5",
    "state_name": "BAUCHI",
    "location": {
      "latitude": 9.7624271,
      "longitude": 9.5531559,
      "viewport": {
        "northeast": {
          "lat": 9.763657779892723,
          "lng": 9.554514779892722
        },
        "southwest": {
          "lat": 9.76095812010728,
          "lng": 9.551815120107278
        }
      },
      "formatted_address": "QH63+W5Q, 741102, Tafawa Balewa, Nigeria",
      "google_map_url": "https://maps.google.com?q=9.7624271,9.5531559",
      "google_place_id": "ChIJUWN9evlfVBARG2wi6DBcPL8"
    }
  },
  {
    "id": "22724",
    "name": "GWAMMADAJI  I,  PRIMARY SCHOOL",
    "registration_area_id": "1244",
    "precise_location": null,
    "abbreviation": "013",
    "units": "013",
    "delimitation": "05/17/10/013",
    "remark": "EXISTING PU",
    "ward_id": "1244",
    "ward_name": "DULL",
    "local_government_id": "107",
    "local_government_name": "TAFAWA BALEWA",
    "state_id": "5",
    "state_name": "BAUCHI",
    "location": {
      "latitude": 9.788993,
      "longitude": 9.888914999999999,
      "viewport": {
        "northeast": {
          "lat": 9.790477279892722,
          "lng": 9.89010357989272
        },
        "southwest": {
          "lat": 9.787777620107278,
          "lng": 9.887403920107277
        }
      },
      "formatted_address": "QVQQ+HHV, 741102, Gwammadaji, Nigeria",
      "google_map_url": "https://maps.google.com?q=9.788993,9.888914999999999",
      "google_place_id": "ChIJJTJ3FMX_VBARZVWhSwVT5io"
    }
  },
  {
    "id": "22725",
    "name": "GWAMMADAJI  II,  PRIMARY SCHOOL",
    "registration_area_id": "1244",
    "precise_location": null,
    "abbreviation": "014",
    "units": "014",
    "delimitation": "05/17/10/014",
    "remark": "EXISTING PU",
    "ward_id": "1244",
    "ward_name": "DULL",
    "local_government_id": "107",
    "local_government_name": "TAFAWA BALEWA",
    "state_id": "5",
    "state_name": "BAUCHI",
    "location": {
      "latitude": 9.788993,
      "longitude": 9.888914999999999,
      "viewport": {
        "northeast": {
          "lat": 9.790477279892722,
          "lng": 9.89010357989272
        },
        "southwest": {
          "lat": 9.787777620107278,
          "lng": 9.887403920107277
        }
      },
      "formatted_address": "QVQQ+HHV, 741102, Gwammadaji, Nigeria",
      "google_map_url": "https://maps.google.com?q=9.788993,9.888914999999999",
      "google_place_id": "ChIJJTJ3FMX_VBARZVWhSwVT5io"
    }
  },
  {
    "id": "22726",
    "name": "WURNO  I,  PRIMARY SCHOOL",
    "registration_area_id": "1244",
    "precise_location": null,
    "abbreviation": "015",
    "units": "015",
    "delimitation": "05/17/10/015",
    "remark": "EXISTING PU",
    "ward_id": "1244",
    "ward_name": "DULL",
    "local_government_id": "107",
    "local_government_name": "TAFAWA BALEWA",
    "state_id": "5",
    "state_name": "BAUCHI",
    "location": {
      "latitude": 9.795933999999999,
      "longitude": 9.894209,
      "viewport": {
        "northeast": {
          "lat": 9.797917179892721,
          "lng": 9.896130929892722
        },
        "southwest": {
          "lat": 9.795217520107277,
          "lng": 9.893431270107278
        }
      },
      "formatted_address": "QVWV+9MG, 741102, Gwammadaji, Nigeria",
      "google_map_url": "https://maps.google.com?q=9.795933999999999,9.894209",
      "google_place_id": "ChIJ6_qhYtH_VBARLjmaYeqftf4"
    }
  },
  {
    "id": "22727",
    "name": "WURNO  II,  PRIMARY SCHOOL",
    "registration_area_id": "1244",
    "precise_location": null,
    "abbreviation": "016",
    "units": "016",
    "delimitation": "05/17/10/016",
    "remark": "EXISTING PU",
    "ward_id": "1244",
    "ward_name": "DULL",
    "local_government_id": "107",
    "local_government_name": "TAFAWA BALEWA",
    "state_id": "5",
    "state_name": "BAUCHI",
    "location": {
      "latitude": 9.795933999999999,
      "longitude": 9.894209,
      "viewport": {
        "northeast": {
          "lat": 9.797917179892721,
          "lng": 9.896130929892722
        },
        "southwest": {
          "lat": 9.795217520107277,
          "lng": 9.893431270107278
        }
      },
      "formatted_address": "QVWV+9MG, 741102, Gwammadaji, Nigeria",
      "google_map_url": "https://maps.google.com?q=9.795933999999999,9.894209",
      "google_place_id": "ChIJ6_qhYtH_VBARLjmaYeqftf4"
    }
  },
  {
    "id": "22728",
    "name": "GWALJARENJI,  PRIMARY SCHOOL",
    "registration_area_id": "1244",
    "precise_location": null,
    "abbreviation": "017",
    "units": "017",
    "delimitation": "05/17/10/017",
    "remark": "EXISTING PU",
    "ward_id": "1244",
    "ward_name": "DULL",
    "local_government_id": "107",
    "local_government_name": "TAFAWA BALEWA",
    "state_id": "5",
    "state_name": "BAUCHI",
    "location": {
      "latitude": 10.179334,
      "longitude": 9.699277,
      "viewport": {
        "northeast": {
          "lat": 10.18070327989272,
          "lng": 9.700601929892724
        },
        "southwest": {
          "lat": 10.17800362010728,
          "lng": 9.697902270107278
        }
      },
      "formatted_address": "5MHX+PPJ, Bauchi-Tafawa Balewa Rd, 740102, Bauchi, Nigeria",
      "google_map_url": "https://maps.google.com?q=10.179334,9.699277",
      "google_place_id": "ChIJOWGxvBXDVBARH37DqZW7mmE"
    }
  },
  {
    "id": "22729",
    "name": "GWARDIN,   PRIMARY SCHOOL",
    "registration_area_id": "1244",
    "precise_location": null,
    "abbreviation": "018",
    "units": "018",
    "delimitation": "05/17/10/018",
    "remark": "EXISTING PU",
    "ward_id": "1244",
    "ward_name": "DULL",
    "local_government_id": "107",
    "local_government_name": "TAFAWA BALEWA",
    "state_id": "5",
    "state_name": "BAUCHI",
    "location": {
      "latitude": 10.179334,
      "longitude": 9.699277,
      "viewport": {
        "northeast": {
          "lat": 10.18070327989272,
          "lng": 9.700601929892724
        },
        "southwest": {
          "lat": 10.17800362010728,
          "lng": 9.697902270107278
        }
      },
      "formatted_address": "5MHX+PPJ, Bauchi-Tafawa Balewa Rd, 740102, Bauchi, Nigeria",
      "google_map_url": "https://maps.google.com?q=10.179334,9.699277",
      "google_place_id": "ChIJOWGxvBXDVBARH37DqZW7mmE"
    }
  },
  {
    "id": "22730",
    "name": "UNGUWAR GALADIMA,   PRIMARY SCHOOL",
    "registration_area_id": "1244",
    "precise_location": null,
    "abbreviation": "019",
    "units": "019",
    "delimitation": "05/17/10/019",
    "remark": "EXISTING PU",
    "ward_id": "1244",
    "ward_name": "DULL",
    "local_government_id": "107",
    "local_government_name": "TAFAWA BALEWA",
    "state_id": "5",
    "state_name": "BAUCHI",
    "location": {
      "latitude": 10.8874058,
      "longitude": 10.3572164,
      "viewport": {
        "northeast": {
          "lat": 10.88875297989272,
          "lng": 10.35855702989272
        },
        "southwest": {
          "lat": 10.88605332010728,
          "lng": 10.35585737010728
        }
      },
      "formatted_address": "V9P4+XW6, 750106, Shadareki, Nigeria",
      "google_map_url": "https://maps.google.com?q=10.8874058,10.3572164",
      "google_place_id": "ChIJf9aV5a6WqhERb-Knk7QS33E"
    }
  },
  {
    "id": "22731",
    "name": "BURGA / GASHIYA  I,   PRIMARY SCHOOL",
    "registration_area_id": "1244",
    "precise_location": null,
    "abbreviation": "020",
    "units": "020",
    "delimitation": "05/17/10/020",
    "remark": "EXISTING PU",
    "ward_id": "1244",
    "ward_name": "DULL",
    "local_government_id": "107",
    "local_government_name": "TAFAWA BALEWA",
    "state_id": "5",
    "state_name": "BAUCHI",
    "location": {
      "latitude": 10.179334,
      "longitude": 9.699277,
      "viewport": {
        "northeast": {
          "lat": 10.18070327989272,
          "lng": 9.700601929892724
        },
        "southwest": {
          "lat": 10.17800362010728,
          "lng": 9.697902270107278
        }
      },
      "formatted_address": "5MHX+PPJ, Bauchi-Tafawa Balewa Rd, 740102, Bauchi, Nigeria",
      "google_map_url": "https://maps.google.com?q=10.179334,9.699277",
      "google_place_id": "ChIJOWGxvBXDVBARH37DqZW7mmE"
    }
  },
  {
    "id": "22732",
    "name": "BURGA / GASHIYA   II,   PRIMARY SCHOOL",
    "registration_area_id": "1244",
    "precise_location": null,
    "abbreviation": "021",
    "units": "021",
    "delimitation": "05/17/10/021",
    "remark": "EXISTING PU",
    "ward_id": "1244",
    "ward_name": "DULL",
    "local_government_id": "107",
    "local_government_name": "TAFAWA BALEWA",
    "state_id": "5",
    "state_name": "BAUCHI",
    "location": {
      "latitude": 10.179334,
      "longitude": 9.699277,
      "viewport": {
        "northeast": {
          "lat": 10.18070327989272,
          "lng": 9.700601929892724
        },
        "southwest": {
          "lat": 10.17800362010728,
          "lng": 9.697902270107278
        }
      },
      "formatted_address": "5MHX+PPJ, Bauchi-Tafawa Balewa Rd, 740102, Bauchi, Nigeria",
      "google_map_url": "https://maps.google.com?q=10.179334,9.699277",
      "google_place_id": "ChIJOWGxvBXDVBARH37DqZW7mmE"
    }
  },
  {
    "id": "22733",
    "name": "MUNBARLA",
    "registration_area_id": "1244",
    "precise_location": null,
    "abbreviation": "022",
    "units": "022",
    "delimitation": "05/17/10/022",
    "remark": "NEW PU",
    "ward_id": "1244",
    "ward_name": "DULL",
    "local_government_id": "107",
    "local_government_name": "TAFAWA BALEWA",
    "state_id": "5",
    "state_name": "BAUCHI",
    "location": {
      "latitude": 10.2784037,
      "longitude": 9.7968781,
      "viewport": {
        "northeast": {
          "lat": 10.27976082989272,
          "lng": 9.798227729892721
        },
        "southwest": {
          "lat": 10.27706117010728,
          "lng": 9.795528070107277
        }
      },
      "formatted_address": "ATBU, 740102, Bauchi, Nigeria",
      "google_map_url": "https://maps.google.com?q=10.2784037,9.7968781",
      "google_place_id": "ChIJ73y4wRHaVBARhlgwTNs5kaM"
    }
  },
  {
    "id": "22734",
    "name": "V.T.C DULL",
    "registration_area_id": "1244",
    "precise_location": null,
    "abbreviation": "023",
    "units": "023",
    "delimitation": "05/17/10/023",
    "remark": "NEW PU",
    "ward_id": "1244",
    "ward_name": "DULL",
    "local_government_id": "107",
    "local_government_name": "TAFAWA BALEWA",
    "state_id": "5",
    "state_name": "BAUCHI",
    "location": {
      "latitude": 10.2784037,
      "longitude": 9.7968781,
      "viewport": {
        "northeast": {
          "lat": 10.27976082989272,
          "lng": 9.798227729892721
        },
        "southwest": {
          "lat": 10.27706117010728,
          "lng": 9.795528070107277
        }
      },
      "formatted_address": "ATBU, 740102, Bauchi, Nigeria",
      "google_map_url": "https://maps.google.com?q=10.2784037,9.7968781",
      "google_place_id": "ChIJ73y4wRHaVBARhlgwTNs5kaM"
    }
  },
  {
    "id": "22735",
    "name": "YOLA",
    "registration_area_id": "1244",
    "precise_location": null,
    "abbreviation": "024",
    "units": "024",
    "delimitation": "05/17/10/024",
    "remark": "NEW PU",
    "ward_id": "1244",
    "ward_name": "DULL",
    "local_government_id": "107",
    "local_government_name": "TAFAWA BALEWA",
    "state_id": "5",
    "state_name": "BAUCHI",
    "location": {
      "latitude": 10.280075,
      "longitude": 9.79455,
      "viewport": {
        "northeast": {
          "lat": 10.28144382989272,
          "lng": 9.795900379892721
        },
        "southwest": {
          "lat": 10.27874417010728,
          "lng": 9.793200720107277
        }
      },
      "formatted_address": "University Hostel Rd, 740102, Yelwa, Nigeria",
      "google_map_url": "https://maps.google.com?q=10.280075,9.79455",
      "google_place_id": "ChIJGfQX_pHbVBAR0uWcgIreF6s"
    }
  },
  {
    "id": "22736",
    "name": "BANGUB",
    "registration_area_id": "1244",
    "precise_location": null,
    "abbreviation": "025",
    "units": "025",
    "delimitation": "05/17/10/025",
    "remark": "NEW PU",
    "ward_id": "1244",
    "ward_name": "DULL",
    "local_government_id": "107",
    "local_government_name": "TAFAWA BALEWA",
    "state_id": "5",
    "state_name": "BAUCHI",
    "location": {
      "latitude": 10.2784037,
      "longitude": 9.7968781,
      "viewport": {
        "northeast": {
          "lat": 10.27976082989272,
          "lng": 9.798227729892721
        },
        "southwest": {
          "lat": 10.27706117010728,
          "lng": 9.795528070107277
        }
      },
      "formatted_address": "ATBU, 740102, Bauchi, Nigeria",
      "google_map_url": "https://maps.google.com?q=10.2784037,9.7968781",
      "google_place_id": "ChIJ73y4wRHaVBARhlgwTNs5kaM"
    }
  },
  {
    "id": "22737",
    "name": "MAGALAM N. HAYA",
    "registration_area_id": "1244",
    "precise_location": null,
    "abbreviation": "026",
    "units": "026",
    "delimitation": "05/17/10/026",
    "remark": "NEW PU",
    "ward_id": "1244",
    "ward_name": "DULL",
    "local_government_id": "107",
    "local_government_name": "TAFAWA BALEWA",
    "state_id": "5",
    "state_name": "BAUCHI",
    "location": {
      "latitude": 10.2784037,
      "longitude": 9.7968781,
      "viewport": {
        "northeast": {
          "lat": 10.27976082989272,
          "lng": 9.798227729892721
        },
        "southwest": {
          "lat": 10.27706117010728,
          "lng": 9.795528070107277
        }
      },
      "formatted_address": "ATBU, 740102, Bauchi, Nigeria",
      "google_map_url": "https://maps.google.com?q=10.2784037,9.7968781",
      "google_place_id": "ChIJ73y4wRHaVBARhlgwTNs5kaM"
    }
  },
  {
    "id": "22738",
    "name": "GANSHIYA",
    "registration_area_id": "1244",
    "precise_location": null,
    "abbreviation": "027",
    "units": "027",
    "delimitation": "05/17/10/027",
    "remark": "NEW PU",
    "ward_id": "1244",
    "ward_name": "DULL",
    "local_government_id": "107",
    "local_government_name": "TAFAWA BALEWA",
    "state_id": "5",
    "state_name": "BAUCHI",
    "location": {
      "latitude": 10.2784037,
      "longitude": 9.7968781,
      "viewport": {
        "northeast": {
          "lat": 10.27976082989272,
          "lng": 9.798227729892721
        },
        "southwest": {
          "lat": 10.27706117010728,
          "lng": 9.795528070107277
        }
      },
      "formatted_address": "ATBU, 740102, Bauchi, Nigeria",
      "google_map_url": "https://maps.google.com?q=10.2784037,9.7968781",
      "google_place_id": "ChIJ73y4wRHaVBARhlgwTNs5kaM"
    }
  }
]