[
  {
    "id": "102084",
    "name": "FELANDE I",
    "registration_area_id": "5213",
    "precise_location": null,
    "abbreviation": "001",
    "units": "001",
    "delimitation": "21/03/03/001",
    "remark": "EXISTING PU",
    "ward_id": "5213",
    "ward_name": "FELANDE",
    "local_government_id": "450",
    "local_government_name": "ARGUNGU",
    "state_id": "21",
    "state_name": "KEBBI",
    "location": {
      "latitude": 12.6639469,
      "longitude": 4.5108862,
      "viewport": {
        "northeast": {
          "lat": 12.7286038,
          "lng": 4.567062
        },
        "southwest": {
          "lat": 12.6286715,
          "lng": 4.4466601
        }
      },
      "formatted_address": "Felande, 861101, Nigeria",
      "google_map_url": "https://maps.google.com?q=12.6639469,4.5108862",
      "google_place_id": "ChIJU3hi3iasyRERYm4HYFrKL98"
    }
  },
  {
    "id": "102085",
    "name": "FELANDE II",
    "registration_area_id": "5213",
    "precise_location": null,
    "abbreviation": "002",
    "units": "002",
    "delimitation": "21/03/03/002",
    "remark": "EXISTING PU",
    "ward_id": "5213",
    "ward_name": "FELANDE",
    "local_government_id": "450",
    "local_government_name": "ARGUNGU",
    "state_id": "21",
    "state_name": "KEBBI",
    "location": {
      "latitude": 12.6639469,
      "longitude": 4.5108862,
      "viewport": {
        "northeast": {
          "lat": 12.7286038,
          "lng": 4.567062
        },
        "southwest": {
          "lat": 12.6286715,
          "lng": 4.4466601
        }
      },
      "formatted_address": "Felande, 861101, Nigeria",
      "google_map_url": "https://maps.google.com?q=12.6639469,4.5108862",
      "google_place_id": "ChIJU3hi3iasyRERYm4HYFrKL98"
    }
  },
  {
    "id": "102086",
    "name": "SABON GARIN KADUBA",
    "registration_area_id": "5213",
    "precise_location": null,
    "abbreviation": "003",
    "units": "003",
    "delimitation": "21/03/03/003",
    "remark": "EXISTING PU",
    "ward_id": "5213",
    "ward_name": "FELANDE",
    "local_government_id": "450",
    "local_government_name": "ARGUNGU",
    "state_id": "21",
    "state_name": "KEBBI",
    "location": {
      "latitude": 12.7494718,
      "longitude": 4.5366582,
      "viewport": {
        "northeast": {
          "lat": 12.7707581,
          "lng": 4.5621581
        },
        "southwest": {
          "lat": 12.705247,
          "lng": 4.506880000000001
        }
      },
      "formatted_address": "Argungu, Nigeria",
      "google_map_url": "https://maps.google.com?q=12.7494718,4.5366582",
      "google_place_id": "ChIJjzeXyOOsyRERSuUITCTrbiY"
    }
  },
  {
    "id": "102087",
    "name": "DANKIRYA",
    "registration_area_id": "5213",
    "precise_location": null,
    "abbreviation": "004",
    "units": "004",
    "delimitation": "21/03/03/004",
    "remark": "EXISTING PU",
    "ward_id": "5213",
    "ward_name": "FELANDE",
    "local_government_id": "450",
    "local_government_name": "ARGUNGU",
    "state_id": "21",
    "state_name": "KEBBI",
    "location": {
      "latitude": 12.6487777,
      "longitude": 4.476113499999999,
      "viewport": {
        "northeast": {
          "lat": 12.6517351,
          "lng": 4.4796606
        },
        "southwest": {
          "lat": 12.6450353,
          "lng": 4.4723654
        }
      },
      "formatted_address": "861101, Dankiria, Nigeria",
      "google_map_url": "https://maps.google.com?q=12.6487777,4.476113499999999",
      "google_place_id": "ChIJ96V3BDmpyRERKVJmrpcMKXA"
    }
  },
  {
    "id": "102088",
    "name": "BORAYE",
    "registration_area_id": "5213",
    "precise_location": null,
    "abbreviation": "005",
    "units": "005",
    "delimitation": "21/03/03/005",
    "remark": "EXISTING PU",
    "ward_id": "5213",
    "ward_name": "FELANDE",
    "local_government_id": "450",
    "local_government_name": "ARGUNGU",
    "state_id": "21",
    "state_name": "KEBBI",
    "location": {
      "latitude": 12.7420198,
      "longitude": 4.525436,
      "viewport": {
        "northeast": {
          "lat": 12.74323532989272,
          "lng": 4.526770529892721
        },
        "southwest": {
          "lat": 12.74053567010728,
          "lng": 4.524070870107277
        }
      },
      "formatted_address": "Ahmadu Bello way, 861101, Argungu, Nigeria",
      "google_map_url": "https://maps.google.com?q=12.7420198,4.525436",
      "google_place_id": "ChIJ07-XuLStyRERIf0jBKLBfyE"
    }
  },
  {
    "id": "102089",
    "name": "JADA I AND II",
    "registration_area_id": "5213",
    "precise_location": null,
    "abbreviation": "006",
    "units": "006",
    "delimitation": "21/03/03/006",
    "remark": "EXISTING PU",
    "ward_id": "5213",
    "ward_name": "FELANDE",
    "local_government_id": "450",
    "local_government_name": "ARGUNGU",
    "state_id": "21",
    "state_name": "KEBBI",
    "location": {
      "latitude": 12.6979673,
      "longitude": 4.457609400000001,
      "viewport": {
        "northeast": {
          "lat": 12.69919582989272,
          "lng": 4.459059279892722
        },
        "southwest": {
          "lat": 12.69649617010728,
          "lng": 4.456359620107278
        }
      },
      "formatted_address": "861103, Jada, Nigeria",
      "google_map_url": "https://maps.google.com?q=12.6979673,4.457609400000001",
      "google_place_id": "ChIJH5QWaMCryRERlwt3_LdL7PY"
    }
  },
  {
    "id": "102090",
    "name": "SABON GARIN BACHAKA",
    "registration_area_id": "5213",
    "precise_location": null,
    "abbreviation": "007",
    "units": "007",
    "delimitation": "21/03/03/007",
    "remark": "EXISTING PU",
    "ward_id": "5213",
    "ward_name": "FELANDE",
    "local_government_id": "450",
    "local_government_name": "ARGUNGU",
    "state_id": "21",
    "state_name": "KEBBI",
    "location": null
  },
  {
    "id": "102091",
    "name": "FAKON SARKI",
    "registration_area_id": "5213",
    "precise_location": null,
    "abbreviation": "008",
    "units": "008",
    "delimitation": "21/03/03/008",
    "remark": "EXISTING PU",
    "ward_id": "5213",
    "ward_name": "FELANDE",
    "local_government_id": "450",
    "local_government_name": "ARGUNGU",
    "state_id": "21",
    "state_name": "KEBBI",
    "location": {
      "latitude": 12.7420198,
      "longitude": 4.525436,
      "viewport": {
        "northeast": {
          "lat": 12.74323532989272,
          "lng": 4.526770529892721
        },
        "southwest": {
          "lat": 12.74053567010728,
          "lng": 4.524070870107277
        }
      },
      "formatted_address": "Ahmadu Bello way, 861101, Argungu, Nigeria",
      "google_map_url": "https://maps.google.com?q=12.7420198,4.525436",
      "google_place_id": "ChIJ07-XuLStyRERIf0jBKLBfyE"
    }
  },
  {
    "id": "102092",
    "name": "TUNGAR NOMA",
    "registration_area_id": "5213",
    "precise_location": null,
    "abbreviation": "009",
    "units": "009",
    "delimitation": "21/03/03/009",
    "remark": "EXISTING PU",
    "ward_id": "5213",
    "ward_name": "FELANDE",
    "local_government_id": "450",
    "local_government_name": "ARGUNGU",
    "state_id": "21",
    "state_name": "KEBBI",
    "location": null
  },
  {
    "id": "102093",
    "name": "TUNGAR KWALAMA",
    "registration_area_id": "5213",
    "precise_location": null,
    "abbreviation": "010",
    "units": "010",
    "delimitation": "21/03/03/010",
    "remark": "EXISTING PU",
    "ward_id": "5213",
    "ward_name": "FELANDE",
    "local_government_id": "450",
    "local_government_name": "ARGUNGU",
    "state_id": "21",
    "state_name": "KEBBI",
    "location": {
      "latitude": 12.7420198,
      "longitude": 4.525436,
      "viewport": {
        "northeast": {
          "lat": 12.74323532989272,
          "lng": 4.526770529892721
        },
        "southwest": {
          "lat": 12.74053567010728,
          "lng": 4.524070870107277
        }
      },
      "formatted_address": "Ahmadu Bello way, 861101, Argungu, Nigeria",
      "google_map_url": "https://maps.google.com?q=12.7420198,4.525436",
      "google_place_id": "ChIJ07-XuLStyRERIf0jBKLBfyE"
    }
  },
  {
    "id": "102094",
    "name": "KUKOKI",
    "registration_area_id": "5213",
    "precise_location": null,
    "abbreviation": "011",
    "units": "011",
    "delimitation": "21/03/03/011",
    "remark": "EXISTING PU",
    "ward_id": "5213",
    "ward_name": "FELANDE",
    "local_government_id": "450",
    "local_government_name": "ARGUNGU",
    "state_id": "21",
    "state_name": "KEBBI",
    "location": {
      "latitude": 12.7420198,
      "longitude": 4.525436,
      "viewport": {
        "northeast": {
          "lat": 12.74323532989272,
          "lng": 4.526770529892721
        },
        "southwest": {
          "lat": 12.74053567010728,
          "lng": 4.524070870107277
        }
      },
      "formatted_address": "Ahmadu Bello way, 861101, Argungu, Nigeria",
      "google_map_url": "https://maps.google.com?q=12.7420198,4.525436",
      "google_place_id": "ChIJ07-XuLStyRERIf0jBKLBfyE"
    }
  },
  {
    "id": "102095",
    "name": "KADUBBA HASSAN",
    "registration_area_id": "5213",
    "precise_location": null,
    "abbreviation": "012",
    "units": "012",
    "delimitation": "21/03/03/012",
    "remark": "EXISTING PU",
    "ward_id": "5213",
    "ward_name": "FELANDE",
    "local_government_id": "450",
    "local_government_name": "ARGUNGU",
    "state_id": "21",
    "state_name": "KEBBI",
    "location": {
      "latitude": 12.7419441,
      "longitude": 4.525426299999999,
      "viewport": {
        "northeast": {
          "lat": 12.74319692989272,
          "lng": 4.526765679892722
        },
        "southwest": {
          "lat": 12.74049727010728,
          "lng": 4.524066020107278
        }
      },
      "formatted_address": "PGRG+Q5F, 861101, Argungu, Nigeria",
      "google_map_url": "https://maps.google.com?q=12.7419441,4.525426299999999",
      "google_place_id": "ChIJQZVxOx-tyRERdRWm1ytT9-A"
    }
  },
  {
    "id": "102096",
    "name": "BELA",
    "registration_area_id": "5213",
    "precise_location": null,
    "abbreviation": "013",
    "units": "013",
    "delimitation": "21/03/03/013",
    "remark": "EXISTING PU",
    "ward_id": "5213",
    "ward_name": "FELANDE",
    "local_government_id": "450",
    "local_government_name": "ARGUNGU",
    "state_id": "21",
    "state_name": "KEBBI",
    "location": {
      "latitude": 12.6938733,
      "longitude": 4.6001713,
      "viewport": {
        "northeast": {
          "lat": 12.6952021,
          "lng": 4.601602
        },
        "southwest": {
          "lat": 12.6852019,
          "lng": 4.5943799
        }
      },
      "formatted_address": "861101, Bela, Nigeria",
      "google_map_url": "https://maps.google.com?q=12.6938733,4.6001713",
      "google_place_id": "ChIJOZDTtUuyyRERHZzrqJMU-IA"
    }
  },
  {
    "id": "102097",
    "name": "UNGUWAR MALI",
    "registration_area_id": "5213",
    "precise_location": null,
    "abbreviation": "014",
    "units": "014",
    "delimitation": "21/03/03/014",
    "remark": "EXISTING PU",
    "ward_id": "5213",
    "ward_name": "FELANDE",
    "local_government_id": "450",
    "local_government_name": "ARGUNGU",
    "state_id": "21",
    "state_name": "KEBBI",
    "location": {
      "latitude": 12.7420198,
      "longitude": 4.525436,
      "viewport": {
        "northeast": {
          "lat": 12.74323532989272,
          "lng": 4.526770529892721
        },
        "southwest": {
          "lat": 12.74053567010728,
          "lng": 4.524070870107277
        }
      },
      "formatted_address": "Ahmadu Bello way, 861101, Argungu, Nigeria",
      "google_map_url": "https://maps.google.com?q=12.7420198,4.525436",
      "google_place_id": "ChIJ07-XuLStyRERIf0jBKLBfyE"
    }
  },
  {
    "id": "102098",
    "name": "TUNGAR MAIDAWA",
    "registration_area_id": "5213",
    "precise_location": null,
    "abbreviation": "015",
    "units": "015",
    "delimitation": "21/03/03/015",
    "remark": "EXISTING PU",
    "ward_id": "5213",
    "ward_name": "FELANDE",
    "local_government_id": "450",
    "local_government_name": "ARGUNGU",
    "state_id": "21",
    "state_name": "KEBBI",
    "location": null
  },
  {
    "id": "102099",
    "name": "BACHAKA 1 BOREHOLE",
    "registration_area_id": "5213",
    "precise_location": null,
    "abbreviation": "016",
    "units": "016",
    "delimitation": "21/03/03/016",
    "remark": "NEW PU",
    "ward_id": "5213",
    "ward_name": "FELANDE",
    "local_government_id": "450",
    "local_government_name": "ARGUNGU",
    "state_id": "21",
    "state_name": "KEBBI",
    "location": null
  },
  {
    "id": "102100",
    "name": "TASUNBULE",
    "registration_area_id": "5213",
    "precise_location": null,
    "abbreviation": "017",
    "units": "017",
    "delimitation": "21/03/03/017",
    "remark": "NEW PU",
    "ward_id": "5213",
    "ward_name": "FELANDE",
    "local_government_id": "450",
    "local_government_name": "ARGUNGU",
    "state_id": "21",
    "state_name": "KEBBI",
    "location": {
      "latitude": 12.7420198,
      "longitude": 4.525436,
      "viewport": {
        "northeast": {
          "lat": 12.74323532989272,
          "lng": 4.526770529892721
        },
        "southwest": {
          "lat": 12.74053567010728,
          "lng": 4.524070870107277
        }
      },
      "formatted_address": "Ahmadu Bello way, 861101, Argungu, Nigeria",
      "google_map_url": "https://maps.google.com?q=12.7420198,4.525436",
      "google_place_id": "ChIJ07-XuLStyRERIf0jBKLBfyE"
    }
  },
  {
    "id": "102101",
    "name": "FELANDE JSS",
    "registration_area_id": "5213",
    "precise_location": null,
    "abbreviation": "018",
    "units": "018",
    "delimitation": "21/03/03/018",
    "remark": "NEW PU",
    "ward_id": "5213",
    "ward_name": "FELANDE",
    "local_government_id": "450",
    "local_government_name": "ARGUNGU",
    "state_id": "21",
    "state_name": "KEBBI",
    "location": {
      "latitude": 12.7420198,
      "longitude": 4.525436,
      "viewport": {
        "northeast": {
          "lat": 12.74323532989272,
          "lng": 4.526770529892721
        },
        "southwest": {
          "lat": 12.74053567010728,
          "lng": 4.524070870107277
        }
      },
      "formatted_address": "Ahmadu Bello way, 861101, Argungu, Nigeria",
      "google_map_url": "https://maps.google.com?q=12.7420198,4.525436",
      "google_place_id": "ChIJ07-XuLStyRERIf0jBKLBfyE"
    }
  },
  {
    "id": "102102",
    "name": "UNGUWAR FURI OPEN SPACE",
    "registration_area_id": "5213",
    "precise_location": null,
    "abbreviation": "019",
    "units": "019",
    "delimitation": "21/03/03/019",
    "remark": "NEW PU",
    "ward_id": "5213",
    "ward_name": "FELANDE",
    "local_government_id": "450",
    "local_government_name": "ARGUNGU",
    "state_id": "21",
    "state_name": "KEBBI",
    "location": {
      "latitude": 12.7494537,
      "longitude": 4.5368014,
      "viewport": {
        "northeast": {
          "lat": 12.75067297989272,
          "lng": 4.538229279892722
        },
        "southwest": {
          "lat": 12.74797332010728,
          "lng": 4.535529620107278
        }
      },
      "formatted_address": "PGXP+QMF, 861101, Argungu, Nigeria",
      "google_map_url": "https://maps.google.com?q=12.7494537,4.5368014",
      "google_place_id": "ChIJAQAAADytyRERFkP0WK0jHAI"
    }
  },
  {
    "id": "102103",
    "name": "SABON GARI TUNGA MAIDAWA",
    "registration_area_id": "5213",
    "precise_location": null,
    "abbreviation": "020",
    "units": "020",
    "delimitation": "21/03/03/020",
    "remark": "NEW PU",
    "ward_id": "5213",
    "ward_name": "FELANDE",
    "local_government_id": "450",
    "local_government_name": "ARGUNGU",
    "state_id": "21",
    "state_name": "KEBBI",
    "location": null
  },
  {
    "id": "102104",
    "name": "UNWARA",
    "registration_area_id": "5213",
    "precise_location": null,
    "abbreviation": "021",
    "units": "021",
    "delimitation": "21/03/03/021",
    "remark": "NEW PU",
    "ward_id": "5213",
    "ward_name": "FELANDE",
    "local_government_id": "450",
    "local_government_name": "ARGUNGU",
    "state_id": "21",
    "state_name": "KEBBI",
    "location": null
  },
  {
    "id": "102105",
    "name": "BADARIYA M.P.S",
    "registration_area_id": "5213",
    "precise_location": null,
    "abbreviation": "022",
    "units": "022",
    "delimitation": "21/03/03/022",
    "remark": "NEW PU",
    "ward_id": "5213",
    "ward_name": "FELANDE",
    "local_government_id": "450",
    "local_government_name": "ARGUNGU",
    "state_id": "21",
    "state_name": "KEBBI",
    "location": {
      "latitude": 12.7420198,
      "longitude": 4.525436,
      "viewport": {
        "northeast": {
          "lat": 12.74323532989272,
          "lng": 4.526770529892721
        },
        "southwest": {
          "lat": 12.74053567010728,
          "lng": 4.524070870107277
        }
      },
      "formatted_address": "Ahmadu Bello way, 861101, Argungu, Nigeria",
      "google_map_url": "https://maps.google.com?q=12.7420198,4.525436",
      "google_place_id": "ChIJ07-XuLStyRERIf0jBKLBfyE"
    }
  }
]