[
  {
    "id": "62322",
    "name": "TOWN SCHOOL UMUHU",
    "registration_area_id": "3358",
    "precise_location": null,
    "abbreviation": "001",
    "units": "001",
    "delimitation": "16/01/10/001",
    "remark": "EXISTING PU",
    "ward_id": "3358",
    "ward_name": "UMUHU",
    "local_government_id": "293",
    "local_government_name": "ABOH MBAISE",
    "state_id": "16",
    "state_name": "IMO",
    "location": {
      "latitude": 5.4807675,
      "longitude": 7.2261735,
      "viewport": {
        "northeast": {
          "lat": 5.481942429892722,
          "lng": 7.227597079892721
        },
        "southwest": {
          "lat": 5.479242770107278,
          "lng": 7.224897420107277
        }
      },
      "formatted_address": "F6JG+8F3, 462102, Ibeku, Nigeria",
      "google_map_url": "https://maps.google.com?q=5.4807675,7.2261735",
      "google_place_id": "ChIJBSihk4LxQhARTwoRpBnTjX0"
    }
  },
  {
    "id": "62323",
    "name": "UMUOMA TOWN HALL",
    "registration_area_id": "3358",
    "precise_location": null,
    "abbreviation": "002",
    "units": "002",
    "delimitation": "16/01/10/002",
    "remark": "EXISTING PU",
    "ward_id": "3358",
    "ward_name": "UMUHU",
    "local_government_id": "293",
    "local_government_name": "ABOH MBAISE",
    "state_id": "16",
    "state_name": "IMO",
    "location": {
      "latitude": 5.5094343,
      "longitude": 7.244315299999999,
      "viewport": {
        "northeast": {
          "lat": 5.510804579892723,
          "lng": 7.245666329892722
        },
        "southwest": {
          "lat": 5.508104920107279,
          "lng": 7.242966670107278
        }
      },
      "formatted_address": "G65V+QPG, Umuoma Oboama Aboh-Mbaise, Nguru, Nigeria",
      "google_map_url": "https://maps.google.com?q=5.5094343,7.244315299999999",
      "google_place_id": "ChIJJ-ZILw3wQhARDzYVL00xSPc"
    }
  },
  {
    "id": "62324",
    "name": "UMUKABIA HALL",
    "registration_area_id": "3358",
    "precise_location": null,
    "abbreviation": "003",
    "units": "003",
    "delimitation": "16/01/10/003",
    "remark": "EXISTING PU",
    "ward_id": "3358",
    "ward_name": "UMUHU",
    "local_government_id": "293",
    "local_government_name": "ABOH MBAISE",
    "state_id": "16",
    "state_name": "IMO",
    "location": {
      "latitude": 5.4477563,
      "longitude": 7.237241,
      "viewport": {
        "northeast": {
          "lat": 5.449328479892722,
          "lng": 7.238525879892723
        },
        "southwest": {
          "lat": 5.446628820107279,
          "lng": 7.235826220107279
        }
      },
      "formatted_address": "C6XP+4V5, Aboh Mbaise 462114, Lagwa, Nigeria",
      "google_map_url": "https://maps.google.com?q=5.4477563,7.237241",
      "google_place_id": "ChIJrfrzc5HxQhARDDUQV3NOWOs"
    }
  },
  {
    "id": "62325",
    "name": "UMUOFUGA HALL",
    "registration_area_id": "3358",
    "precise_location": null,
    "abbreviation": "004",
    "units": "004",
    "delimitation": "16/01/10/004",
    "remark": "EXISTING PU",
    "ward_id": "3358",
    "ward_name": "UMUHU",
    "local_government_id": "293",
    "local_government_name": "ABOH MBAISE",
    "state_id": "16",
    "state_name": "IMO",
    "location": {
      "latitude": 5.4891066,
      "longitude": 7.215481899999999,
      "viewport": {
        "northeast": {
          "lat": 5.490423479892722,
          "lng": 7.21676742989272
        },
        "southwest": {
          "lat": 5.487723820107278,
          "lng": 7.214067770107276
        }
      },
      "formatted_address": "F6Q8+J5X, Ọgwụ/Umuoda Road, Oboama, Nigeria",
      "google_map_url": "https://maps.google.com?q=5.4891066,7.215481899999999",
      "google_place_id": "ChIJA2wwTIzxQhARWSKPrhRv_gk"
    }
  },
  {
    "id": "62326",
    "name": "EZIALA TOWN HALL",
    "registration_area_id": "3358",
    "precise_location": null,
    "abbreviation": "005",
    "units": "005",
    "delimitation": "16/01/10/005",
    "remark": "EXISTING PU",
    "ward_id": "3358",
    "ward_name": "UMUHU",
    "local_government_id": "293",
    "local_government_name": "ABOH MBAISE",
    "state_id": "16",
    "state_name": "IMO",
    "location": {
      "latitude": 5.458186,
      "longitude": 7.240676,
      "viewport": {
        "northeast": {
          "lat": 5.459532429892722,
          "lng": 7.242022029892722
        },
        "southwest": {
          "lat": 5.456832770107278,
          "lng": 7.239322370107278
        }
      },
      "formatted_address": "F65R+77F, Aboh Mbaise 462114, Lagwa, Nigeria",
      "google_map_url": "https://maps.google.com?q=5.458186,7.240676",
      "google_place_id": "ChIJhQqK-77xQhAR7GZ6JU5Y_h8"
    }
  },
  {
    "id": "62327",
    "name": "COMMUNITY SCHOOL UMUHU",
    "registration_area_id": "3358",
    "precise_location": null,
    "abbreviation": "006",
    "units": "006",
    "delimitation": "16/01/10/006",
    "remark": "EXISTING PU",
    "ward_id": "3358",
    "ward_name": "UMUHU",
    "local_government_id": "293",
    "local_government_name": "ABOH MBAISE",
    "state_id": "16",
    "state_name": "IMO",
    "location": {
      "latitude": 5.446743,
      "longitude": 7.2402544,
      "viewport": {
        "northeast": {
          "lat": 5.448087829892722,
          "lng": 7.241434879892723
        },
        "southwest": {
          "lat": 5.445388170107278,
          "lng": 7.238735220107279
        }
      },
      "formatted_address": "462114, Lagwa, Nigeria",
      "google_map_url": "https://maps.google.com?q=5.446743,7.2402544",
      "google_place_id": "ChIJYamMT5LxQhAR0qEyVO9k4P8"
    }
  },
  {
    "id": "62328",
    "name": "OKWUKWU HALL",
    "registration_area_id": "3358",
    "precise_location": null,
    "abbreviation": "007",
    "units": "007",
    "delimitation": "16/01/10/007",
    "remark": "EXISTING PU",
    "ward_id": "3358",
    "ward_name": "UMUHU",
    "local_government_id": "293",
    "local_government_name": "ABOH MBAISE",
    "state_id": "16",
    "state_name": "IMO",
    "location": {
      "latitude": 5.4477563,
      "longitude": 7.237241,
      "viewport": {
        "northeast": {
          "lat": 5.449328479892722,
          "lng": 7.238525879892723
        },
        "southwest": {
          "lat": 5.446628820107279,
          "lng": 7.235826220107279
        }
      },
      "formatted_address": "C6XP+4V5, Aboh Mbaise 462114, Lagwa, Nigeria",
      "google_map_url": "https://maps.google.com?q=5.4477563,7.237241",
      "google_place_id": "ChIJrfrzc5HxQhARDDUQV3NOWOs"
    }
  },
  {
    "id": "62329",
    "name": "EZUHU TOWN HALL",
    "registration_area_id": "3358",
    "precise_location": null,
    "abbreviation": "008",
    "units": "008",
    "delimitation": "16/01/10/008",
    "remark": "EXISTING PU",
    "ward_id": "3358",
    "ward_name": "UMUHU",
    "local_government_id": "293",
    "local_government_name": "ABOH MBAISE",
    "state_id": "16",
    "state_name": "IMO",
    "location": {
      "latitude": 5.4477563,
      "longitude": 7.237241,
      "viewport": {
        "northeast": {
          "lat": 5.449328479892722,
          "lng": 7.238525879892723
        },
        "southwest": {
          "lat": 5.446628820107279,
          "lng": 7.235826220107279
        }
      },
      "formatted_address": "C6XP+4V5, Aboh Mbaise 462114, Lagwa, Nigeria",
      "google_map_url": "https://maps.google.com?q=5.4477563,7.237241",
      "google_place_id": "ChIJrfrzc5HxQhARDDUQV3NOWOs"
    }
  },
  {
    "id": "62330",
    "name": "CENTRAL SCHOOL OKWUATOR",
    "registration_area_id": "3358",
    "precise_location": null,
    "abbreviation": "009",
    "units": "009",
    "delimitation": "16/01/10/009",
    "remark": "EXISTING PU",
    "ward_id": "3358",
    "ward_name": "UMUHU",
    "local_government_id": "293",
    "local_government_name": "ABOH MBAISE",
    "state_id": "16",
    "state_name": "IMO",
    "location": {
      "latitude": 5.446743,
      "longitude": 7.2402544,
      "viewport": {
        "northeast": {
          "lat": 5.448087829892722,
          "lng": 7.241434879892723
        },
        "southwest": {
          "lat": 5.445388170107278,
          "lng": 7.238735220107279
        }
      },
      "formatted_address": "462114, Lagwa, Nigeria",
      "google_map_url": "https://maps.google.com?q=5.446743,7.2402544",
      "google_place_id": "ChIJYamMT5LxQhAR0qEyVO9k4P8"
    }
  },
  {
    "id": "62331",
    "name": "UMUNAGA HALL",
    "registration_area_id": "3358",
    "precise_location": null,
    "abbreviation": "010",
    "units": "010",
    "delimitation": "16/01/10/010",
    "remark": "NEW PU",
    "ward_id": "3358",
    "ward_name": "UMUHU",
    "local_government_id": "293",
    "local_government_name": "ABOH MBAISE",
    "state_id": "16",
    "state_name": "IMO",
    "location": {
      "latitude": 5.4891066,
      "longitude": 7.215481899999999,
      "viewport": {
        "northeast": {
          "lat": 5.490423479892722,
          "lng": 7.21676742989272
        },
        "southwest": {
          "lat": 5.487723820107278,
          "lng": 7.214067770107276
        }
      },
      "formatted_address": "F6Q8+J5X, Ọgwụ/Umuoda Road, Oboama, Nigeria",
      "google_map_url": "https://maps.google.com?q=5.4891066,7.215481899999999",
      "google_place_id": "ChIJA2wwTIzxQhARWSKPrhRv_gk"
    }
  },
  {
    "id": "62332",
    "name": "EGBEREOKOHIA HALL",
    "registration_area_id": "3358",
    "precise_location": null,
    "abbreviation": "011",
    "units": "011",
    "delimitation": "16/01/10/011",
    "remark": "NEW PU",
    "ward_id": "3358",
    "ward_name": "UMUHU",
    "local_government_id": "293",
    "local_government_name": "ABOH MBAISE",
    "state_id": "16",
    "state_name": "IMO",
    "location": {
      "latitude": 5.458186,
      "longitude": 7.240676,
      "viewport": {
        "northeast": {
          "lat": 5.459532429892722,
          "lng": 7.242022029892722
        },
        "southwest": {
          "lat": 5.456832770107278,
          "lng": 7.239322370107278
        }
      },
      "formatted_address": "F65R+77F, Aboh Mbaise 462114, Lagwa, Nigeria",
      "google_map_url": "https://maps.google.com?q=5.458186,7.240676",
      "google_place_id": "ChIJhQqK-77xQhAR7GZ6JU5Y_h8"
    }
  },
  {
    "id": "62333",
    "name": "AGWU/LOGH SQUARE",
    "registration_area_id": "3358",
    "precise_location": null,
    "abbreviation": "012",
    "units": "012",
    "delimitation": "16/01/10/012",
    "remark": "NEW PU",
    "ward_id": "3358",
    "ward_name": "UMUHU",
    "local_government_id": "293",
    "local_government_name": "ABOH MBAISE",
    "state_id": "16",
    "state_name": "IMO",
    "location": {
      "latitude": 5.446743,
      "longitude": 7.2402544,
      "viewport": {
        "northeast": {
          "lat": 5.448087829892722,
          "lng": 7.241434879892723
        },
        "southwest": {
          "lat": 5.445388170107278,
          "lng": 7.238735220107279
        }
      },
      "formatted_address": "462114, Lagwa, Nigeria",
      "google_map_url": "https://maps.google.com?q=5.446743,7.2402544",
      "google_place_id": "ChIJYamMT5LxQhAR0qEyVO9k4P8"
    }
  }
]