[
  {
    "id": "97649",
    "name": "UNG.MUSA K/G LADAN",
    "registration_area_id": "4972",
    "precise_location": null,
    "abbreviation": "001",
    "units": "001",
    "delimitation": "20/14/05/001",
    "remark": "EXISTING PU",
    "ward_id": "4972",
    "ward_name": "UNGUWAR MUSA",
    "local_government_id": "427",
    "local_government_name": "FUNTUA",
    "state_id": "20",
    "state_name": "KATSINA",
    "location": {
      "latitude": 12.8858107,
      "longitude": 7.573478299999999,
      "viewport": {
        "northeast": {
          "lat": 12.88716052989272,
          "lng": 7.574828129892721
        },
        "southwest": {
          "lat": 12.88446087010728,
          "lng": 7.572128470107277
        }
      },
      "formatted_address": "VHXR+MHM, 820102, Batagarawa, Nigeria",
      "google_map_url": "https://maps.google.com?q=12.8858107,7.573478299999999",
      "google_place_id": "ChIJ7azaoYU6sBERvhyNTxP4GxQ"
    }
  },
  {
    "id": "97650",
    "name": "UNG.MUSA K/G MANI MAI-MAI",
    "registration_area_id": "4972",
    "precise_location": null,
    "abbreviation": "002",
    "units": "002",
    "delimitation": "20/14/05/002",
    "remark": "EXISTING PU",
    "ward_id": "4972",
    "ward_name": "UNGUWAR MUSA",
    "local_government_id": "427",
    "local_government_name": "FUNTUA",
    "state_id": "20",
    "state_name": "KATSINA",
    "location": {
      "latitude": 11.5283452,
      "longitude": 7.3017097,
      "viewport": {
        "northeast": {
          "lat": 11.5352084,
          "lng": 7.310072700000001
        },
        "southwest": {
          "lat": 11.5215583,
          "lng": 7.2936358
        }
      },
      "formatted_address": "Anguwan Musa, 830101, Nigeria",
      "google_map_url": "https://maps.google.com?q=11.5283452,7.3017097",
      "google_place_id": "ChIJx097QHlGshERMeuQhxZeKJg"
    }
  },
  {
    "id": "97651",
    "name": "UNG,MUSA READING ROOM",
    "registration_area_id": "4972",
    "precise_location": null,
    "abbreviation": "003",
    "units": "003",
    "delimitation": "20/14/05/003",
    "remark": "EXISTING PU",
    "ward_id": "4972",
    "ward_name": "UNGUWAR MUSA",
    "local_government_id": "427",
    "local_government_name": "FUNTUA",
    "state_id": "20",
    "state_name": "KATSINA",
    "location": {
      "latitude": 11.523835,
      "longitude": 7.3193678,
      "viewport": {
        "northeast": {
          "lat": 11.52519362989272,
          "lng": 7.320765929892721
        },
        "southwest": {
          "lat": 11.52249397010728,
          "lng": 7.318066270107277
        }
      },
      "formatted_address": "G8F9+GPQ, Unnamed Road, 830101, Funtua, Nigeria",
      "google_map_url": "https://maps.google.com?q=11.523835,7.3193678",
      "google_place_id": "ChIJwc5C2hlHshERRckJbUTOUug"
    }
  },
  {
    "id": "97652",
    "name": "UNG.MUSA K/G ALH.ALASAN",
    "registration_area_id": "4972",
    "precise_location": null,
    "abbreviation": "004",
    "units": "004",
    "delimitation": "20/14/05/004",
    "remark": "EXISTING PU",
    "ward_id": "4972",
    "ward_name": "UNGUWAR MUSA",
    "local_government_id": "427",
    "local_government_name": "FUNTUA",
    "state_id": "20",
    "state_name": "KATSINA",
    "location": {
      "latitude": 12.8858107,
      "longitude": 7.573478299999999,
      "viewport": {
        "northeast": {
          "lat": 12.88716052989272,
          "lng": 7.574828129892721
        },
        "southwest": {
          "lat": 12.88446087010728,
          "lng": 7.572128470107277
        }
      },
      "formatted_address": "VHXR+MHM, 820102, Batagarawa, Nigeria",
      "google_map_url": "https://maps.google.com?q=12.8858107,7.573478299999999",
      "google_place_id": "ChIJ7azaoYU6sBERvhyNTxP4GxQ"
    }
  },
  {
    "id": "97653",
    "name": "UNG. MUSA K/G NASARAN-NAMA",
    "registration_area_id": "4972",
    "precise_location": null,
    "abbreviation": "005",
    "units": "005",
    "delimitation": "20/14/05/005",
    "remark": "EXISTING PU",
    "ward_id": "4972",
    "ward_name": "UNGUWAR MUSA",
    "local_government_id": "427",
    "local_government_name": "FUNTUA",
    "state_id": "20",
    "state_name": "KATSINA",
    "location": {
      "latitude": 12.8858107,
      "longitude": 7.573478299999999,
      "viewport": {
        "northeast": {
          "lat": 12.88716052989272,
          "lng": 7.574828129892721
        },
        "southwest": {
          "lat": 12.88446087010728,
          "lng": 7.572128470107277
        }
      },
      "formatted_address": "VHXR+MHM, 820102, Batagarawa, Nigeria",
      "google_map_url": "https://maps.google.com?q=12.8858107,7.573478299999999",
      "google_place_id": "ChIJ7azaoYU6sBERvhyNTxP4GxQ"
    }
  },
  {
    "id": "97654",
    "name": "UNG.MUSA K/G ABDUL-RAZAQ",
    "registration_area_id": "4972",
    "precise_location": null,
    "abbreviation": "006",
    "units": "006",
    "delimitation": "20/14/05/006",
    "remark": "EXISTING PU",
    "ward_id": "4972",
    "ward_name": "UNGUWAR MUSA",
    "local_government_id": "427",
    "local_government_name": "FUNTUA",
    "state_id": "20",
    "state_name": "KATSINA",
    "location": null
  },
  {
    "id": "97655",
    "name": "UNG.MUSA K/G ALHAJI GARBA",
    "registration_area_id": "4972",
    "precise_location": null,
    "abbreviation": "007",
    "units": "007",
    "delimitation": "20/14/05/007",
    "remark": "EXISTING PU",
    "ward_id": "4972",
    "ward_name": "UNGUWAR MUSA",
    "local_government_id": "427",
    "local_government_name": "FUNTUA",
    "state_id": "20",
    "state_name": "KATSINA",
    "location": {
      "latitude": 11.9562494,
      "longitude": 8.5181293,
      "viewport": {
        "northeast": {
          "lat": 11.95771632989272,
          "lng": 8.519814379892722
        },
        "southwest": {
          "lat": 11.95501667010728,
          "lng": 8.517114720107278
        }
      },
      "formatted_address": "XG49+F6P, Tukuntawa 700231, Kano, Nigeria",
      "google_map_url": "https://maps.google.com?q=11.9562494,8.5181293",
      "google_place_id": "ChIJsYtgjvaBrhERq1zDKeAgNsI"
    }
  },
  {
    "id": "97656",
    "name": "UNG.MUSA K/G BELLO MUKADAR",
    "registration_area_id": "4972",
    "precise_location": null,
    "abbreviation": "008",
    "units": "008",
    "delimitation": "20/14/05/008",
    "remark": "EXISTING PU",
    "ward_id": "4972",
    "ward_name": "UNGUWAR MUSA",
    "local_government_id": "427",
    "local_government_name": "FUNTUA",
    "state_id": "20",
    "state_name": "KATSINA",
    "location": {
      "latitude": 12.8858107,
      "longitude": 7.573478299999999,
      "viewport": {
        "northeast": {
          "lat": 12.88716052989272,
          "lng": 7.574828129892721
        },
        "southwest": {
          "lat": 12.88446087010728,
          "lng": 7.572128470107277
        }
      },
      "formatted_address": "VHXR+MHM, 820102, Batagarawa, Nigeria",
      "google_map_url": "https://maps.google.com?q=12.8858107,7.573478299999999",
      "google_place_id": "ChIJ7azaoYU6sBERvhyNTxP4GxQ"
    }
  },
  {
    "id": "97657",
    "name": "UNG,MUSA K/G MAI-UNGUWAR",
    "registration_area_id": "4972",
    "precise_location": null,
    "abbreviation": "009",
    "units": "009",
    "delimitation": "20/14/05/009",
    "remark": "EXISTING PU",
    "ward_id": "4972",
    "ward_name": "UNGUWAR MUSA",
    "local_government_id": "427",
    "local_government_name": "FUNTUA",
    "state_id": "20",
    "state_name": "KATSINA",
    "location": {
      "latitude": 12.8858107,
      "longitude": 7.573478299999999,
      "viewport": {
        "northeast": {
          "lat": 12.88716052989272,
          "lng": 7.574828129892721
        },
        "southwest": {
          "lat": 12.88446087010728,
          "lng": 7.572128470107277
        }
      },
      "formatted_address": "VHXR+MHM, 820102, Batagarawa, Nigeria",
      "google_map_url": "https://maps.google.com?q=12.8858107,7.573478299999999",
      "google_place_id": "ChIJ7azaoYU6sBERvhyNTxP4GxQ"
    }
  },
  {
    "id": "97658",
    "name": "UNG-MUSA SOCIAL WELFARE",
    "registration_area_id": "4972",
    "precise_location": null,
    "abbreviation": "010",
    "units": "010",
    "delimitation": "20/14/05/010",
    "remark": "EXISTING PU",
    "ward_id": "4972",
    "ward_name": "UNGUWAR MUSA",
    "local_government_id": "427",
    "local_government_name": "FUNTUA",
    "state_id": "20",
    "state_name": "KATSINA",
    "location": {
      "latitude": 11.5283452,
      "longitude": 7.3017097,
      "viewport": {
        "northeast": {
          "lat": 11.5352084,
          "lng": 7.310072700000001
        },
        "southwest": {
          "lat": 11.5215583,
          "lng": 7.2936358
        }
      },
      "formatted_address": "Anguwan Musa, 830101, Nigeria",
      "google_map_url": "https://maps.google.com?q=11.5283452,7.3017097",
      "google_place_id": "ChIJx097QHlGshERMeuQhxZeKJg"
    }
  },
  {
    "id": "97659",
    "name": "UNG.MUSA KURYA (GINDIN DUTSE)",
    "registration_area_id": "4972",
    "precise_location": null,
    "abbreviation": "011",
    "units": "011",
    "delimitation": "20/14/05/011",
    "remark": "EXISTING PU",
    "ward_id": "4972",
    "ward_name": "UNGUWAR MUSA",
    "local_government_id": "427",
    "local_government_name": "FUNTUA",
    "state_id": "20",
    "state_name": "KATSINA",
    "location": {
      "latitude": 12.8858107,
      "longitude": 7.573478299999999,
      "viewport": {
        "northeast": {
          "lat": 12.88716052989272,
          "lng": 7.574828129892721
        },
        "southwest": {
          "lat": 12.88446087010728,
          "lng": 7.572128470107277
        }
      },
      "formatted_address": "VHXR+MHM, 820102, Batagarawa, Nigeria",
      "google_map_url": "https://maps.google.com?q=12.8858107,7.573478299999999",
      "google_place_id": "ChIJ7azaoYU6sBERvhyNTxP4GxQ"
    }
  },
  {
    "id": "97660",
    "name": "UNG.MUSA DAN-RUMFA PRI.SCHOOL",
    "registration_area_id": "4972",
    "precise_location": null,
    "abbreviation": "012",
    "units": "012",
    "delimitation": "20/14/05/012",
    "remark": "EXISTING PU",
    "ward_id": "4972",
    "ward_name": "UNGUWAR MUSA",
    "local_government_id": "427",
    "local_government_name": "FUNTUA",
    "state_id": "20",
    "state_name": "KATSINA",
    "location": {
      "latitude": 11.5443336,
      "longitude": 7.301940500000001,
      "viewport": {
        "northeast": {
          "lat": 11.54554967989272,
          "lng": 7.30331482989272
        },
        "southwest": {
          "lat": 11.54285002010728,
          "lng": 7.300615170107276
        }
      },
      "formatted_address": "G8V2+PQP, Unguwar Magajin Makera, Funtua, Nigeria",
      "google_map_url": "https://maps.google.com?q=11.5443336,7.301940500000001",
      "google_place_id": "ChIJx5EiVUlHshER3BL9QHKo8SM"
    }
  },
  {
    "id": "97661",
    "name": "UNG.MUSA K/G DA'U DABO",
    "registration_area_id": "4972",
    "precise_location": null,
    "abbreviation": "013",
    "units": "013",
    "delimitation": "20/14/05/013",
    "remark": "EXISTING PU",
    "ward_id": "4972",
    "ward_name": "UNGUWAR MUSA",
    "local_government_id": "427",
    "local_government_name": "FUNTUA",
    "state_id": "20",
    "state_name": "KATSINA",
    "location": {
      "latitude": 11.5283452,
      "longitude": 7.3017097,
      "viewport": {
        "northeast": {
          "lat": 11.5352084,
          "lng": 7.310072700000001
        },
        "southwest": {
          "lat": 11.5215583,
          "lng": 7.2936358
        }
      },
      "formatted_address": "Anguwan Musa, 830101, Nigeria",
      "google_map_url": "https://maps.google.com?q=11.5283452,7.3017097",
      "google_place_id": "ChIJx097QHlGshERMeuQhxZeKJg"
    }
  },
  {
    "id": "97662",
    "name": "UNG. HASSAN KAROFI PRI.SCHOOL",
    "registration_area_id": "4972",
    "precise_location": null,
    "abbreviation": "014",
    "units": "014",
    "delimitation": "20/14/05/014",
    "remark": "EXISTING PU",
    "ward_id": "4972",
    "ward_name": "UNGUWAR MUSA",
    "local_government_id": "427",
    "local_government_name": "FUNTUA",
    "state_id": "20",
    "state_name": "KATSINA",
    "location": {
      "latitude": 11.5266597,
      "longitude": 7.3254541,
      "viewport": {
        "northeast": {
          "lat": 11.52799397989272,
          "lng": 7.326738679892721
        },
        "southwest": {
          "lat": 11.52529432010728,
          "lng": 7.324039020107278
        }
      },
      "formatted_address": "G8GG+J4V, GRA 830101, Funtua, Nigeria",
      "google_map_url": "https://maps.google.com?q=11.5266597,7.3254541",
      "google_place_id": "ChIJTxEYy2NHshER-Ac1x3TaUH0"
    }
  },
  {
    "id": "97663",
    "name": "UNG.HASSAN K/G ALH.HARUNA",
    "registration_area_id": "4972",
    "precise_location": null,
    "abbreviation": "015",
    "units": "015",
    "delimitation": "20/14/05/015",
    "remark": "EXISTING PU",
    "ward_id": "4972",
    "ward_name": "UNGUWAR MUSA",
    "local_government_id": "427",
    "local_government_name": "FUNTUA",
    "state_id": "20",
    "state_name": "KATSINA",
    "location": null
  },
  {
    "id": "97664",
    "name": "UNG.HASSAN K/G WAKILIN-BIYA",
    "registration_area_id": "4972",
    "precise_location": null,
    "abbreviation": "016",
    "units": "016",
    "delimitation": "20/14/05/016",
    "remark": "EXISTING PU",
    "ward_id": "4972",
    "ward_name": "UNGUWAR MUSA",
    "local_government_id": "427",
    "local_government_name": "FUNTUA",
    "state_id": "20",
    "state_name": "KATSINA",
    "location": {
      "latitude": 12.9416272,
      "longitude": 7.601254599999999,
      "viewport": {
        "northeast": {
          "lat": 12.94302372989272,
          "lng": 7.603290250000001
        },
        "southwest": {
          "lat": 12.94032407010728,
          "lng": 7.600576049999999
        }
      },
      "formatted_address": "Dutsinma Road, 820102, Katsina, Nigeria",
      "google_map_url": "https://maps.google.com?q=12.9416272,7.601254599999999",
      "google_place_id": "ChIJu-hk2jAarhERYY-evtWQa-g"
    }
  },
  {
    "id": "97665",
    "name": "UNG HASSAN K/G ALH.ADAMU",
    "registration_area_id": "4972",
    "precise_location": null,
    "abbreviation": "017",
    "units": "017",
    "delimitation": "20/14/05/017",
    "remark": "EXISTING PU",
    "ward_id": "4972",
    "ward_name": "UNGUWAR MUSA",
    "local_government_id": "427",
    "local_government_name": "FUNTUA",
    "state_id": "20",
    "state_name": "KATSINA",
    "location": {
      "latitude": 12.9416272,
      "longitude": 7.601254599999999,
      "viewport": {
        "northeast": {
          "lat": 12.94302372989272,
          "lng": 7.603290250000001
        },
        "southwest": {
          "lat": 12.94032407010728,
          "lng": 7.600576049999999
        }
      },
      "formatted_address": "Dutsinma Road, 820102, Katsina, Nigeria",
      "google_map_url": "https://maps.google.com?q=12.9416272,7.601254599999999",
      "google_place_id": "ChIJu-hk2jAarhERYY-evtWQa-g"
    }
  },
  {
    "id": "97666",
    "name": "UNG. HASSAN K/G ALH HARUNA",
    "registration_area_id": "4972",
    "precise_location": null,
    "abbreviation": "018",
    "units": "018",
    "delimitation": "20/14/05/018",
    "remark": "EXISTING PU",
    "ward_id": "4972",
    "ward_name": "UNGUWAR MUSA",
    "local_government_id": "427",
    "local_government_name": "FUNTUA",
    "state_id": "20",
    "state_name": "KATSINA",
    "location": null
  },
  {
    "id": "97667",
    "name": "UNG. HASSAN K/G ALH. MAMMAN AMADU",
    "registration_area_id": "4972",
    "precise_location": null,
    "abbreviation": "019",
    "units": "019",
    "delimitation": "20/14/05/019",
    "remark": "EXISTING PU",
    "ward_id": "4972",
    "ward_name": "UNGUWAR MUSA",
    "local_government_id": "427",
    "local_government_name": "FUNTUA",
    "state_id": "20",
    "state_name": "KATSINA",
    "location": null
  },
  {
    "id": "97668",
    "name": "UNGU.HASSAN K/G GIDIN MAKERA",
    "registration_area_id": "4972",
    "precise_location": null,
    "abbreviation": "020",
    "units": "020",
    "delimitation": "20/14/05/020",
    "remark": "EXISTING PU",
    "ward_id": "4972",
    "ward_name": "UNGUWAR MUSA",
    "local_government_id": "427",
    "local_government_name": "FUNTUA",
    "state_id": "20",
    "state_name": "KATSINA",
    "location": {
      "latitude": 11.5443336,
      "longitude": 7.301940500000001,
      "viewport": {
        "northeast": {
          "lat": 11.54554967989272,
          "lng": 7.30331482989272
        },
        "southwest": {
          "lat": 11.54285002010728,
          "lng": 7.300615170107276
        }
      },
      "formatted_address": "G8V2+PQP, Unguwar Magajin Makera, Funtua, Nigeria",
      "google_map_url": "https://maps.google.com?q=11.5443336,7.301940500000001",
      "google_place_id": "ChIJx5EiVUlHshER3BL9QHKo8SM"
    }
  },
  {
    "id": "97669",
    "name": "K/G ALH. SALIMU",
    "registration_area_id": "4972",
    "precise_location": null,
    "abbreviation": "021",
    "units": "021",
    "delimitation": "20/14/05/021",
    "remark": "NEW PU",
    "ward_id": "4972",
    "ward_name": "UNGUWAR MUSA",
    "local_government_id": "427",
    "local_government_name": "FUNTUA",
    "state_id": "20",
    "state_name": "KATSINA",
    "location": {
      "latitude": 11.5443336,
      "longitude": 7.301940500000001,
      "viewport": {
        "northeast": {
          "lat": 11.54554967989272,
          "lng": 7.30331482989272
        },
        "southwest": {
          "lat": 11.54285002010728,
          "lng": 7.300615170107276
        }
      },
      "formatted_address": "G8V2+PQP, Unguwar Magajin Makera, Funtua, Nigeria",
      "google_map_url": "https://maps.google.com?q=11.5443336,7.301940500000001",
      "google_place_id": "ChIJx5EiVUlHshER3BL9QHKo8SM"
    }
  },
  {
    "id": "97670",
    "name": "K/G BASHIR ADO NA IYAJI",
    "registration_area_id": "4972",
    "precise_location": null,
    "abbreviation": "022",
    "units": "022",
    "delimitation": "20/14/05/022",
    "remark": "NEW PU",
    "ward_id": "4972",
    "ward_name": "UNGUWAR MUSA",
    "local_government_id": "427",
    "local_government_name": "FUNTUA",
    "state_id": "20",
    "state_name": "KATSINA",
    "location": {
      "latitude": 11.5037051,
      "longitude": 7.311998200000001,
      "viewport": {
        "northeast": {
          "lat": 11.50501407989272,
          "lng": 7.313387929892722
        },
        "southwest": {
          "lat": 11.50231442010728,
          "lng": 7.310688270107278
        }
      },
      "formatted_address": "G836+FQX, Sokoto Bye-pass, 830101, Funtua, Nigeria",
      "google_map_url": "https://maps.google.com?q=11.5037051,7.311998200000001",
      "google_place_id": "ChIJB37xPSpFshERf2-HehpWq_8"
    }
  },
  {
    "id": "97671",
    "name": "K/G USMAN MAZA",
    "registration_area_id": "4972",
    "precise_location": null,
    "abbreviation": "023",
    "units": "023",
    "delimitation": "20/14/05/023",
    "remark": "NEW PU",
    "ward_id": "4972",
    "ward_name": "UNGUWAR MUSA",
    "local_government_id": "427",
    "local_government_name": "FUNTUA",
    "state_id": "20",
    "state_name": "KATSINA",
    "location": {
      "latitude": 11.5266597,
      "longitude": 7.3254541,
      "viewport": {
        "northeast": {
          "lat": 11.52799397989272,
          "lng": 7.326738679892721
        },
        "southwest": {
          "lat": 11.52529432010728,
          "lng": 7.324039020107278
        }
      },
      "formatted_address": "G8GG+J4V, GRA 830101, Funtua, Nigeria",
      "google_map_url": "https://maps.google.com?q=11.5266597,7.3254541",
      "google_place_id": "ChIJTxEYy2NHshER-Ac1x3TaUH0"
    }
  },
  {
    "id": "97672",
    "name": "K/G LAWAL USMEN NEPA",
    "registration_area_id": "4972",
    "precise_location": null,
    "abbreviation": "024",
    "units": "024",
    "delimitation": "20/14/05/024",
    "remark": "NEW PU",
    "ward_id": "4972",
    "ward_name": "UNGUWAR MUSA",
    "local_government_id": "427",
    "local_government_name": "FUNTUA",
    "state_id": "20",
    "state_name": "KATSINA",
    "location": {
      "latitude": 11.5289231,
      "longitude": 7.317862,
      "viewport": {
        "northeast": {
          "lat": 11.53023367989272,
          "lng": 7.319255879892721
        },
        "southwest": {
          "lat": 11.52753402010728,
          "lng": 7.316556220107278
        }
      },
      "formatted_address": "G8H9+H49, Katsina Rd, 830101, Funtua, Nigeria",
      "google_map_url": "https://maps.google.com?q=11.5289231,7.317862",
      "google_place_id": "ChIJ5-G0KdtHshERbdRLP-PZrK0"
    }
  },
  {
    "id": "97673",
    "name": "K/G BARMANI CHOGE",
    "registration_area_id": "4972",
    "precise_location": null,
    "abbreviation": "025",
    "units": "025",
    "delimitation": "20/14/05/025",
    "remark": "NEW PU",
    "ward_id": "4972",
    "ward_name": "UNGUWAR MUSA",
    "local_government_id": "427",
    "local_government_name": "FUNTUA",
    "state_id": "20",
    "state_name": "KATSINA",
    "location": {
      "latitude": 11.5283452,
      "longitude": 7.3017097,
      "viewport": {
        "northeast": {
          "lat": 11.5352084,
          "lng": 7.310072700000001
        },
        "southwest": {
          "lat": 11.5215583,
          "lng": 7.2936358
        }
      },
      "formatted_address": "Anguwan Musa, 830101, Nigeria",
      "google_map_url": "https://maps.google.com?q=11.5283452,7.3017097",
      "google_place_id": "ChIJx097QHlGshERMeuQhxZeKJg"
    }
  },
  {
    "id": "97674",
    "name": "K/G MIYATTI ALLAH",
    "registration_area_id": "4972",
    "precise_location": null,
    "abbreviation": "026",
    "units": "026",
    "delimitation": "20/14/05/026",
    "remark": "NEW PU",
    "ward_id": "4972",
    "ward_name": "UNGUWAR MUSA",
    "local_government_id": "427",
    "local_government_name": "FUNTUA",
    "state_id": "20",
    "state_name": "KATSINA",
    "location": {
      "latitude": 11.5184818,
      "longitude": 7.312929899999999,
      "viewport": {
        "northeast": {
          "lat": 11.51981512989272,
          "lng": 7.314201429892721
        },
        "southwest": {
          "lat": 11.51711547010728,
          "lng": 7.311501770107277
        }
      },
      "formatted_address": "G897+95V, 830101, Funtua, Nigeria",
      "google_map_url": "https://maps.google.com?q=11.5184818,7.312929899999999",
      "google_place_id": "ChIJ7aXEgBpFshERJ7Cji53W-cw"
    }
  },
  {
    "id": "97675",
    "name": "K/G BALAN BREADI",
    "registration_area_id": "4972",
    "precise_location": null,
    "abbreviation": "027",
    "units": "027",
    "delimitation": "20/14/05/027",
    "remark": "NEW PU",
    "ward_id": "4972",
    "ward_name": "UNGUWAR MUSA",
    "local_government_id": "427",
    "local_government_name": "FUNTUA",
    "state_id": "20",
    "state_name": "KATSINA",
    "location": {
      "latitude": 11.5291159,
      "longitude": 7.3264596,
      "viewport": {
        "northeast": {
          "lat": 11.53043462989272,
          "lng": 7.327814479892721
        },
        "southwest": {
          "lat": 11.52773497010728,
          "lng": 7.325114820107277
        }
      },
      "formatted_address": "Opp FCCC, Katsina Rd, Funtua, Nigeria",
      "google_map_url": "https://maps.google.com?q=11.5291159,7.3264596",
      "google_place_id": "ChIJoZev3t9HshERXeJihOtBwh4"
    }
  },
  {
    "id": "97676",
    "name": "K/G YUSUF SANI NABOKO",
    "registration_area_id": "4972",
    "precise_location": null,
    "abbreviation": "028",
    "units": "028",
    "delimitation": "20/14/05/028",
    "remark": "NEW PU",
    "ward_id": "4972",
    "ward_name": "UNGUWAR MUSA",
    "local_government_id": "427",
    "local_government_name": "FUNTUA",
    "state_id": "20",
    "state_name": "KATSINA",
    "location": {
      "latitude": 11.5184818,
      "longitude": 7.312929899999999,
      "viewport": {
        "northeast": {
          "lat": 11.51981512989272,
          "lng": 7.314201429892721
        },
        "southwest": {
          "lat": 11.51711547010728,
          "lng": 7.311501770107277
        }
      },
      "formatted_address": "G897+95V, 830101, Funtua, Nigeria",
      "google_map_url": "https://maps.google.com?q=11.5184818,7.312929899999999",
      "google_place_id": "ChIJ7aXEgBpFshERJ7Cji53W-cw"
    }
  },
  {
    "id": "97677",
    "name": "K/G ALH. JAMO A.G",
    "registration_area_id": "4972",
    "precise_location": null,
    "abbreviation": "029",
    "units": "029",
    "delimitation": "20/14/05/029",
    "remark": "NEW PU",
    "ward_id": "4972",
    "ward_name": "UNGUWAR MUSA",
    "local_government_id": "427",
    "local_government_name": "FUNTUA",
    "state_id": "20",
    "state_name": "KATSINA",
    "location": {
      "latitude": 11.5291159,
      "longitude": 7.3264596,
      "viewport": {
        "northeast": {
          "lat": 11.53043462989272,
          "lng": 7.327814479892721
        },
        "southwest": {
          "lat": 11.52773497010728,
          "lng": 7.325114820107277
        }
      },
      "formatted_address": "Opp FCCC, Katsina Rd, Funtua, Nigeria",
      "google_map_url": "https://maps.google.com?q=11.5291159,7.3264596",
      "google_place_id": "ChIJoZev3t9HshERXeJihOtBwh4"
    }
  },
  {
    "id": "97678",
    "name": "K/G BELLO ANACHE",
    "registration_area_id": "4972",
    "precise_location": null,
    "abbreviation": "030",
    "units": "030",
    "delimitation": "20/14/05/030",
    "remark": "NEW PU",
    "ward_id": "4972",
    "ward_name": "UNGUWAR MUSA",
    "local_government_id": "427",
    "local_government_name": "FUNTUA",
    "state_id": "20",
    "state_name": "KATSINA",
    "location": {
      "latitude": 11.5283452,
      "longitude": 7.3017097,
      "viewport": {
        "northeast": {
          "lat": 11.5352084,
          "lng": 7.310072700000001
        },
        "southwest": {
          "lat": 11.5215583,
          "lng": 7.2936358
        }
      },
      "formatted_address": "Anguwan Musa, 830101, Nigeria",
      "google_map_url": "https://maps.google.com?q=11.5283452,7.3017097",
      "google_place_id": "ChIJx097QHlGshERMeuQhxZeKJg"
    }
  },
  {
    "id": "97679",
    "name": "K/G WADATA BREAD",
    "registration_area_id": "4972",
    "precise_location": null,
    "abbreviation": "031",
    "units": "031",
    "delimitation": "20/14/05/031",
    "remark": "NEW PU",
    "ward_id": "4972",
    "ward_name": "UNGUWAR MUSA",
    "local_government_id": "427",
    "local_government_name": "FUNTUA",
    "state_id": "20",
    "state_name": "KATSINA",
    "location": {
      "latitude": 11.5407655,
      "longitude": 7.302696399999999,
      "viewport": {
        "northeast": {
          "lat": 11.54210822989272,
          "lng": 7.304014629892721
        },
        "southwest": {
          "lat": 11.53940857010728,
          "lng": 7.301314970107277
        }
      },
      "formatted_address": "Unguwar magajin makera Funtua, 830001, Katsina, Nigeria",
      "google_map_url": "https://maps.google.com?q=11.5407655,7.302696399999999",
      "google_place_id": "ChIJY0bfk0pHshERXHy5mzGWfgQ"
    }
  },
  {
    "id": "97680",
    "name": "MASALLACIN ARDO",
    "registration_area_id": "4972",
    "precise_location": null,
    "abbreviation": "032",
    "units": "032",
    "delimitation": "20/14/05/032",
    "remark": "NEW PU",
    "ward_id": "4972",
    "ward_name": "UNGUWAR MUSA",
    "local_government_id": "427",
    "local_government_name": "FUNTUA",
    "state_id": "20",
    "state_name": "KATSINA",
    "location": {
      "latitude": 11.5260764,
      "longitude": 7.3114414,
      "viewport": {
        "northeast": {
          "lat": 11.52743352989272,
          "lng": 7.312789829892723
        },
        "southwest": {
          "lat": 11.52473387010728,
          "lng": 7.310090170107279
        }
      },
      "formatted_address": "G8G6+CHP, Magaji Road, 830101, Funtua, Nigeria",
      "google_map_url": "https://maps.google.com?q=11.5260764,7.3114414",
      "google_place_id": "ChIJy7bP0f9HshERXzrmZgE4yg0"
    }
  },
  {
    "id": "97681",
    "name": "K/G ALH. BALA MAI YAN KUDI",
    "registration_area_id": "4972",
    "precise_location": null,
    "abbreviation": "033",
    "units": "033",
    "delimitation": "20/14/05/033",
    "remark": "NEW PU",
    "ward_id": "4972",
    "ward_name": "UNGUWAR MUSA",
    "local_government_id": "427",
    "local_government_name": "FUNTUA",
    "state_id": "20",
    "state_name": "KATSINA",
    "location": {
      "latitude": 12.9416272,
      "longitude": 7.601254599999999,
      "viewport": {
        "northeast": {
          "lat": 12.94302372989272,
          "lng": 7.603290250000001
        },
        "southwest": {
          "lat": 12.94032407010728,
          "lng": 7.600576049999999
        }
      },
      "formatted_address": "Dutsinma Road, 820102, Katsina, Nigeria",
      "google_map_url": "https://maps.google.com?q=12.9416272,7.601254599999999",
      "google_place_id": "ChIJu-hk2jAarhERYY-evtWQa-g"
    }
  },
  {
    "id": "97682",
    "name": "K/G MALAM HASSAN",
    "registration_area_id": "4972",
    "precise_location": null,
    "abbreviation": "034",
    "units": "034",
    "delimitation": "20/14/05/034",
    "remark": "NEW PU",
    "ward_id": "4972",
    "ward_name": "UNGUWAR MUSA",
    "local_government_id": "427",
    "local_government_name": "FUNTUA",
    "state_id": "20",
    "state_name": "KATSINA",
    "location": null
  },
  {
    "id": "97683",
    "name": "K/G ALI MAI LEDA",
    "registration_area_id": "4972",
    "precise_location": null,
    "abbreviation": "035",
    "units": "035",
    "delimitation": "20/14/05/035",
    "remark": "NEW PU",
    "ward_id": "4972",
    "ward_name": "UNGUWAR MUSA",
    "local_government_id": "427",
    "local_government_name": "FUNTUA",
    "state_id": "20",
    "state_name": "KATSINA",
    "location": null
  },
  {
    "id": "97684",
    "name": "K/G ALH RABIU DANHAYA",
    "registration_area_id": "4972",
    "precise_location": null,
    "abbreviation": "036",
    "units": "036",
    "delimitation": "20/14/05/036",
    "remark": "NEW PU",
    "ward_id": "4972",
    "ward_name": "UNGUWAR MUSA",
    "local_government_id": "427",
    "local_government_name": "FUNTUA",
    "state_id": "20",
    "state_name": "KATSINA",
    "location": {
      "latitude": 11.5291159,
      "longitude": 7.3264596,
      "viewport": {
        "northeast": {
          "lat": 11.53043462989272,
          "lng": 7.327814479892721
        },
        "southwest": {
          "lat": 11.52773497010728,
          "lng": 7.325114820107277
        }
      },
      "formatted_address": "Opp FCCC, Katsina Rd, Funtua, Nigeria",
      "google_map_url": "https://maps.google.com?q=11.5291159,7.3264596",
      "google_place_id": "ChIJoZev3t9HshERXeJihOtBwh4"
    }
  },
  {
    "id": "97685",
    "name": "K/G ALH. SALISU INDA",
    "registration_area_id": "4972",
    "precise_location": null,
    "abbreviation": "037",
    "units": "037",
    "delimitation": "20/14/05/037",
    "remark": "NEW PU",
    "ward_id": "4972",
    "ward_name": "UNGUWAR MUSA",
    "local_government_id": "427",
    "local_government_name": "FUNTUA",
    "state_id": "20",
    "state_name": "KATSINA",
    "location": {
      "latitude": 12.8858107,
      "longitude": 7.573478299999999,
      "viewport": {
        "northeast": {
          "lat": 12.88716052989272,
          "lng": 7.574828129892721
        },
        "southwest": {
          "lat": 12.88446087010728,
          "lng": 7.572128470107277
        }
      },
      "formatted_address": "VHXR+MHM, 820102, Batagarawa, Nigeria",
      "google_map_url": "https://maps.google.com?q=12.8858107,7.573478299999999",
      "google_place_id": "ChIJ7azaoYU6sBERvhyNTxP4GxQ"
    }
  },
  {
    "id": "97686",
    "name": "K/G YAKUBU MAI GORO",
    "registration_area_id": "4972",
    "precise_location": null,
    "abbreviation": "038",
    "units": "038",
    "delimitation": "20/14/05/038",
    "remark": "NEW PU",
    "ward_id": "4972",
    "ward_name": "UNGUWAR MUSA",
    "local_government_id": "427",
    "local_government_name": "FUNTUA",
    "state_id": "20",
    "state_name": "KATSINA",
    "location": {
      "latitude": 12.8858107,
      "longitude": 7.573478299999999,
      "viewport": {
        "northeast": {
          "lat": 12.88716052989272,
          "lng": 7.574828129892721
        },
        "southwest": {
          "lat": 12.88446087010728,
          "lng": 7.572128470107277
        }
      },
      "formatted_address": "VHXR+MHM, 820102, Batagarawa, Nigeria",
      "google_map_url": "https://maps.google.com?q=12.8858107,7.573478299999999",
      "google_place_id": "ChIJ7azaoYU6sBERvhyNTxP4GxQ"
    }
  }
]