[
  {
    "id": "81395",
    "name": "UNG. DANJUMA/ KGM DANJUMA",
    "registration_area_id": "4266",
    "precise_location": null,
    "abbreviation": "001",
    "units": "001",
    "delimitation": "18/16/10/001",
    "remark": "EXISTING PU",
    "ward_id": "4266",
    "ward_name": "KAURAN WALI SOUTH",
    "local_government_id": "362",
    "local_government_name": "KUDAN",
    "state_id": "18",
    "state_name": "KADUNA",
    "location": {
      "latitude": 11.2936631,
      "longitude": 7.867124199999999,
      "viewport": {
        "northeast": {
          "lat": 11.29498837989272,
          "lng": 7.868475679892721
        },
        "southwest": {
          "lat": 11.29228872010728,
          "lng": 7.865776020107277
        }
      },
      "formatted_address": "7VV8+FR9, 802108, Ungwan Halilu, Nigeria",
      "google_map_url": "https://maps.google.com?q=11.2936631,7.867124199999999",
      "google_place_id": "ChIJu_AnW6WBrRERxuV-tld-gkk"
    }
  },
  {
    "id": "81396",
    "name": "UNG. DANGASHI/ PRI. SCH.",
    "registration_area_id": "4266",
    "precise_location": null,
    "abbreviation": "002",
    "units": "002",
    "delimitation": "18/16/10/002",
    "remark": "EXISTING PU",
    "ward_id": "4266",
    "ward_name": "KAURAN WALI SOUTH",
    "local_government_id": "362",
    "local_government_name": "KUDAN",
    "state_id": "18",
    "state_name": "KADUNA",
    "location": {
      "latitude": 11.2936631,
      "longitude": 7.867124199999999,
      "viewport": {
        "northeast": {
          "lat": 11.29498837989272,
          "lng": 7.868475679892721
        },
        "southwest": {
          "lat": 11.29228872010728,
          "lng": 7.865776020107277
        }
      },
      "formatted_address": "7VV8+FR9, 802108, Ungwan Halilu, Nigeria",
      "google_map_url": "https://maps.google.com?q=11.2936631,7.867124199999999",
      "google_place_id": "ChIJu_AnW6WBrRERxuV-tld-gkk"
    }
  },
  {
    "id": "81397",
    "name": "UNG. SADAU I/ KGM SADAU",
    "registration_area_id": "4266",
    "precise_location": null,
    "abbreviation": "003",
    "units": "003",
    "delimitation": "18/16/10/003",
    "remark": "EXISTING PU",
    "ward_id": "4266",
    "ward_name": "KAURAN WALI SOUTH",
    "local_government_id": "362",
    "local_government_name": "KUDAN",
    "state_id": "18",
    "state_name": "KADUNA",
    "location": {
      "latitude": 10.5294114,
      "longitude": 7.461752600000001,
      "viewport": {
        "northeast": {
          "lat": 10.53076242989272,
          "lng": 7.463105829892722
        },
        "southwest": {
          "lat": 10.52806277010728,
          "lng": 7.460406170107278
        }
      },
      "formatted_address": "GFH6+QP6, Ungwan Rimi 802125, Kaduna, Nigeria",
      "google_map_url": "https://maps.google.com?q=10.5294114,7.461752600000001",
      "google_place_id": "ChIJRcuQ8MpKTRARytxtkotZARU"
    }
  },
  {
    "id": "81398",
    "name": "UNG. DANDABO/ KGM DANDABO",
    "registration_area_id": "4266",
    "precise_location": null,
    "abbreviation": "004",
    "units": "004",
    "delimitation": "18/16/10/004",
    "remark": "EXISTING PU",
    "ward_id": "4266",
    "ward_name": "KAURAN WALI SOUTH",
    "local_government_id": "362",
    "local_government_name": "KUDAN",
    "state_id": "18",
    "state_name": "KADUNA",
    "location": {
      "latitude": 11.2936631,
      "longitude": 7.867124199999999,
      "viewport": {
        "northeast": {
          "lat": 11.29498837989272,
          "lng": 7.868475679892721
        },
        "southwest": {
          "lat": 11.29228872010728,
          "lng": 7.865776020107277
        }
      },
      "formatted_address": "7VV8+FR9, 802108, Ungwan Halilu, Nigeria",
      "google_map_url": "https://maps.google.com?q=11.2936631,7.867124199999999",
      "google_place_id": "ChIJu_AnW6WBrRERxuV-tld-gkk"
    }
  },
  {
    "id": "81399",
    "name": "UNG. PAWA/ KGM PAWA",
    "registration_area_id": "4266",
    "precise_location": null,
    "abbreviation": "005",
    "units": "005",
    "delimitation": "18/16/10/005",
    "remark": "EXISTING PU",
    "ward_id": "4266",
    "ward_name": "KAURAN WALI SOUTH",
    "local_government_id": "362",
    "local_government_name": "KUDAN",
    "state_id": "18",
    "state_name": "KADUNA",
    "location": {
      "latitude": 11.2936631,
      "longitude": 7.867124199999999,
      "viewport": {
        "northeast": {
          "lat": 11.29498837989272,
          "lng": 7.868475679892721
        },
        "southwest": {
          "lat": 11.29228872010728,
          "lng": 7.865776020107277
        }
      },
      "formatted_address": "7VV8+FR9, 802108, Ungwan Halilu, Nigeria",
      "google_map_url": "https://maps.google.com?q=11.2936631,7.867124199999999",
      "google_place_id": "ChIJu_AnW6WBrRERxuV-tld-gkk"
    }
  },
  {
    "id": "81400",
    "name": "UNG. BAWA/ KGM BAWA",
    "registration_area_id": "4266",
    "precise_location": null,
    "abbreviation": "006",
    "units": "006",
    "delimitation": "18/16/10/006",
    "remark": "EXISTING PU",
    "ward_id": "4266",
    "ward_name": "KAURAN WALI SOUTH",
    "local_government_id": "362",
    "local_government_name": "KUDAN",
    "state_id": "18",
    "state_name": "KADUNA",
    "location": {
      "latitude": 11.2936631,
      "longitude": 7.867124199999999,
      "viewport": {
        "northeast": {
          "lat": 11.29498837989272,
          "lng": 7.868475679892721
        },
        "southwest": {
          "lat": 11.29228872010728,
          "lng": 7.865776020107277
        }
      },
      "formatted_address": "7VV8+FR9, 802108, Ungwan Halilu, Nigeria",
      "google_map_url": "https://maps.google.com?q=11.2936631,7.867124199999999",
      "google_place_id": "ChIJu_AnW6WBrRERxuV-tld-gkk"
    }
  },
  {
    "id": "81401",
    "name": "UNG. KAROFI/ KGM KAROFI",
    "registration_area_id": "4266",
    "precise_location": null,
    "abbreviation": "007",
    "units": "007",
    "delimitation": "18/16/10/007",
    "remark": "EXISTING PU",
    "ward_id": "4266",
    "ward_name": "KAURAN WALI SOUTH",
    "local_government_id": "362",
    "local_government_name": "KUDAN",
    "state_id": "18",
    "state_name": "KADUNA",
    "location": null
  },
  {
    "id": "81402",
    "name": "UNG. BAKOSHI/ KGM BAKOSHI",
    "registration_area_id": "4266",
    "precise_location": null,
    "abbreviation": "008",
    "units": "008",
    "delimitation": "18/16/10/008",
    "remark": "EXISTING PU",
    "ward_id": "4266",
    "ward_name": "KAURAN WALI SOUTH",
    "local_government_id": "362",
    "local_government_name": "KUDAN",
    "state_id": "18",
    "state_name": "KADUNA",
    "location": {
      "latitude": 11.2936631,
      "longitude": 7.867124199999999,
      "viewport": {
        "northeast": {
          "lat": 11.29498837989272,
          "lng": 7.868475679892721
        },
        "southwest": {
          "lat": 11.29228872010728,
          "lng": 7.865776020107277
        }
      },
      "formatted_address": "7VV8+FR9, 802108, Ungwan Halilu, Nigeria",
      "google_map_url": "https://maps.google.com?q=11.2936631,7.867124199999999",
      "google_place_id": "ChIJu_AnW6WBrRERxuV-tld-gkk"
    }
  },
  {
    "id": "81403",
    "name": "UNG. SADAU II/ K/M SADAU",
    "registration_area_id": "4266",
    "precise_location": null,
    "abbreviation": "009",
    "units": "009",
    "delimitation": "18/16/10/009",
    "remark": "EXISTING PU",
    "ward_id": "4266",
    "ward_name": "KAURAN WALI SOUTH",
    "local_government_id": "362",
    "local_government_name": "KUDAN",
    "state_id": "18",
    "state_name": "KADUNA",
    "location": {
      "latitude": 11.2936631,
      "longitude": 7.867124199999999,
      "viewport": {
        "northeast": {
          "lat": 11.29498837989272,
          "lng": 7.868475679892721
        },
        "southwest": {
          "lat": 11.29228872010728,
          "lng": 7.865776020107277
        }
      },
      "formatted_address": "7VV8+FR9, 802108, Ungwan Halilu, Nigeria",
      "google_map_url": "https://maps.google.com?q=11.2936631,7.867124199999999",
      "google_place_id": "ChIJu_AnW6WBrRERxuV-tld-gkk"
    }
  },
  {
    "id": "81404",
    "name": "TASHAN MUSA",
    "registration_area_id": "4266",
    "precise_location": null,
    "abbreviation": "010",
    "units": "010",
    "delimitation": "18/16/10/010",
    "remark": "NEW PU",
    "ward_id": "4266",
    "ward_name": "KAURAN WALI SOUTH",
    "local_government_id": "362",
    "local_government_name": "KUDAN",
    "state_id": "18",
    "state_name": "KADUNA",
    "location": {
      "latitude": 11.2877283,
      "longitude": 7.8631806,
      "viewport": {
        "northeast": {
          "lat": 11.28911612989272,
          "lng": 7.86451082989272
        },
        "southwest": {
          "lat": 11.28641647010728,
          "lng": 7.861811170107276
        }
      },
      "formatted_address": "7F397VQ7+477 Tashan musa Kauran wali Kaduna, Ungwan Halilu, Nigeria",
      "google_map_url": "https://maps.google.com?q=11.2877283,7.8631806",
      "google_place_id": "ChIJS-rgetOBrRER1jxMbdCfkD4"
    }
  }
]