[
  {
    "id": "79473",
    "name": "L.E.A. U/MAICHIBI AI./ L.E.A. UNG. MAICHIBI I.",
    "registration_area_id": "4195",
    "precise_location": null,
    "abbreviation": "001",
    "units": "001",
    "delimitation": "18/10/04/001",
    "remark": "EXISTING PU",
    "ward_id": "4195",
    "ward_name": "TELEVISION",
    "local_government_id": "356",
    "local_government_name": "KADUNA SOUTH",
    "state_id": "18",
    "state_name": "KADUNA",
    "location": null
  },
  {
    "id": "79474",
    "name": "LEA U/MAICHIBI II",
    "registration_area_id": "4195",
    "precise_location": null,
    "abbreviation": "002",
    "units": "002",
    "delimitation": "18/10/04/002",
    "remark": "EXISTING PU",
    "ward_id": "4195",
    "ward_name": "TELEVISION",
    "local_government_id": "356",
    "local_government_name": "KADUNA SOUTH",
    "state_id": "18",
    "state_name": "KADUNA",
    "location": {
      "latitude": 10.4519122,
      "longitude": 7.433487500000001,
      "viewport": {
        "northeast": {
          "lat": 10.45357247989272,
          "lng": 7.434885729892721
        },
        "southwest": {
          "lat": 10.45087282010728,
          "lng": 7.432186070107277
        }
      },
      "formatted_address": "FC2M+Q99, Television 800282, Kaduna, Nigeria",
      "google_map_url": "https://maps.google.com?q=10.4519122,7.433487500000001",
      "google_place_id": "ChIJi4A9m_k1TRARVzvJp55yf9I"
    }
  },
  {
    "id": "79475",
    "name": "LEA U/MAICHIBI V",
    "registration_area_id": "4195",
    "precise_location": null,
    "abbreviation": "003",
    "units": "003",
    "delimitation": "18/10/04/003",
    "remark": "EXISTING PU",
    "ward_id": "4195",
    "ward_name": "TELEVISION",
    "local_government_id": "356",
    "local_government_name": "KADUNA SOUTH",
    "state_id": "18",
    "state_name": "KADUNA",
    "location": {
      "latitude": 10.4519122,
      "longitude": 7.433487500000001,
      "viewport": {
        "northeast": {
          "lat": 10.45357247989272,
          "lng": 7.434885729892721
        },
        "southwest": {
          "lat": 10.45087282010728,
          "lng": 7.432186070107277
        }
      },
      "formatted_address": "FC2M+Q99, Television 800282, Kaduna, Nigeria",
      "google_map_url": "https://maps.google.com?q=10.4519122,7.433487500000001",
      "google_place_id": "ChIJi4A9m_k1TRARVzvJp55yf9I"
    }
  },
  {
    "id": "79476",
    "name": "LEA U/MAICHIBI VI",
    "registration_area_id": "4195",
    "precise_location": null,
    "abbreviation": "004",
    "units": "004",
    "delimitation": "18/10/04/004",
    "remark": "EXISTING PU",
    "ward_id": "4195",
    "ward_name": "TELEVISION",
    "local_government_id": "356",
    "local_government_name": "KADUNA SOUTH",
    "state_id": "18",
    "state_name": "KADUNA",
    "location": {
      "latitude": 10.4519122,
      "longitude": 7.433487500000001,
      "viewport": {
        "northeast": {
          "lat": 10.45357247989272,
          "lng": 7.434885729892721
        },
        "southwest": {
          "lat": 10.45087282010728,
          "lng": 7.432186070107277
        }
      },
      "formatted_address": "FC2M+Q99, Television 800282, Kaduna, Nigeria",
      "google_map_url": "https://maps.google.com?q=10.4519122,7.433487500000001",
      "google_place_id": "ChIJi4A9m_k1TRARVzvJp55yf9I"
    }
  },
  {
    "id": "79477",
    "name": "L.E.A. U/MAICHIBI IV./ L.E.A U/MAICHIBI IV.",
    "registration_area_id": "4195",
    "precise_location": null,
    "abbreviation": "005",
    "units": "005",
    "delimitation": "18/10/04/005",
    "remark": "EXISTING PU",
    "ward_id": "4195",
    "ward_name": "TELEVISION",
    "local_government_id": "356",
    "local_government_name": "KADUNA SOUTH",
    "state_id": "18",
    "state_name": "KADUNA",
    "location": {
      "latitude": 10.4519122,
      "longitude": 7.433487500000001,
      "viewport": {
        "northeast": {
          "lat": 10.45357247989272,
          "lng": 7.434885729892721
        },
        "southwest": {
          "lat": 10.45087282010728,
          "lng": 7.432186070107277
        }
      },
      "formatted_address": "FC2M+Q99, Television 800282, Kaduna, Nigeria",
      "google_map_url": "https://maps.google.com?q=10.4519122,7.433487500000001",
      "google_place_id": "ChIJi4A9m_k1TRARVzvJp55yf9I"
    }
  },
  {
    "id": "79478",
    "name": "L.E.A. U/MAICHIBI VI./ L.E.A U/MAICHIBI V.",
    "registration_area_id": "4195",
    "precise_location": null,
    "abbreviation": "006",
    "units": "006",
    "delimitation": "18/10/04/006",
    "remark": "EXISTING PU",
    "ward_id": "4195",
    "ward_name": "TELEVISION",
    "local_government_id": "356",
    "local_government_name": "KADUNA SOUTH",
    "state_id": "18",
    "state_name": "KADUNA",
    "location": {
      "latitude": 10.4519122,
      "longitude": 7.433487500000001,
      "viewport": {
        "northeast": {
          "lat": 10.45357247989272,
          "lng": 7.434885729892721
        },
        "southwest": {
          "lat": 10.45087282010728,
          "lng": 7.432186070107277
        }
      },
      "formatted_address": "FC2M+Q99, Television 800282, Kaduna, Nigeria",
      "google_map_url": "https://maps.google.com?q=10.4519122,7.433487500000001",
      "google_place_id": "ChIJi4A9m_k1TRARVzvJp55yf9I"
    }
  },
  {
    "id": "79479",
    "name": "NEAR TELEVISION MARKET",
    "registration_area_id": "4195",
    "precise_location": null,
    "abbreviation": "007",
    "units": "007",
    "delimitation": "18/10/04/007",
    "remark": "EXISTING PU",
    "ward_id": "4195",
    "ward_name": "TELEVISION",
    "local_government_id": "356",
    "local_government_name": "KADUNA SOUTH",
    "state_id": "18",
    "state_name": "KADUNA",
    "location": {
      "latitude": 10.4500613,
      "longitude": 7.430350499999999,
      "viewport": {
        "northeast": {
          "lat": 10.45141087989272,
          "lng": 7.431707379892721
        },
        "southwest": {
          "lat": 10.44871122010728,
          "lng": 7.429007720107277
        }
      },
      "formatted_address": "FC2J+24H, Television 800282, Kaduna, Nigeria",
      "google_map_url": "https://maps.google.com?q=10.4500613,7.430350499999999",
      "google_place_id": "ChIJPTyzmPs1TRAR0AsdGPtwB6s"
    }
  },
  {
    "id": "79480",
    "name": "J.25 JABA/ SHANDAM ROAD",
    "registration_area_id": "4195",
    "precise_location": null,
    "abbreviation": "008",
    "units": "008",
    "delimitation": "18/10/04/008",
    "remark": "EXISTING PU",
    "ward_id": "4195",
    "ward_name": "TELEVISION",
    "local_government_id": "356",
    "local_government_name": "KADUNA SOUTH",
    "state_id": "18",
    "state_name": "KADUNA",
    "location": null
  },
  {
    "id": "79481",
    "name": "KR.76 IYAKA STREET",
    "registration_area_id": "4195",
    "precise_location": null,
    "abbreviation": "009",
    "units": "009",
    "delimitation": "18/10/04/009",
    "remark": "EXISTING PU",
    "ward_id": "4195",
    "ward_name": "TELEVISION",
    "local_government_id": "356",
    "local_government_name": "KADUNA SOUTH",
    "state_id": "18",
    "state_name": "KADUNA",
    "location": {
      "latitude": 10.4478556,
      "longitude": 7.433213200000001,
      "viewport": {
        "northeast": {
          "lat": 10.44920542989272,
          "lng": 7.434563029892724
        },
        "southwest": {
          "lat": 10.44650577010728,
          "lng": 7.43186337010728
        }
      },
      "formatted_address": "76 Iyaka St, Television 800282, Kaduna, Nigeria",
      "google_map_url": "https://maps.google.com?q=10.4478556,7.433213200000001",
      "google_place_id": "Ei83NiBJeWFrYSBTdCwgVGVsZXZpc2lvbiA4MDAyODIsIEthZHVuYSwgTmlnZXJpYSIwEi4KFAoSCbO1cqX-NU0QEQ8x1F5S-fWnEEwqFAoSCYneO0z5NU0QEUjlllq_b_Dt"
    }
  },
  {
    "id": "79482",
    "name": "JB.40 BAHAGO ROAD",
    "registration_area_id": "4195",
    "precise_location": null,
    "abbreviation": "010",
    "units": "010",
    "delimitation": "18/10/04/010",
    "remark": "EXISTING PU",
    "ward_id": "4195",
    "ward_name": "TELEVISION",
    "local_government_id": "356",
    "local_government_name": "KADUNA SOUTH",
    "state_id": "18",
    "state_name": "KADUNA",
    "location": null
  },
  {
    "id": "79483",
    "name": "F 15 PAWA/ KATAF ROAD",
    "registration_area_id": "4195",
    "precise_location": null,
    "abbreviation": "011",
    "units": "011",
    "delimitation": "18/10/04/011",
    "remark": "EXISTING PU",
    "ward_id": "4195",
    "ward_name": "TELEVISION",
    "local_government_id": "356",
    "local_government_name": "KADUNA SOUTH",
    "state_id": "18",
    "state_name": "KADUNA",
    "location": {
      "latitude": 10.4456948,
      "longitude": 7.424670499999999,
      "viewport": {
        "northeast": {
          "lat": 10.44703392989272,
          "lng": 7.426389750000002
        },
        "southwest": {
          "lat": 10.44433427010728,
          "lng": 7.42282675
        }
      },
      "formatted_address": "Kataf Road, 800282, Kakuri, Nigeria",
      "google_map_url": "https://maps.google.com?q=10.4456948,7.424670499999999",
      "google_place_id": "EiNLYXRhZiBSb2FkLCA4MDAyODIsIEtha3VyaSwgTmlnZXJpYSIuKiwKFAoSCZ0eqPjiNU0QEVGzoe75lmdqEhQKEgmvK9ubATVNEBGtzBAMoutatw"
    }
  },
  {
    "id": "79484",
    "name": "BEHIND 2ND ECWA CHURCH",
    "registration_area_id": "4195",
    "precise_location": null,
    "abbreviation": "012",
    "units": "012",
    "delimitation": "18/10/04/012",
    "remark": "EXISTING PU",
    "ward_id": "4195",
    "ward_name": "TELEVISION",
    "local_government_id": "356",
    "local_government_name": "KADUNA SOUTH",
    "state_id": "18",
    "state_name": "KADUNA",
    "location": {
      "latitude": 10.451171,
      "longitude": 7.4358658,
      "viewport": {
        "northeast": {
          "lat": 10.45253227989272,
          "lng": 7.437177879892722
        },
        "southwest": {
          "lat": 10.44983262010728,
          "lng": 7.434478220107279
        }
      },
      "formatted_address": "FC2P+F89, Majelisa St, Television 800104, Kaduna, Nigeria",
      "google_map_url": "https://maps.google.com?q=10.451171,7.4358658",
      "google_place_id": "ChIJg1b_7fg1TRARmIkdsxOqX44"
    }
  },
  {
    "id": "79485",
    "name": "ECWA ENG. CHURCH",
    "registration_area_id": "4195",
    "precise_location": null,
    "abbreviation": "013",
    "units": "013",
    "delimitation": "18/10/04/013",
    "remark": "EXISTING PU",
    "ward_id": "4195",
    "ward_name": "TELEVISION",
    "local_government_id": "356",
    "local_government_name": "KADUNA SOUTH",
    "state_id": "18",
    "state_name": "KADUNA",
    "location": {
      "latitude": 10.451171,
      "longitude": 7.4358658,
      "viewport": {
        "northeast": {
          "lat": 10.45253227989272,
          "lng": 7.437177879892722
        },
        "southwest": {
          "lat": 10.44983262010728,
          "lng": 7.434478220107279
        }
      },
      "formatted_address": "FC2P+F89, Majelisa St, Television 800104, Kaduna, Nigeria",
      "google_map_url": "https://maps.google.com?q=10.451171,7.4358658",
      "google_place_id": "ChIJg1b_7fg1TRARmIkdsxOqX44"
    }
  },
  {
    "id": "79486",
    "name": "E.45 HAUWASA ROAD",
    "registration_area_id": "4195",
    "precise_location": null,
    "abbreviation": "014",
    "units": "014",
    "delimitation": "18/10/04/014",
    "remark": "EXISTING PU",
    "ward_id": "4195",
    "ward_name": "TELEVISION",
    "local_government_id": "356",
    "local_government_name": "KADUNA SOUTH",
    "state_id": "18",
    "state_name": "KADUNA",
    "location": null
  },
  {
    "id": "79487",
    "name": "C.35 TELEVISION ROAD",
    "registration_area_id": "4195",
    "precise_location": null,
    "abbreviation": "015",
    "units": "015",
    "delimitation": "18/10/04/015",
    "remark": "EXISTING PU",
    "ward_id": "4195",
    "ward_name": "TELEVISION",
    "local_government_id": "356",
    "local_government_name": "KADUNA SOUTH",
    "state_id": "18",
    "state_name": "KADUNA",
    "location": {
      "latitude": 10.4540025,
      "longitude": 7.424973499999999,
      "viewport": {
        "northeast": {
          "lat": 10.45536622989272,
          "lng": 7.426544879892723
        },
        "southwest": {
          "lat": 10.45266657010728,
          "lng": 7.423845220107279
        }
      },
      "formatted_address": "FC3F+JX5, Television 800282, Kaduna, Nigeria",
      "google_map_url": "https://maps.google.com?q=10.4540025,7.424973499999999",
      "google_place_id": "ChIJ-8nge-U1TRARiUCoE-FkiT8"
    }
  },
  {
    "id": "79488",
    "name": "C.18 TELEVISION ROAD",
    "registration_area_id": "4195",
    "precise_location": null,
    "abbreviation": "016",
    "units": "016",
    "delimitation": "18/10/04/016",
    "remark": "EXISTING PU",
    "ward_id": "4195",
    "ward_name": "TELEVISION",
    "local_government_id": "356",
    "local_government_name": "KADUNA SOUTH",
    "state_id": "18",
    "state_name": "KADUNA",
    "location": {
      "latitude": 10.4540025,
      "longitude": 7.424973499999999,
      "viewport": {
        "northeast": {
          "lat": 10.45536622989272,
          "lng": 7.426544879892723
        },
        "southwest": {
          "lat": 10.45266657010728,
          "lng": 7.423845220107279
        }
      },
      "formatted_address": "FC3F+JX5, Television 800282, Kaduna, Nigeria",
      "google_map_url": "https://maps.google.com?q=10.4540025,7.424973499999999",
      "google_place_id": "ChIJ-8nge-U1TRARiUCoE-FkiT8"
    }
  },
  {
    "id": "79489",
    "name": "R.I. GWARI/ KAGORO ROAD/ R I GWARI/KAGORO ROAD",
    "registration_area_id": "4195",
    "precise_location": null,
    "abbreviation": "017",
    "units": "017",
    "delimitation": "18/10/04/017",
    "remark": "EXISTING PU",
    "ward_id": "4195",
    "ward_name": "TELEVISION",
    "local_government_id": "356",
    "local_government_name": "KADUNA SOUTH",
    "state_id": "18",
    "state_name": "KADUNA",
    "location": {
      "latitude": 10.4469219,
      "longitude": 7.423831700000001,
      "viewport": {
        "northeast": {
          "lat": 10.44808037989272,
          "lng": 7.425173979892723
        },
        "southwest": {
          "lat": 10.44538072010728,
          "lng": 7.422474320107279
        }
      },
      "formatted_address": "4 Kagoro Road, Television 800282, Kaduna, Nigeria",
      "google_map_url": "https://maps.google.com?q=10.4469219,7.423831700000001",
      "google_place_id": "ChIJ59T8rOM1TRARk8xgOynmsJ4"
    }
  },
  {
    "id": "79490",
    "name": "KASUWAR KOSAI",
    "registration_area_id": "4195",
    "precise_location": null,
    "abbreviation": "018",
    "units": "018",
    "delimitation": "18/10/04/018",
    "remark": "EXISTING PU",
    "ward_id": "4195",
    "ward_name": "TELEVISION",
    "local_government_id": "356",
    "local_government_name": "KADUNA SOUTH",
    "state_id": "18",
    "state_name": "KADUNA",
    "location": {
      "latitude": 10.4540036,
      "longitude": 7.4250639,
      "viewport": {
        "northeast": {
          "lat": 10.45534087989272,
          "lng": 7.426587279892723
        },
        "southwest": {
          "lat": 10.45264122010728,
          "lng": 7.423887620107279
        }
      },
      "formatted_address": "Kaduna State Television, Television 800282, Kaduna, Nigeria",
      "google_map_url": "https://maps.google.com?q=10.4540036,7.4250639",
      "google_place_id": "ChIJ-cnge-U1TRAROZP2p-kCqNM"
    }
  },
  {
    "id": "79491",
    "name": "MOTOR N PARK",
    "registration_area_id": "4195",
    "precise_location": null,
    "abbreviation": "019",
    "units": "019",
    "delimitation": "18/10/04/019",
    "remark": "EXISTING PU",
    "ward_id": "4195",
    "ward_name": "TELEVISION",
    "local_government_id": "356",
    "local_government_name": "KADUNA SOUTH",
    "state_id": "18",
    "state_name": "KADUNA",
    "location": {
      "latitude": 10.4540025,
      "longitude": 7.424973499999999,
      "viewport": {
        "northeast": {
          "lat": 10.45536622989272,
          "lng": 7.426544879892723
        },
        "southwest": {
          "lat": 10.45266657010728,
          "lng": 7.423845220107279
        }
      },
      "formatted_address": "FC3F+JX5, Television 800282, Kaduna, Nigeria",
      "google_map_url": "https://maps.google.com?q=10.4540025,7.424973499999999",
      "google_place_id": "ChIJ-8nge-U1TRARiUCoE-FkiT8"
    }
  },
  {
    "id": "79492",
    "name": "LEA UNG. MAICHIBI AII",
    "registration_area_id": "4195",
    "precise_location": null,
    "abbreviation": "020",
    "units": "020",
    "delimitation": "18/10/04/020",
    "remark": "NEW PU",
    "ward_id": "4195",
    "ward_name": "TELEVISION",
    "local_government_id": "356",
    "local_government_name": "KADUNA SOUTH",
    "state_id": "18",
    "state_name": "KADUNA",
    "location": {
      "latitude": 10.4519122,
      "longitude": 7.433487500000001,
      "viewport": {
        "northeast": {
          "lat": 10.45357247989272,
          "lng": 7.434885729892721
        },
        "southwest": {
          "lat": 10.45087282010728,
          "lng": 7.432186070107277
        }
      },
      "formatted_address": "FC2M+Q99, Television 800282, Kaduna, Nigeria",
      "google_map_url": "https://maps.google.com?q=10.4519122,7.433487500000001",
      "google_place_id": "ChIJi4A9m_k1TRARVzvJp55yf9I"
    }
  },
  {
    "id": "79493",
    "name": "LEA UNGUWAN  MAICHIBI AIII",
    "registration_area_id": "4195",
    "precise_location": null,
    "abbreviation": "021",
    "units": "021",
    "delimitation": "18/10/04/021",
    "remark": "NEW PU",
    "ward_id": "4195",
    "ward_name": "TELEVISION",
    "local_government_id": "356",
    "local_government_name": "KADUNA SOUTH",
    "state_id": "18",
    "state_name": "KADUNA",
    "location": {
      "latitude": 10.4519122,
      "longitude": 7.433487500000001,
      "viewport": {
        "northeast": {
          "lat": 10.45357247989272,
          "lng": 7.434885729892721
        },
        "southwest": {
          "lat": 10.45087282010728,
          "lng": 7.432186070107277
        }
      },
      "formatted_address": "FC2M+Q99, Television 800282, Kaduna, Nigeria",
      "google_map_url": "https://maps.google.com?q=10.4519122,7.433487500000001",
      "google_place_id": "ChIJi4A9m_k1TRARVzvJp55yf9I"
    }
  },
  {
    "id": "79494",
    "name": "LEA UNGUWAN  MAICHIBI IIA",
    "registration_area_id": "4195",
    "precise_location": null,
    "abbreviation": "022",
    "units": "022",
    "delimitation": "18/10/04/022",
    "remark": "NEW PU",
    "ward_id": "4195",
    "ward_name": "TELEVISION",
    "local_government_id": "356",
    "local_government_name": "KADUNA SOUTH",
    "state_id": "18",
    "state_name": "KADUNA",
    "location": {
      "latitude": 10.4519122,
      "longitude": 7.433487500000001,
      "viewport": {
        "northeast": {
          "lat": 10.45357247989272,
          "lng": 7.434885729892721
        },
        "southwest": {
          "lat": 10.45087282010728,
          "lng": 7.432186070107277
        }
      },
      "formatted_address": "FC2M+Q99, Television 800282, Kaduna, Nigeria",
      "google_map_url": "https://maps.google.com?q=10.4519122,7.433487500000001",
      "google_place_id": "ChIJi4A9m_k1TRARVzvJp55yf9I"
    }
  },
  {
    "id": "79495",
    "name": "LEA UNGUWAN MAICHIBI IIB",
    "registration_area_id": "4195",
    "precise_location": null,
    "abbreviation": "023",
    "units": "023",
    "delimitation": "18/10/04/023",
    "remark": "NEW PU",
    "ward_id": "4195",
    "ward_name": "TELEVISION",
    "local_government_id": "356",
    "local_government_name": "KADUNA SOUTH",
    "state_id": "18",
    "state_name": "KADUNA",
    "location": {
      "latitude": 10.4519122,
      "longitude": 7.433487500000001,
      "viewport": {
        "northeast": {
          "lat": 10.45357247989272,
          "lng": 7.434885729892721
        },
        "southwest": {
          "lat": 10.45087282010728,
          "lng": 7.432186070107277
        }
      },
      "formatted_address": "FC2M+Q99, Television 800282, Kaduna, Nigeria",
      "google_map_url": "https://maps.google.com?q=10.4519122,7.433487500000001",
      "google_place_id": "ChIJi4A9m_k1TRARVzvJp55yf9I"
    }
  },
  {
    "id": "79496",
    "name": "LEA UNGUWAN MAICHIBI VA",
    "registration_area_id": "4195",
    "precise_location": null,
    "abbreviation": "024",
    "units": "024",
    "delimitation": "18/10/04/024",
    "remark": "NEW PU",
    "ward_id": "4195",
    "ward_name": "TELEVISION",
    "local_government_id": "356",
    "local_government_name": "KADUNA SOUTH",
    "state_id": "18",
    "state_name": "KADUNA",
    "location": {
      "latitude": 10.4519122,
      "longitude": 7.433487500000001,
      "viewport": {
        "northeast": {
          "lat": 10.45357247989272,
          "lng": 7.434885729892721
        },
        "southwest": {
          "lat": 10.45087282010728,
          "lng": 7.432186070107277
        }
      },
      "formatted_address": "FC2M+Q99, Television 800282, Kaduna, Nigeria",
      "google_map_url": "https://maps.google.com?q=10.4519122,7.433487500000001",
      "google_place_id": "ChIJi4A9m_k1TRARVzvJp55yf9I"
    }
  },
  {
    "id": "79497",
    "name": "LEA UNGUWAN MAICHIBI VB",
    "registration_area_id": "4195",
    "precise_location": null,
    "abbreviation": "025",
    "units": "025",
    "delimitation": "18/10/04/025",
    "remark": "NEW PU",
    "ward_id": "4195",
    "ward_name": "TELEVISION",
    "local_government_id": "356",
    "local_government_name": "KADUNA SOUTH",
    "state_id": "18",
    "state_name": "KADUNA",
    "location": {
      "latitude": 10.4519122,
      "longitude": 7.433487500000001,
      "viewport": {
        "northeast": {
          "lat": 10.45357247989272,
          "lng": 7.434885729892721
        },
        "southwest": {
          "lat": 10.45087282010728,
          "lng": 7.432186070107277
        }
      },
      "formatted_address": "FC2M+Q99, Television 800282, Kaduna, Nigeria",
      "google_map_url": "https://maps.google.com?q=10.4519122,7.433487500000001",
      "google_place_id": "ChIJi4A9m_k1TRARVzvJp55yf9I"
    }
  },
  {
    "id": "79498",
    "name": "NO 24 A ECWA CHURCH",
    "registration_area_id": "4195",
    "precise_location": null,
    "abbreviation": "026",
    "units": "026",
    "delimitation": "18/10/04/026",
    "remark": "NEW PU",
    "ward_id": "4195",
    "ward_name": "TELEVISION",
    "local_government_id": "356",
    "local_government_name": "KADUNA SOUTH",
    "state_id": "18",
    "state_name": "KADUNA",
    "location": {
      "latitude": 10.451171,
      "longitude": 7.4358658,
      "viewport": {
        "northeast": {
          "lat": 10.45253227989272,
          "lng": 7.437177879892722
        },
        "southwest": {
          "lat": 10.44983262010728,
          "lng": 7.434478220107279
        }
      },
      "formatted_address": "FC2P+F89, Majelisa St, Television 800104, Kaduna, Nigeria",
      "google_map_url": "https://maps.google.com?q=10.451171,7.4358658",
      "google_place_id": "ChIJg1b_7fg1TRARmIkdsxOqX44"
    }
  },
  {
    "id": "79499",
    "name": "TABA ROAD BY G/DAGACHI",
    "registration_area_id": "4195",
    "precise_location": null,
    "abbreviation": "027",
    "units": "027",
    "delimitation": "18/10/04/027",
    "remark": "NEW PU",
    "ward_id": "4195",
    "ward_name": "TELEVISION",
    "local_government_id": "356",
    "local_government_name": "KADUNA SOUTH",
    "state_id": "18",
    "state_name": "KADUNA",
    "location": {
      "latitude": 10.5070698,
      "longitude": 7.3983523,
      "viewport": {
        "northeast": {
          "lat": 10.50841527989272,
          "lng": 7.399698479892724
        },
        "southwest": {
          "lat": 10.50571562010728,
          "lng": 7.39699882010728
        }
      },
      "formatted_address": "BV9, Kabala Rd, T/WADA, Kaduna, Nigeria",
      "google_map_url": "https://maps.google.com?q=10.5070698,7.3983523",
      "google_place_id": "ChIJZQ4V3141TRARsWpMSDIi2Gs"
    }
  },
  {
    "id": "79500",
    "name": "TABA ROAD BY AYUBA BARDE ST",
    "registration_area_id": "4195",
    "precise_location": null,
    "abbreviation": "028",
    "units": "028",
    "delimitation": "18/10/04/028",
    "remark": "NEW PU",
    "ward_id": "4195",
    "ward_name": "TELEVISION",
    "local_government_id": "356",
    "local_government_name": "KADUNA SOUTH",
    "state_id": "18",
    "state_name": "KADUNA",
    "location": {
      "latitude": 10.4487979,
      "longitude": 7.431260499999999,
      "viewport": {
        "northeast": {
          "lat": 10.45014167989272,
          "lng": 7.432590029892723
        },
        "southwest": {
          "lat": 10.44744202010728,
          "lng": 7.429890370107279
        }
      },
      "formatted_address": "16A Ayuba Barde Rd, Television 800282, Kaduna, Nigeria",
      "google_map_url": "https://maps.google.com?q=10.4487979,7.431260499999999",
      "google_place_id": "ChIJx4bqSUE1TRARloAx9Kq7x14"
    }
  },
  {
    "id": "79501",
    "name": "MARKET ROAD",
    "registration_area_id": "4195",
    "precise_location": null,
    "abbreviation": "029",
    "units": "029",
    "delimitation": "18/10/04/029",
    "remark": "NEW PU",
    "ward_id": "4195",
    "ward_name": "TELEVISION",
    "local_government_id": "356",
    "local_government_name": "KADUNA SOUTH",
    "state_id": "18",
    "state_name": "KADUNA",
    "location": {
      "latitude": 10.4772549,
      "longitude": 7.398603,
      "viewport": {
        "northeast": {
          "lat": 10.47860472989272,
          "lng": 7.399952829892722
        },
        "southwest": {
          "lat": 10.47590507010728,
          "lng": 7.397253170107279
        }
      },
      "formatted_address": "Market Road, Nasarawa 800104, Makera, Nigeria",
      "google_map_url": "https://maps.google.com?q=10.4772549,7.398603",
      "google_place_id": "ChIJw42JdrI1TRARGcBP3rHbQ5A"
    }
  },
  {
    "id": "79502",
    "name": "MARKET ROAD",
    "registration_area_id": "4195",
    "precise_location": null,
    "abbreviation": "030",
    "units": "030",
    "delimitation": "18/10/04/030",
    "remark": "NEW PU",
    "ward_id": "4195",
    "ward_name": "TELEVISION",
    "local_government_id": "356",
    "local_government_name": "KADUNA SOUTH",
    "state_id": "18",
    "state_name": "KADUNA",
    "location": {
      "latitude": 10.4772549,
      "longitude": 7.398603,
      "viewport": {
        "northeast": {
          "lat": 10.47860472989272,
          "lng": 7.399952829892722
        },
        "southwest": {
          "lat": 10.47590507010728,
          "lng": 7.397253170107279
        }
      },
      "formatted_address": "Market Road, Nasarawa 800104, Makera, Nigeria",
      "google_map_url": "https://maps.google.com?q=10.4772549,7.398603",
      "google_place_id": "ChIJw42JdrI1TRARGcBP3rHbQ5A"
    }
  },
  {
    "id": "79503",
    "name": "SHANDAM ROAD I",
    "registration_area_id": "4195",
    "precise_location": null,
    "abbreviation": "031",
    "units": "031",
    "delimitation": "18/10/04/031",
    "remark": "NEW PU",
    "ward_id": "4195",
    "ward_name": "TELEVISION",
    "local_government_id": "356",
    "local_government_name": "KADUNA SOUTH",
    "state_id": "18",
    "state_name": "KADUNA",
    "location": {
      "latitude": 10.4540025,
      "longitude": 7.424973499999999,
      "viewport": {
        "northeast": {
          "lat": 10.45536622989272,
          "lng": 7.426544879892723
        },
        "southwest": {
          "lat": 10.45266657010728,
          "lng": 7.423845220107279
        }
      },
      "formatted_address": "FC3F+JX5, Television 800282, Kaduna, Nigeria",
      "google_map_url": "https://maps.google.com?q=10.4540025,7.424973499999999",
      "google_place_id": "ChIJ-8nge-U1TRARiUCoE-FkiT8"
    }
  },
  {
    "id": "79504",
    "name": "SHANDAM ROAD II",
    "registration_area_id": "4195",
    "precise_location": null,
    "abbreviation": "032",
    "units": "032",
    "delimitation": "18/10/04/032",
    "remark": "NEW PU",
    "ward_id": "4195",
    "ward_name": "TELEVISION",
    "local_government_id": "356",
    "local_government_name": "KADUNA SOUTH",
    "state_id": "18",
    "state_name": "KADUNA",
    "location": {
      "latitude": 10.4540025,
      "longitude": 7.424973499999999,
      "viewport": {
        "northeast": {
          "lat": 10.45536622989272,
          "lng": 7.426544879892723
        },
        "southwest": {
          "lat": 10.45266657010728,
          "lng": 7.423845220107279
        }
      },
      "formatted_address": "FC3F+JX5, Television 800282, Kaduna, Nigeria",
      "google_map_url": "https://maps.google.com?q=10.4540025,7.424973499999999",
      "google_place_id": "ChIJ-8nge-U1TRARiUCoE-FkiT8"
    }
  },
  {
    "id": "79505",
    "name": "IYAKA ST. BY MANGO TREE  II",
    "registration_area_id": "4195",
    "precise_location": null,
    "abbreviation": "033",
    "units": "033",
    "delimitation": "18/10/04/033",
    "remark": "NEW PU",
    "ward_id": "4195",
    "ward_name": "TELEVISION",
    "local_government_id": "356",
    "local_government_name": "KADUNA SOUTH",
    "state_id": "18",
    "state_name": "KADUNA",
    "location": {
      "latitude": 10.4478604,
      "longitude": 7.433215099999999,
      "viewport": {
        "northeast": {
          "lat": 10.44922162989272,
          "lng": 7.434535079892722
        },
        "southwest": {
          "lat": 10.44652197010728,
          "lng": 7.431835420107278
        }
      },
      "formatted_address": "35B Iyaka St, Television 800282, Kaduna, Nigeria",
      "google_map_url": "https://maps.google.com?q=10.4478604,7.433215099999999",
      "google_place_id": "ChIJCydKZxg1TRARN_wxE_PBpe0"
    }
  },
  {
    "id": "79506",
    "name": "IYAKA ST BY MANGO TREE  III",
    "registration_area_id": "4195",
    "precise_location": null,
    "abbreviation": "034",
    "units": "034",
    "delimitation": "18/10/04/034",
    "remark": "NEW PU",
    "ward_id": "4195",
    "ward_name": "TELEVISION",
    "local_government_id": "356",
    "local_government_name": "KADUNA SOUTH",
    "state_id": "18",
    "state_name": "KADUNA",
    "location": {
      "latitude": 10.4478604,
      "longitude": 7.433215099999999,
      "viewport": {
        "northeast": {
          "lat": 10.44922162989272,
          "lng": 7.434535079892722
        },
        "southwest": {
          "lat": 10.44652197010728,
          "lng": 7.431835420107278
        }
      },
      "formatted_address": "35B Iyaka St, Television 800282, Kaduna, Nigeria",
      "google_map_url": "https://maps.google.com?q=10.4478604,7.433215099999999",
      "google_place_id": "ChIJCydKZxg1TRARN_wxE_PBpe0"
    }
  },
  {
    "id": "79507",
    "name": "BAHAGO ROAD I",
    "registration_area_id": "4195",
    "precise_location": null,
    "abbreviation": "035",
    "units": "035",
    "delimitation": "18/10/04/035",
    "remark": "NEW PU",
    "ward_id": "4195",
    "ward_name": "TELEVISION",
    "local_government_id": "356",
    "local_government_name": "KADUNA SOUTH",
    "state_id": "18",
    "state_name": "KADUNA",
    "location": {
      "latitude": 10.4446737,
      "longitude": 7.4284365,
      "viewport": {
        "northeast": {
          "lat": 10.44603297989272,
          "lng": 7.429737829892721
        },
        "southwest": {
          "lat": 10.44333332010728,
          "lng": 7.427038170107277
        }
      },
      "formatted_address": "CCVH+V97, Television 800282, Kaduna, Nigeria",
      "google_map_url": "https://maps.google.com?q=10.4446737,7.4284365",
      "google_place_id": "ChIJpY7ELYY1TRARKVJMWqZUAww"
    }
  },
  {
    "id": "79508",
    "name": "BAHAGO ROAD II",
    "registration_area_id": "4195",
    "precise_location": null,
    "abbreviation": "036",
    "units": "036",
    "delimitation": "18/10/04/036",
    "remark": "NEW PU",
    "ward_id": "4195",
    "ward_name": "TELEVISION",
    "local_government_id": "356",
    "local_government_name": "KADUNA SOUTH",
    "state_id": "18",
    "state_name": "KADUNA",
    "location": {
      "latitude": 10.4446737,
      "longitude": 7.4284365,
      "viewport": {
        "northeast": {
          "lat": 10.44603297989272,
          "lng": 7.429737829892721
        },
        "southwest": {
          "lat": 10.44333332010728,
          "lng": 7.427038170107277
        }
      },
      "formatted_address": "CCVH+V97, Television 800282, Kaduna, Nigeria",
      "google_map_url": "https://maps.google.com?q=10.4446737,7.4284365",
      "google_place_id": "ChIJpY7ELYY1TRARKVJMWqZUAww"
    }
  },
  {
    "id": "79509",
    "name": "NO 36 BAHAGO ROAD",
    "registration_area_id": "4195",
    "precise_location": null,
    "abbreviation": "037",
    "units": "037",
    "delimitation": "18/10/04/037",
    "remark": "NEW PU",
    "ward_id": "4195",
    "ward_name": "TELEVISION",
    "local_government_id": "356",
    "local_government_name": "KADUNA SOUTH",
    "state_id": "18",
    "state_name": "KADUNA",
    "location": {
      "latitude": 10.4294985,
      "longitude": 7.4016205,
      "viewport": {
        "northeast": {
          "lat": 10.43084552989272,
          "lng": 7.402969029892723
        },
        "southwest": {
          "lat": 10.42814587010728,
          "lng": 7.400269370107279
        }
      },
      "formatted_address": "No 4 Bahago Street Ung-Kadara Television Kaduna, Television, Kaduna, Nigeria",
      "google_map_url": "https://maps.google.com?q=10.4294985,7.4016205",
      "google_place_id": "ChIJd0eh04g3TRARRagfT_HBU3Y"
    }
  },
  {
    "id": "79510",
    "name": "HAM ROAD TELEVISION",
    "registration_area_id": "4195",
    "precise_location": null,
    "abbreviation": "038",
    "units": "038",
    "delimitation": "18/10/04/038",
    "remark": "NEW PU",
    "ward_id": "4195",
    "ward_name": "TELEVISION",
    "local_government_id": "356",
    "local_government_name": "KADUNA SOUTH",
    "state_id": "18",
    "state_name": "KADUNA",
    "location": {
      "latitude": 10.4540025,
      "longitude": 7.424973499999999,
      "viewport": {
        "northeast": {
          "lat": 10.45536622989272,
          "lng": 7.426544879892723
        },
        "southwest": {
          "lat": 10.45266657010728,
          "lng": 7.423845220107279
        }
      },
      "formatted_address": "FC3F+JX5, Television 800282, Kaduna, Nigeria",
      "google_map_url": "https://maps.google.com?q=10.4540025,7.424973499999999",
      "google_place_id": "ChIJ-8nge-U1TRARiUCoE-FkiT8"
    }
  },
  {
    "id": "79511",
    "name": "SARKIN PAWA ST. BY ASOH HOTEL",
    "registration_area_id": "4195",
    "precise_location": null,
    "abbreviation": "039",
    "units": "039",
    "delimitation": "18/10/04/039",
    "remark": "NEW PU",
    "ward_id": "4195",
    "ward_name": "TELEVISION",
    "local_government_id": "356",
    "local_government_name": "KADUNA SOUTH",
    "state_id": "18",
    "state_name": "KADUNA",
    "location": {
      "latitude": 10.4790948,
      "longitude": 7.4451337,
      "viewport": {
        "northeast": {
          "lat": 10.48044697989272,
          "lng": 7.446500729892723
        },
        "southwest": {
          "lat": 10.47774732010728,
          "lng": 7.443801070107279
        }
      },
      "formatted_address": "Illiya Street, Kaduna, Nigeria",
      "google_map_url": "https://maps.google.com?q=10.4790948,7.4451337",
      "google_place_id": "ChIJUY3lPCw1TRARIaI4bQ7Ga3w"
    }
  },
  {
    "id": "79512",
    "name": "HAUSAWA ROAD II",
    "registration_area_id": "4195",
    "precise_location": null,
    "abbreviation": "040",
    "units": "040",
    "delimitation": "18/10/04/040",
    "remark": "NEW PU",
    "ward_id": "4195",
    "ward_name": "TELEVISION",
    "local_government_id": "356",
    "local_government_name": "KADUNA SOUTH",
    "state_id": "18",
    "state_name": "KADUNA",
    "location": {
      "latitude": 10.4527424,
      "longitude": 7.425563199999999,
      "viewport": {
        "northeast": {
          "lat": 10.45409092989272,
          "lng": 7.426880929892721
        },
        "southwest": {
          "lat": 10.45139127010728,
          "lng": 7.424181270107277
        }
      },
      "formatted_address": "FC3G+36W, Sarki Pawa Road, Television 800282, Kaduna, Nigeria",
      "google_map_url": "https://maps.google.com?q=10.4527424,7.425563199999999",
      "google_place_id": "ChIJRyPsE-U1TRARKCk6PB3TgVE"
    }
  },
  {
    "id": "79513",
    "name": "TELEVISION ROAD I",
    "registration_area_id": "4195",
    "precise_location": null,
    "abbreviation": "041",
    "units": "041",
    "delimitation": "18/10/04/041",
    "remark": "NEW PU",
    "ward_id": "4195",
    "ward_name": "TELEVISION",
    "local_government_id": "356",
    "local_government_name": "KADUNA SOUTH",
    "state_id": "18",
    "state_name": "KADUNA",
    "location": {
      "latitude": 10.4494782,
      "longitude": 7.4284527,
      "viewport": {
        "northeast": {
          "lat": 10.45082802989272,
          "lng": 7.42980252989272
        },
        "southwest": {
          "lat": 10.44812837010728,
          "lng": 7.427102870107277
        }
      },
      "formatted_address": "Television Road, Television 800282, Kakuri, Nigeria",
      "google_map_url": "https://maps.google.com?q=10.4494782,7.4284527",
      "google_place_id": "ChIJmQkbXfs1TRARhpJYsk4bMC8"
    }
  },
  {
    "id": "79514",
    "name": "TELEVISION NEW EXTENSION BY ASOH HOTEL",
    "registration_area_id": "4195",
    "precise_location": null,
    "abbreviation": "042",
    "units": "042",
    "delimitation": "18/10/04/042",
    "remark": "NEW PU",
    "ward_id": "4195",
    "ward_name": "TELEVISION",
    "local_government_id": "356",
    "local_government_name": "KADUNA SOUTH",
    "state_id": "18",
    "state_name": "KADUNA",
    "location": null
  },
  {
    "id": "79515",
    "name": "C18 TELEVISION ROAD II",
    "registration_area_id": "4195",
    "precise_location": null,
    "abbreviation": "043",
    "units": "043",
    "delimitation": "18/10/04/043",
    "remark": "NEW PU",
    "ward_id": "4195",
    "ward_name": "TELEVISION",
    "local_government_id": "356",
    "local_government_name": "KADUNA SOUTH",
    "state_id": "18",
    "state_name": "KADUNA",
    "location": {
      "latitude": 10.4540025,
      "longitude": 7.424973499999999,
      "viewport": {
        "northeast": {
          "lat": 10.45536622989272,
          "lng": 7.426544879892723
        },
        "southwest": {
          "lat": 10.45266657010728,
          "lng": 7.423845220107279
        }
      },
      "formatted_address": "FC3F+JX5, Television 800282, Kaduna, Nigeria",
      "google_map_url": "https://maps.google.com?q=10.4540025,7.424973499999999",
      "google_place_id": "ChIJ-8nge-U1TRARiUCoE-FkiT8"
    }
  },
  {
    "id": "79516",
    "name": "TELEVISION BUS STOP  BY KERO STANK",
    "registration_area_id": "4195",
    "precise_location": null,
    "abbreviation": "044",
    "units": "044",
    "delimitation": "18/10/04/044",
    "remark": "NEW PU",
    "ward_id": "4195",
    "ward_name": "TELEVISION",
    "local_government_id": "356",
    "local_government_name": "KADUNA SOUTH",
    "state_id": "18",
    "state_name": "KADUNA",
    "location": {
      "latitude": 10.6656794,
      "longitude": 7.4834342,
      "viewport": {
        "northeast": {
          "lat": 10.66722062989272,
          "lng": 7.484762529892723
        },
        "southwest": {
          "lat": 10.66452097010728,
          "lng": 7.482062870107279
        }
      },
      "formatted_address": "MF8M+79F, 800102, Rigachikun, Nigeria",
      "google_map_url": "https://maps.google.com?q=10.6656794,7.4834342",
      "google_place_id": "ChIJcZqjGdS3shERJef7BEFO22c"
    }
  },
  {
    "id": "79517",
    "name": "GWARI ROAD",
    "registration_area_id": "4195",
    "precise_location": null,
    "abbreviation": "045",
    "units": "045",
    "delimitation": "18/10/04/045",
    "remark": "NEW PU",
    "ward_id": "4195",
    "ward_name": "TELEVISION",
    "local_government_id": "356",
    "local_government_name": "KADUNA SOUTH",
    "state_id": "18",
    "state_name": "KADUNA",
    "location": {
      "latitude": 10.4540025,
      "longitude": 7.424973499999999,
      "viewport": {
        "northeast": {
          "lat": 10.45536622989272,
          "lng": 7.426544879892723
        },
        "southwest": {
          "lat": 10.45266657010728,
          "lng": 7.423845220107279
        }
      },
      "formatted_address": "FC3F+JX5, Television 800282, Kaduna, Nigeria",
      "google_map_url": "https://maps.google.com?q=10.4540025,7.424973499999999",
      "google_place_id": "ChIJ-8nge-U1TRARiUCoE-FkiT8"
    }
  },
  {
    "id": "79518",
    "name": "TELEVISION ROAD BY EURO FOAM",
    "registration_area_id": "4195",
    "precise_location": null,
    "abbreviation": "046",
    "units": "046",
    "delimitation": "18/10/04/046",
    "remark": "NEW PU",
    "ward_id": "4195",
    "ward_name": "TELEVISION",
    "local_government_id": "356",
    "local_government_name": "KADUNA SOUTH",
    "state_id": "18",
    "state_name": "KADUNA",
    "location": {
      "latitude": 10.4540025,
      "longitude": 7.424973499999999,
      "viewport": {
        "northeast": {
          "lat": 10.45536622989272,
          "lng": 7.426544879892723
        },
        "southwest": {
          "lat": 10.45266657010728,
          "lng": 7.423845220107279
        }
      },
      "formatted_address": "FC3F+JX5, Television 800282, Kaduna, Nigeria",
      "google_map_url": "https://maps.google.com?q=10.4540025,7.424973499999999",
      "google_place_id": "ChIJ-8nge-U1TRARiUCoE-FkiT8"
    }
  },
  {
    "id": "79519",
    "name": "BESIDE TOTAL FILLING STATION OPP COMMAND JUNCTION",
    "registration_area_id": "4195",
    "precise_location": null,
    "abbreviation": "047",
    "units": "047",
    "delimitation": "18/10/04/047",
    "remark": "NEW PU",
    "ward_id": "4195",
    "ward_name": "TELEVISION",
    "local_government_id": "356",
    "local_government_name": "KADUNA SOUTH",
    "state_id": "18",
    "state_name": "KADUNA",
    "location": {
      "latitude": 10.4450279,
      "longitude": 7.424215299999999,
      "viewport": {
        "northeast": {
          "lat": 10.44624502989272,
          "lng": 7.425513579892721
        },
        "southwest": {
          "lat": 10.44354537010728,
          "lng": 7.422813920107277
        }
      },
      "formatted_address": "CCWF+2MM, Television 800282, Kaduna, Nigeria",
      "google_map_url": "https://maps.google.com?q=10.4450279,7.424215299999999",
      "google_place_id": "ChIJFzX0W-I1TRARR0l80whZ69I"
    }
  }
]