[
  {
    "id": "11622",
    "name": "VILLAGE HALL, UDUNG OTOK",
    "registration_area_id": "687",
    "precise_location": null,
    "abbreviation": "001",
    "units": "001",
    "delimitation": "03/27/01/001",
    "remark": "EXISTING PU",
    "ward_id": "687",
    "ward_name": "UDUNG UKO 1",
    "local_government_id": "65",
    "local_government_name": "UDUNG UKO",
    "state_id": "3",
    "state_name": "AKWA IBOM",
    "location": {
      "latitude": 4.7452817,
      "longitude": 8.2814747,
      "viewport": {
        "northeast": {
          "lat": 4.7699042,
          "lng": 8.3286602
        },
        "southwest": {
          "lat": 4.7193197,
          "lng": 8.221677999999999
        }
      },
      "formatted_address": "Udung Uko 1, Nigeria",
      "google_map_url": "https://maps.google.com?q=4.7452817,8.2814747",
      "google_place_id": "ChIJ__QbRSOXZxARnUPnEr6oSv8"
    }
  },
  {
    "id": "11623",
    "name": "VILLAGE HALL, EYONSEK",
    "registration_area_id": "687",
    "precise_location": null,
    "abbreviation": "002",
    "units": "002",
    "delimitation": "03/27/01/002",
    "remark": "EXISTING PU",
    "ward_id": "687",
    "ward_name": "UDUNG UKO 1",
    "local_government_id": "65",
    "local_government_name": "UDUNG UKO",
    "state_id": "3",
    "state_name": "AKWA IBOM",
    "location": {
      "latitude": 4.7389,
      "longitude": 8.1698675,
      "viewport": {
        "northeast": {
          "lat": 4.740239879892721,
          "lng": 8.17122532989272
        },
        "southwest": {
          "lat": 4.737540220107277,
          "lng": 8.168525670107277
        }
      },
      "formatted_address": "P5Q9+HW9, 523110, Oduko, Nigeria",
      "google_map_url": "https://maps.google.com?q=4.7389,8.1698675",
      "google_place_id": "ChIJh4DTqfOUZxAR_h9tMbCZPzA"
    }
  },
  {
    "id": "11624",
    "name": "VILLAGE HALL, UDUNG ESIO",
    "registration_area_id": "687",
    "precise_location": null,
    "abbreviation": "003",
    "units": "003",
    "delimitation": "03/27/01/003",
    "remark": "EXISTING PU",
    "ward_id": "687",
    "ward_name": "UDUNG UKO 1",
    "local_government_id": "65",
    "local_government_name": "UDUNG UKO",
    "state_id": "3",
    "state_name": "AKWA IBOM",
    "location": {
      "latitude": 4.7452817,
      "longitude": 8.2814747,
      "viewport": {
        "northeast": {
          "lat": 4.7699042,
          "lng": 8.3286602
        },
        "southwest": {
          "lat": 4.7193197,
          "lng": 8.221677999999999
        }
      },
      "formatted_address": "Udung Uko 1, Nigeria",
      "google_map_url": "https://maps.google.com?q=4.7452817,8.2814747",
      "google_place_id": "ChIJ__QbRSOXZxARnUPnEr6oSv8"
    }
  },
  {
    "id": "11625",
    "name": "VILLAGE SQUARE, ENIONGO",
    "registration_area_id": "687",
    "precise_location": null,
    "abbreviation": "004",
    "units": "004",
    "delimitation": "03/27/01/004",
    "remark": "EXISTING PU",
    "ward_id": "687",
    "ward_name": "UDUNG UKO 1",
    "local_government_id": "65",
    "local_government_name": "UDUNG UKO",
    "state_id": "3",
    "state_name": "AKWA IBOM",
    "location": {
      "latitude": 4.7507369,
      "longitude": 8.2541155,
      "viewport": {
        "northeast": {
          "lat": 4.781293799999999,
          "lng": 8.3168212
        },
        "southwest": {
          "lat": 4.7199803,
          "lng": 8.198616
        }
      },
      "formatted_address": "Udung Uko, Nigeria",
      "google_map_url": "https://maps.google.com?q=4.7507369,8.2541155",
      "google_place_id": "ChIJTZozdtqWZxARTraa4BijiQ4"
    }
  },
  {
    "id": "11626",
    "name": "MARKET SQUARE, EYO ULIONG",
    "registration_area_id": "687",
    "precise_location": null,
    "abbreviation": "005",
    "units": "005",
    "delimitation": "03/27/01/005",
    "remark": "EXISTING PU",
    "ward_id": "687",
    "ward_name": "UDUNG UKO 1",
    "local_government_id": "65",
    "local_government_name": "UDUNG UKO",
    "state_id": "3",
    "state_name": "AKWA IBOM",
    "location": null
  },
  {
    "id": "11627",
    "name": "ST. MICHAEL PRIMARY SCHOOL EYONSEK.",
    "registration_area_id": "687",
    "precise_location": null,
    "abbreviation": "006",
    "units": "006",
    "delimitation": "03/27/01/006",
    "remark": "NEW PU",
    "ward_id": "687",
    "ward_name": "UDUNG UKO 1",
    "local_government_id": "65",
    "local_government_name": "UDUNG UKO",
    "state_id": "3",
    "state_name": "AKWA IBOM",
    "location": {
      "latitude": 5.0188725,
      "longitude": 7.9088233,
      "viewport": {
        "northeast": {
          "lat": 5.020144879892722,
          "lng": 7.91024387989272
        },
        "southwest": {
          "lat": 5.017445220107278,
          "lng": 7.907544220107276
        }
      },
      "formatted_address": "Efiat Offot, Abak Rd, 520102, Uyo, Nigeria",
      "google_map_url": "https://maps.google.com?q=5.0188725,7.9088233",
      "google_place_id": "ChIJ5aY0H2hXXRAR4wOMTpm7Q4E"
    }
  },
  {
    "id": "11628",
    "name": "OPEN SPACE OPPOSITE VILLAGE HEAD COMPOUND EYOLILIONG",
    "registration_area_id": "687",
    "precise_location": null,
    "abbreviation": "007",
    "units": "007",
    "delimitation": "03/27/01/007",
    "remark": "NEW PU",
    "ward_id": "687",
    "ward_name": "UDUNG UKO 1",
    "local_government_id": "65",
    "local_government_name": "UDUNG UKO",
    "state_id": "3",
    "state_name": "AKWA IBOM",
    "location": null
  }
]