[
  {
    "id": "47221",
    "name": "AMUZU IGBEAGU VILLAGE HALL I",
    "registration_area_id": "2561",
    "precise_location": null,
    "abbreviation": "001",
    "units": "001",
    "delimitation": "11/10/08/001",
    "remark": "EXISTING PU",
    "ward_id": "2561",
    "ward_name": "IGBEAGU NDUOGBU",
    "local_government_id": "221",
    "local_government_name": "IZZI",
    "state_id": "11",
    "state_name": "EBONYI",
    "location": {
      "latitude": 6.536719499999999,
      "longitude": 8.2850402,
      "viewport": {
        "northeast": {
          "lat": 6.538163429892722,
          "lng": 8.286384429892724
        },
        "southwest": {
          "lat": 6.535463770107278,
          "lng": 8.28368477010728
        }
      },
      "formatted_address": "G7PP+M2M, Nwezenyi, Igbeagu, Nigeria",
      "google_map_url": "https://maps.google.com?q=6.536719499999999,8.2850402",
      "google_place_id": "ChIJD9cuzbhvWxARyTCuIPqCGFo"
    }
  },
  {
    "id": "47222",
    "name": "AMUZU IGBEAGU VILLAGE HALL II",
    "registration_area_id": "2561",
    "precise_location": null,
    "abbreviation": "002",
    "units": "002",
    "delimitation": "11/10/08/002",
    "remark": "EXISTING PU",
    "ward_id": "2561",
    "ward_name": "IGBEAGU NDUOGBU",
    "local_government_id": "221",
    "local_government_name": "IZZI",
    "state_id": "11",
    "state_name": "EBONYI",
    "location": {
      "latitude": 6.536719499999999,
      "longitude": 8.2850402,
      "viewport": {
        "northeast": {
          "lat": 6.538163429892722,
          "lng": 8.286384429892724
        },
        "southwest": {
          "lat": 6.535463770107278,
          "lng": 8.28368477010728
        }
      },
      "formatted_address": "G7PP+M2M, Nwezenyi, Igbeagu, Nigeria",
      "google_map_url": "https://maps.google.com?q=6.536719499999999,8.2850402",
      "google_place_id": "ChIJD9cuzbhvWxARyTCuIPqCGFo"
    }
  },
  {
    "id": "47223",
    "name": "NDUKABI IGBEAGU I.C.S.",
    "registration_area_id": "2561",
    "precise_location": null,
    "abbreviation": "003",
    "units": "003",
    "delimitation": "11/10/08/003",
    "remark": "EXISTING PU",
    "ward_id": "2561",
    "ward_name": "IGBEAGU NDUOGBU",
    "local_government_id": "221",
    "local_government_name": "IZZI",
    "state_id": "11",
    "state_name": "EBONYI",
    "location": {
      "latitude": 6.3527923,
      "longitude": 8.2322355,
      "viewport": {
        "northeast": {
          "lat": 6.439005799999999,
          "lng": 8.375333399999999
        },
        "southwest": {
          "lat": 6.3005111,
          "lng": 8.1768094
        }
      },
      "formatted_address": "Igbeagu Nduogbu, 480110, Nigeria",
      "google_map_url": "https://maps.google.com?q=6.3527923,8.2322355",
      "google_place_id": "ChIJO-iZJ-5iWxARr7fe7Gh7lpg"
    }
  },
  {
    "id": "47224",
    "name": "NDIOGBU MARKET SQ. IGBEAGU",
    "registration_area_id": "2561",
    "precise_location": null,
    "abbreviation": "004",
    "units": "004",
    "delimitation": "11/10/08/004",
    "remark": "EXISTING PU",
    "ward_id": "2561",
    "ward_name": "IGBEAGU NDUOGBU",
    "local_government_id": "221",
    "local_government_name": "IZZI",
    "state_id": "11",
    "state_name": "EBONYI",
    "location": {
      "latitude": 6.536719499999999,
      "longitude": 8.2850402,
      "viewport": {
        "northeast": {
          "lat": 6.538163429892722,
          "lng": 8.286384429892724
        },
        "southwest": {
          "lat": 6.535463770107278,
          "lng": 8.28368477010728
        }
      },
      "formatted_address": "G7PP+M2M, Nwezenyi, Igbeagu, Nigeria",
      "google_map_url": "https://maps.google.com?q=6.536719499999999,8.2850402",
      "google_place_id": "ChIJD9cuzbhvWxARyTCuIPqCGFo"
    }
  },
  {
    "id": "47225",
    "name": "OFFIANKWU VILLAGE HALL",
    "registration_area_id": "2561",
    "precise_location": null,
    "abbreviation": "005",
    "units": "005",
    "delimitation": "11/10/08/005",
    "remark": "EXISTING PU",
    "ward_id": "2561",
    "ward_name": "IGBEAGU NDUOGBU",
    "local_government_id": "221",
    "local_government_name": "IZZI",
    "state_id": "11",
    "state_name": "EBONYI",
    "location": null
  },
  {
    "id": "47226",
    "name": "ODODOKPA VILLAGE SQUARE",
    "registration_area_id": "2561",
    "precise_location": null,
    "abbreviation": "006",
    "units": "006",
    "delimitation": "11/10/08/006",
    "remark": "EXISTING PU",
    "ward_id": "2561",
    "ward_name": "IGBEAGU NDUOGBU",
    "local_government_id": "221",
    "local_government_name": "IZZI",
    "state_id": "11",
    "state_name": "EBONYI",
    "location": {
      "latitude": 6.536719499999999,
      "longitude": 8.2850402,
      "viewport": {
        "northeast": {
          "lat": 6.538163429892722,
          "lng": 8.286384429892724
        },
        "southwest": {
          "lat": 6.535463770107278,
          "lng": 8.28368477010728
        }
      },
      "formatted_address": "G7PP+M2M, Nwezenyi, Igbeagu, Nigeria",
      "google_map_url": "https://maps.google.com?q=6.536719499999999,8.2850402",
      "google_place_id": "ChIJD9cuzbhvWxARyTCuIPqCGFo"
    }
  },
  {
    "id": "47227",
    "name": "NDINKWUDA PRIMARY SCHOOL",
    "registration_area_id": "2561",
    "precise_location": null,
    "abbreviation": "007",
    "units": "007",
    "delimitation": "11/10/08/007",
    "remark": "EXISTING PU",
    "ward_id": "2561",
    "ward_name": "IGBEAGU NDUOGBU",
    "local_government_id": "221",
    "local_government_name": "IZZI",
    "state_id": "11",
    "state_name": "EBONYI",
    "location": {
      "latitude": 6.322843199999999,
      "longitude": 8.1978177,
      "viewport": {
        "northeast": {
          "lat": 6.324144329892722,
          "lng": 8.199394779892723
        },
        "southwest": {
          "lat": 6.321444670107278,
          "lng": 8.196695120107279
        }
      },
      "formatted_address": "85FX+44P, 480110, Ezzagu, Nigeria",
      "google_map_url": "https://maps.google.com?q=6.322843199999999,8.1978177",
      "google_place_id": "ChIJH3JJlD-eXBAR0Wb7-HRJFKk"
    }
  },
  {
    "id": "47228",
    "name": "NDINKWUDA MARKET SQUARE",
    "registration_area_id": "2561",
    "precise_location": null,
    "abbreviation": "008",
    "units": "008",
    "delimitation": "11/10/08/008",
    "remark": "EXISTING PU",
    "ward_id": "2561",
    "ward_name": "IGBEAGU NDUOGBU",
    "local_government_id": "221",
    "local_government_name": "IZZI",
    "state_id": "11",
    "state_name": "EBONYI",
    "location": {
      "latitude": 6.536719499999999,
      "longitude": 8.2850402,
      "viewport": {
        "northeast": {
          "lat": 6.538163429892722,
          "lng": 8.286384429892724
        },
        "southwest": {
          "lat": 6.535463770107278,
          "lng": 8.28368477010728
        }
      },
      "formatted_address": "G7PP+M2M, Nwezenyi, Igbeagu, Nigeria",
      "google_map_url": "https://maps.google.com?q=6.536719499999999,8.2850402",
      "google_place_id": "ChIJD9cuzbhvWxARyTCuIPqCGFo"
    }
  },
  {
    "id": "47229",
    "name": "IGWELEDOHA PRIMARY SCHOOL",
    "registration_area_id": "2561",
    "precise_location": null,
    "abbreviation": "009",
    "units": "009",
    "delimitation": "11/10/08/009",
    "remark": "EXISTING PU",
    "ward_id": "2561",
    "ward_name": "IGBEAGU NDUOGBU",
    "local_government_id": "221",
    "local_government_name": "IZZI",
    "state_id": "11",
    "state_name": "EBONYI",
    "location": {
      "latitude": 6.3640105,
      "longitude": 8.3320438,
      "viewport": {
        "northeast": {
          "lat": 6.365791479892722,
          "lng": 8.33338317989272
        },
        "southwest": {
          "lat": 6.363091820107278,
          "lng": 8.330683520107277
        }
      },
      "formatted_address": "Ogoja-Abakaliki Rd, 480110, Nigeria",
      "google_map_url": "https://maps.google.com?q=6.3640105,8.3320438",
      "google_place_id": "ChIJAZYmftp9WxARMb5lYk3Xxco"
    }
  },
  {
    "id": "47230",
    "name": "MBAMINI VILLAGE HALL",
    "registration_area_id": "2561",
    "precise_location": null,
    "abbreviation": "010",
    "units": "010",
    "delimitation": "11/10/08/010",
    "remark": "EXISTING PU",
    "ward_id": "2561",
    "ward_name": "IGBEAGU NDUOGBU",
    "local_government_id": "221",
    "local_government_name": "IZZI",
    "state_id": "11",
    "state_name": "EBONYI",
    "location": {
      "latitude": 6.3281443,
      "longitude": 8.104180699999999,
      "viewport": {
        "northeast": {
          "lat": 6.329588579892722,
          "lng": 8.105531079892723
        },
        "southwest": {
          "lat": 6.326888920107278,
          "lng": 8.102831420107279
        }
      },
      "formatted_address": "1 Onwe Rd, Ntezi Abba 480108, Abakaliki, Nigeria",
      "google_map_url": "https://maps.google.com?q=6.3281443,8.104180699999999",
      "google_place_id": "ChIJUf_5LWmgXBARKBfJ1BxFVp8"
    }
  },
  {
    "id": "47231",
    "name": "NDIDOKO PRIMARY SCH.",
    "registration_area_id": "2561",
    "precise_location": null,
    "abbreviation": "011",
    "units": "011",
    "delimitation": "11/10/08/011",
    "remark": "EXISTING PU",
    "ward_id": "2561",
    "ward_name": "IGBEAGU NDUOGBU",
    "local_government_id": "221",
    "local_government_name": "IZZI",
    "state_id": "11",
    "state_name": "EBONYI",
    "location": {
      "latitude": 6.3640105,
      "longitude": 8.3320438,
      "viewport": {
        "northeast": {
          "lat": 6.365791479892722,
          "lng": 8.33338317989272
        },
        "southwest": {
          "lat": 6.363091820107278,
          "lng": 8.330683520107277
        }
      },
      "formatted_address": "Ogoja-Abakaliki Rd, 480110, Nigeria",
      "google_map_url": "https://maps.google.com?q=6.3640105,8.3320438",
      "google_place_id": "ChIJAZYmftp9WxARMb5lYk3Xxco"
    }
  },
  {
    "id": "47232",
    "name": "NDIGWE PRIMARY SCHOOL",
    "registration_area_id": "2561",
    "precise_location": null,
    "abbreviation": "012",
    "units": "012",
    "delimitation": "11/10/08/012",
    "remark": "EXISTING PU",
    "ward_id": "2561",
    "ward_name": "IGBEAGU NDUOGBU",
    "local_government_id": "221",
    "local_government_name": "IZZI",
    "state_id": "11",
    "state_name": "EBONYI",
    "location": {
      "latitude": 6.3640105,
      "longitude": 8.3320438,
      "viewport": {
        "northeast": {
          "lat": 6.365791479892722,
          "lng": 8.33338317989272
        },
        "southwest": {
          "lat": 6.363091820107278,
          "lng": 8.330683520107277
        }
      },
      "formatted_address": "Ogoja-Abakaliki Rd, 480110, Nigeria",
      "google_map_url": "https://maps.google.com?q=6.3640105,8.3320438",
      "google_place_id": "ChIJAZYmftp9WxARMb5lYk3Xxco"
    }
  },
  {
    "id": "47233",
    "name": "NDIDOKO COMMUNITY PRIMARY SCHOOL",
    "registration_area_id": "2561",
    "precise_location": null,
    "abbreviation": "013",
    "units": "013",
    "delimitation": "11/10/08/013",
    "remark": "EXISTING PU",
    "ward_id": "2561",
    "ward_name": "IGBEAGU NDUOGBU",
    "local_government_id": "221",
    "local_government_name": "IZZI",
    "state_id": "11",
    "state_name": "EBONYI",
    "location": {
      "latitude": 6.3640105,
      "longitude": 8.3320438,
      "viewport": {
        "northeast": {
          "lat": 6.365791479892722,
          "lng": 8.33338317989272
        },
        "southwest": {
          "lat": 6.363091820107278,
          "lng": 8.330683520107277
        }
      },
      "formatted_address": "Ogoja-Abakaliki Rd, 480110, Nigeria",
      "google_map_url": "https://maps.google.com?q=6.3640105,8.3320438",
      "google_place_id": "ChIJAZYmftp9WxARMb5lYk3Xxco"
    }
  },
  {
    "id": "47234",
    "name": "SPECIAL SCIENCE SCH. IGBEAGU",
    "registration_area_id": "2561",
    "precise_location": null,
    "abbreviation": "014",
    "units": "014",
    "delimitation": "11/10/08/014",
    "remark": "EXISTING PU",
    "ward_id": "2561",
    "ward_name": "IGBEAGU NDUOGBU",
    "local_government_id": "221",
    "local_government_name": "IZZI",
    "state_id": "11",
    "state_name": "EBONYI",
    "location": {
      "latitude": 6.322843199999999,
      "longitude": 8.1978177,
      "viewport": {
        "northeast": {
          "lat": 6.324144329892722,
          "lng": 8.199394779892723
        },
        "southwest": {
          "lat": 6.321444670107278,
          "lng": 8.196695120107279
        }
      },
      "formatted_address": "85FX+44P, 480110, Ezzagu, Nigeria",
      "google_map_url": "https://maps.google.com?q=6.322843199999999,8.1978177",
      "google_place_id": "ChIJH3JJlD-eXBAR0Wb7-HRJFKk"
    }
  },
  {
    "id": "47235",
    "name": "AMUZU IGBEAGU VILLAGE HALL II",
    "registration_area_id": "2561",
    "precise_location": null,
    "abbreviation": "015",
    "units": "015",
    "delimitation": "11/10/08/015",
    "remark": "NEW PU",
    "ward_id": "2561",
    "ward_name": "IGBEAGU NDUOGBU",
    "local_government_id": "221",
    "local_government_name": "IZZI",
    "state_id": "11",
    "state_name": "EBONYI",
    "location": {
      "latitude": 6.536719499999999,
      "longitude": 8.2850402,
      "viewport": {
        "northeast": {
          "lat": 6.538163429892722,
          "lng": 8.286384429892724
        },
        "southwest": {
          "lat": 6.535463770107278,
          "lng": 8.28368477010728
        }
      },
      "formatted_address": "G7PP+M2M, Nwezenyi, Igbeagu, Nigeria",
      "google_map_url": "https://maps.google.com?q=6.536719499999999,8.2850402",
      "google_place_id": "ChIJD9cuzbhvWxARyTCuIPqCGFo"
    }
  },
  {
    "id": "47236",
    "name": "OFFIANKWU VILLAGE HALL II",
    "registration_area_id": "2561",
    "precise_location": null,
    "abbreviation": "016",
    "units": "016",
    "delimitation": "11/10/08/016",
    "remark": "NEW PU",
    "ward_id": "2561",
    "ward_name": "IGBEAGU NDUOGBU",
    "local_government_id": "221",
    "local_government_name": "IZZI",
    "state_id": "11",
    "state_name": "EBONYI",
    "location": null
  },
  {
    "id": "47237",
    "name": "EDUKWU IGWE VIL. SQ.",
    "registration_area_id": "2561",
    "precise_location": null,
    "abbreviation": "017",
    "units": "017",
    "delimitation": "11/10/08/017",
    "remark": "NEW PU",
    "ward_id": "2561",
    "ward_name": "IGBEAGU NDUOGBU",
    "local_government_id": "221",
    "local_government_name": "IZZI",
    "state_id": "11",
    "state_name": "EBONYI",
    "location": {
      "latitude": 6.3527923,
      "longitude": 8.2322355,
      "viewport": {
        "northeast": {
          "lat": 6.439005799999999,
          "lng": 8.375333399999999
        },
        "southwest": {
          "lat": 6.3005111,
          "lng": 8.1768094
        }
      },
      "formatted_address": "Igbeagu Nduogbu, 480110, Nigeria",
      "google_map_url": "https://maps.google.com?q=6.3527923,8.2322355",
      "google_place_id": "ChIJO-iZJ-5iWxARr7fe7Gh7lpg"
    }
  },
  {
    "id": "47238",
    "name": "NDIGWE PRI. SCH. II",
    "registration_area_id": "2561",
    "precise_location": null,
    "abbreviation": "018",
    "units": "018",
    "delimitation": "11/10/08/018",
    "remark": "NEW PU",
    "ward_id": "2561",
    "ward_name": "IGBEAGU NDUOGBU",
    "local_government_id": "221",
    "local_government_name": "IZZI",
    "state_id": "11",
    "state_name": "EBONYI",
    "location": {
      "latitude": 6.3640105,
      "longitude": 8.3320438,
      "viewport": {
        "northeast": {
          "lat": 6.365791479892722,
          "lng": 8.33338317989272
        },
        "southwest": {
          "lat": 6.363091820107278,
          "lng": 8.330683520107277
        }
      },
      "formatted_address": "Ogoja-Abakaliki Rd, 480110, Nigeria",
      "google_map_url": "https://maps.google.com?q=6.3640105,8.3320438",
      "google_place_id": "ChIJAZYmftp9WxARMb5lYk3Xxco"
    }
  }
]