[
  {
    "id": "352421",
    "name": "AJOBO VILLAGE",
    "registration_area_id": "18046",
    "precise_location": null,
    "abbreviation": "001",
    "units": "001",
    "delimitation": "30/02/03/001",
    "remark": "EXISTING PU",
    "ward_id": "18046",
    "ward_name": "ARULOGUN/ENIOSA/ARORO",
    "local_government_id": "629",
    "local_government_name": "AKINYELE",
    "state_id": "30",
    "state_name": "OYO",
    "location": {
      "latitude": 7.5608529,
      "longitude": 3.9776389,
      "viewport": {
        "northeast": {
          "lat": 7.5967628,
          "lng": 4.022462
        },
        "southwest": {
          "lat": 7.492432200000001,
          "lng": 3.929093
        }
      },
      "formatted_address": "Arulogun/Eniosa/Aroro, Nigeria",
      "google_map_url": "https://maps.google.com?q=7.5608529,3.9776389",
      "google_place_id": "ChIJD_nuJ9ruORARxibOXITaJRs"
    }
  },
  {
    "id": "352422",
    "name": "AKINAJO VILLAGE",
    "registration_area_id": "18046",
    "precise_location": null,
    "abbreviation": "002",
    "units": "002",
    "delimitation": "30/02/03/002",
    "remark": "EXISTING PU",
    "ward_id": "18046",
    "ward_name": "ARULOGUN/ENIOSA/ARORO",
    "local_government_id": "629",
    "local_government_name": "AKINYELE",
    "state_id": "30",
    "state_name": "OYO",
    "location": {
      "latitude": 7.575767399999999,
      "longitude": 4.0098515,
      "viewport": {
        "northeast": {
          "lat": 7.581590999999999,
          "lng": 4.023269
        },
        "southwest": {
          "lat": 7.575036000000001,
          "lng": 4.008268999999999
        }
      },
      "formatted_address": "200105, Akinajo, Nigeria",
      "google_map_url": "https://maps.google.com?q=7.575767399999999,4.0098515",
      "google_place_id": "ChIJ0fJLCpHoORARHKDLrB3KoGg"
    }
  },
  {
    "id": "352423",
    "name": "ARORO VILLAGE",
    "registration_area_id": "18046",
    "precise_location": null,
    "abbreviation": "003",
    "units": "003",
    "delimitation": "30/02/03/003",
    "remark": "EXISTING PU",
    "ward_id": "18046",
    "ward_name": "ARULOGUN/ENIOSA/ARORO",
    "local_government_id": "629",
    "local_government_name": "AKINYELE",
    "state_id": "30",
    "state_name": "OYO",
    "location": {
      "latitude": 7.5245844,
      "longitude": 3.953413,
      "viewport": {
        "northeast": {
          "lat": 7.529019000000001,
          "lng": 3.9586731
        },
        "southwest": {
          "lat": 7.519500099999999,
          "lng": 3.94635
        }
      },
      "formatted_address": "200137, Aroro, Nigeria",
      "google_map_url": "https://maps.google.com?q=7.5245844,3.953413",
      "google_place_id": "ChIJJZUdDIzuORAR7AVl2IVclg8"
    }
  },
  {
    "id": "352424",
    "name": "ATERE ORITAMERIN VILLAGE",
    "registration_area_id": "18046",
    "precise_location": null,
    "abbreviation": "004",
    "units": "004",
    "delimitation": "30/02/03/004",
    "remark": "EXISTING PU",
    "ward_id": "18046",
    "ward_name": "ARULOGUN/ENIOSA/ARORO",
    "local_government_id": "629",
    "local_government_name": "AKINYELE",
    "state_id": "30",
    "state_name": "OYO",
    "location": {
      "latitude": 7.4856561,
      "longitude": 3.926805,
      "viewport": {
        "northeast": {
          "lat": 7.487026129892722,
          "lng": 3.928130429892721
        },
        "southwest": {
          "lat": 7.484326470107278,
          "lng": 3.925430770107277
        }
      },
      "formatted_address": "FWPG+7P7, Arulogun Rd, 200132, Ibadan, Nigeria",
      "google_map_url": "https://maps.google.com?q=7.4856561,3.926805",
      "google_place_id": "ChIJPbdefFHtORARJpvqO5407l8"
    }
  },
  {
    "id": "352425",
    "name": "COURT HALL, ARULOGUN",
    "registration_area_id": "18046",
    "precise_location": null,
    "abbreviation": "005",
    "units": "005",
    "delimitation": "30/02/03/005",
    "remark": "EXISTING PU",
    "ward_id": "18046",
    "ward_name": "ARULOGUN/ENIOSA/ARORO",
    "local_government_id": "629",
    "local_government_name": "AKINYELE",
    "state_id": "30",
    "state_name": "OYO",
    "location": {
      "latitude": 7.8507098,
      "longitude": 3.9484675,
      "viewport": {
        "northeast": {
          "lat": 7.852227829892722,
          "lng": 3.949778429892723
        },
        "southwest": {
          "lat": 7.849528170107278,
          "lng": 3.947078770107279
        }
      },
      "formatted_address": "VW2X+79P, Oke-Ebo 211271, Oyo, Nigeria",
      "google_map_url": "https://maps.google.com?q=7.8507098,3.9484675",
      "google_place_id": "ChIJD0Z2C39ZNxAR55nv11WBI1I"
    }
  },
  {
    "id": "352426",
    "name": "DENLOKUN VILLAGE",
    "registration_area_id": "18046",
    "precise_location": null,
    "abbreviation": "006",
    "units": "006",
    "delimitation": "30/02/03/006",
    "remark": "EXISTING PU",
    "ward_id": "18046",
    "ward_name": "ARULOGUN/ENIOSA/ARORO",
    "local_government_id": "629",
    "local_government_name": "AKINYELE",
    "state_id": "30",
    "state_name": "OYO",
    "location": {
      "latitude": 7.503335299999999,
      "longitude": 3.9333916,
      "viewport": {
        "northeast": {
          "lat": 7.504698679892723,
          "lng": 3.934675529892722
        },
        "southwest": {
          "lat": 7.501999020107279,
          "lng": 3.931975870107278
        }
      },
      "formatted_address": "GW3M+89J, Arulogun/Eniosa, 200132, Aroro, Nigeria",
      "google_map_url": "https://maps.google.com?q=7.503335299999999,3.9333916",
      "google_place_id": "ChIJqzKLO9ntORARxxKsuU_5av8"
    }
  },
  {
    "id": "352427",
    "name": "IDI IYEYE VILLAGE",
    "registration_area_id": "18046",
    "precise_location": null,
    "abbreviation": "007",
    "units": "007",
    "delimitation": "30/02/03/007",
    "remark": "EXISTING PU",
    "ward_id": "18046",
    "ward_name": "ARULOGUN/ENIOSA/ARORO",
    "local_government_id": "629",
    "local_government_name": "AKINYELE",
    "state_id": "30",
    "state_name": "OYO",
    "location": {
      "latitude": 7.583604299999999,
      "longitude": 3.9844944,
      "viewport": {
        "northeast": {
          "lat": 7.584746329892723,
          "lng": 3.985995
        },
        "southwest": {
          "lat": 7.582046670107279,
          "lng": 3.9828499
        }
      },
      "formatted_address": "200134, Idi Iyeye, Nigeria",
      "google_map_url": "https://maps.google.com?q=7.583604299999999,3.9844944",
      "google_place_id": "ChIJO2XIblLvORARbDJMecvuKJ8"
    }
  },
  {
    "id": "352428",
    "name": "IGBOOLOYIN VILLAGE",
    "registration_area_id": "18046",
    "precise_location": null,
    "abbreviation": "008",
    "units": "008",
    "delimitation": "30/02/03/008",
    "remark": "EXISTING PU",
    "ward_id": "18046",
    "ward_name": "ARULOGUN/ENIOSA/ARORO",
    "local_government_id": "629",
    "local_government_name": "AKINYELE",
    "state_id": "30",
    "state_name": "OYO",
    "location": {
      "latitude": 7.4827168,
      "longitude": 3.9255174,
      "viewport": {
        "northeast": {
          "lat": 7.484077229892721,
          "lng": 3.926825379892722
        },
        "southwest": {
          "lat": 7.481377570107277,
          "lng": 3.924125720107278
        }
      },
      "formatted_address": "FWMG+36J, Akinole Village Igbooloyin along Ojoo, Arulogun Rd, Ibadan, Nigeria",
      "google_map_url": "https://maps.google.com?q=7.4827168,3.9255174",
      "google_place_id": "ChIJL537pIjtORAROlzcYP6VhkA"
    }
  },
  {
    "id": "352429",
    "name": "OGUNRANTI VILLAGE",
    "registration_area_id": "18046",
    "precise_location": null,
    "abbreviation": "009",
    "units": "009",
    "delimitation": "30/02/03/009",
    "remark": "EXISTING PU",
    "ward_id": "18046",
    "ward_name": "ARULOGUN/ENIOSA/ARORO",
    "local_government_id": "629",
    "local_government_name": "AKINYELE",
    "state_id": "30",
    "state_name": "OYO",
    "location": {
      "latitude": 7.593559399999999,
      "longitude": 4.0049066,
      "viewport": {
        "northeast": {
          "lat": 7.59460727989272,
          "lng": 4.006046
        },
        "southwest": {
          "lat": 7.591907620107277,
          "lng": 4.003269
        }
      },
      "formatted_address": "200105, Ogunranti, Nigeria",
      "google_map_url": "https://maps.google.com?q=7.593559399999999,4.0049066",
      "google_place_id": "ChIJzVIYIR7mORAROBfg-KGcJvQ"
    }
  },
  {
    "id": "352430",
    "name": "INU KOKO VILLAGE",
    "registration_area_id": "18046",
    "precise_location": null,
    "abbreviation": "010",
    "units": "010",
    "delimitation": "30/02/03/010",
    "remark": "NEW PU",
    "ward_id": "18046",
    "ward_name": "ARULOGUN/ENIOSA/ARORO",
    "local_government_id": "629",
    "local_government_name": "AKINYELE",
    "state_id": "30",
    "state_name": "OYO",
    "location": {
      "latitude": 7.513258,
      "longitude": 3.943284,
      "viewport": {
        "northeast": {
          "lat": 7.514531679892723,
          "lng": 3.944605429892722
        },
        "southwest": {
          "lat": 7.511832020107279,
          "lng": 3.941905770107278
        }
      },
      "formatted_address": "Peace Quarters, Inu Cocoa, Off Arulogun Road, Ajobo, Lagos - Ojoo Expy, Ibadan, Nigeria",
      "google_map_url": "https://maps.google.com?q=7.513258,3.943284",
      "google_place_id": "ChIJgfpgDjXvORARPMX1kjUp744"
    }
  },
  {
    "id": "352431",
    "name": "AKINRIMISA VILLAGE",
    "registration_area_id": "18046",
    "precise_location": null,
    "abbreviation": "011",
    "units": "011",
    "delimitation": "30/02/03/011",
    "remark": "NEW PU",
    "ward_id": "18046",
    "ward_name": "ARULOGUN/ENIOSA/ARORO",
    "local_government_id": "629",
    "local_government_name": "AKINYELE",
    "state_id": "30",
    "state_name": "OYO",
    "location": {
      "latitude": 7.503335299999999,
      "longitude": 3.9333916,
      "viewport": {
        "northeast": {
          "lat": 7.504698679892723,
          "lng": 3.934675529892722
        },
        "southwest": {
          "lat": 7.501999020107279,
          "lng": 3.931975870107278
        }
      },
      "formatted_address": "GW3M+89J, Arulogun/Eniosa, 200132, Aroro, Nigeria",
      "google_map_url": "https://maps.google.com?q=7.503335299999999,3.9333916",
      "google_place_id": "ChIJqzKLO9ntORARxxKsuU_5av8"
    }
  },
  {
    "id": "352432",
    "name": "COMMUNITY  PRY. SCH. ALAWODE",
    "registration_area_id": "18046",
    "precise_location": null,
    "abbreviation": "012",
    "units": "012",
    "delimitation": "30/02/03/012",
    "remark": "NEW PU",
    "ward_id": "18046",
    "ward_name": "ARULOGUN/ENIOSA/ARORO",
    "local_government_id": "629",
    "local_government_name": "AKINYELE",
    "state_id": "30",
    "state_name": "OYO",
    "location": {
      "latitude": 7.535965900000001,
      "longitude": 3.8933115,
      "viewport": {
        "northeast": {
          "lat": 7.537291129892722,
          "lng": 3.894673279892723
        },
        "southwest": {
          "lat": 7.534591470107278,
          "lng": 3.891973620107279
        }
      },
      "formatted_address": "Community Primary school, Moniya Road, Elebu 200136, Mawniya, Nigeria",
      "google_map_url": "https://maps.google.com?q=7.535965900000001,3.8933115",
      "google_place_id": "ChIJTzqph2vxORARj1ysEHwzA2o"
    }
  },
  {
    "id": "352433",
    "name": "ITESIWAJU COMMUNITY PRIMARY SCHOOL, YEOSA",
    "registration_area_id": "18046",
    "precise_location": null,
    "abbreviation": "013",
    "units": "013",
    "delimitation": "30/02/03/013",
    "remark": "NEW PU",
    "ward_id": "18046",
    "ward_name": "ARULOGUN/ENIOSA/ARORO",
    "local_government_id": "629",
    "local_government_name": "AKINYELE",
    "state_id": "30",
    "state_name": "OYO",
    "location": {
      "latitude": 7.4856561,
      "longitude": 3.926805,
      "viewport": {
        "northeast": {
          "lat": 7.487026129892722,
          "lng": 3.928130429892721
        },
        "southwest": {
          "lat": 7.484326470107278,
          "lng": 3.925430770107277
        }
      },
      "formatted_address": "FWPG+7P7, Ajobo, Arulogun Rd, Ibadan, Nigeria",
      "google_map_url": "https://maps.google.com?q=7.4856561,3.926805",
      "google_place_id": "ChIJt_6QIYztORARtvL1yFGGlag"
    }
  },
  {
    "id": "352434",
    "name": "HEALTH CENTER ARORO",
    "registration_area_id": "18046",
    "precise_location": null,
    "abbreviation": "014",
    "units": "014",
    "delimitation": "30/02/03/014",
    "remark": "NEW PU",
    "ward_id": "18046",
    "ward_name": "ARULOGUN/ENIOSA/ARORO",
    "local_government_id": "629",
    "local_government_name": "AKINYELE",
    "state_id": "30",
    "state_name": "OYO",
    "location": {
      "latitude": 7.523099999999999,
      "longitude": 3.9578,
      "viewport": {
        "northeast": {
          "lat": 7.524442429892719,
          "lng": 3.959069179892723
        },
        "southwest": {
          "lat": 7.521742770107275,
          "lng": 3.956369520107279
        }
      },
      "formatted_address": "GXF5+64M, 200137, Oyo, Nigeria",
      "google_map_url": "https://maps.google.com?q=7.523099999999999,3.9578",
      "google_place_id": "ChIJZ58_-JHuORARfOyT-Ij_AW8"
    }
  },
  {
    "id": "352435",
    "name": "ARORO GRAMMAR SCH",
    "registration_area_id": "18046",
    "precise_location": null,
    "abbreviation": "015",
    "units": "015",
    "delimitation": "30/02/03/015",
    "remark": "NEW PU",
    "ward_id": "18046",
    "ward_name": "ARULOGUN/ENIOSA/ARORO",
    "local_government_id": "629",
    "local_government_name": "AKINYELE",
    "state_id": "30",
    "state_name": "OYO",
    "location": {
      "latitude": 7.5294175,
      "longitude": 3.95985,
      "viewport": {
        "northeast": {
          "lat": 7.530854379892721,
          "lng": 3.961082029892723
        },
        "southwest": {
          "lat": 7.528154720107278,
          "lng": 3.958382370107279
        }
      },
      "formatted_address": "6FV5GXH5+QXF 3 Aroro, Ibadan, Nigeria",
      "google_map_url": "https://maps.google.com?q=7.5294175,3.95985",
      "google_place_id": "ChIJ6epz2uzuORARk_lR3pW-i_w"
    }
  },
  {
    "id": "352436",
    "name": "C.A.C PRYMARY SCH. OLUFANA",
    "registration_area_id": "18046",
    "precise_location": null,
    "abbreviation": "016",
    "units": "016",
    "delimitation": "30/02/03/016",
    "remark": "NEW PU",
    "ward_id": "18046",
    "ward_name": "ARULOGUN/ENIOSA/ARORO",
    "local_government_id": "629",
    "local_government_name": "AKINYELE",
    "state_id": "30",
    "state_name": "OYO",
    "location": {
      "latitude": 7.532511,
      "longitude": 3.9743834,
      "viewport": {
        "northeast": {
          "lat": 7.533829629892724,
          "lng": 3.975729029892721
        },
        "southwest": {
          "lat": 7.53112997010728,
          "lng": 3.973029370107278
        }
      },
      "formatted_address": "GXMF+2Q2, Olufana Rd, 200137, Oyo, Nigeria",
      "google_map_url": "https://maps.google.com?q=7.532511,3.9743834",
      "google_place_id": "ChIJnfC0ksbuORAReRtDdAqeAoU"
    }
  },
  {
    "id": "352437",
    "name": "ADJACENT C&S CHURCH, ATAPA",
    "registration_area_id": "18046",
    "precise_location": null,
    "abbreviation": "017",
    "units": "017",
    "delimitation": "30/02/03/017",
    "remark": "NEW PU",
    "ward_id": "18046",
    "ward_name": "ARULOGUN/ENIOSA/ARORO",
    "local_government_id": "629",
    "local_government_name": "AKINYELE",
    "state_id": "30",
    "state_name": "OYO",
    "location": {
      "latitude": 43.5930256,
      "longitude": -79.5689483,
      "viewport": {
        "northeast": {
          "lat": 43.59426602989273,
          "lng": -79.56749502010729
        },
        "southwest": {
          "lat": 43.59156637010728,
          "lng": -79.57019467989272
        }
      },
      "formatted_address": "1250 S Service Rd, Mississauga, ON L5E 1V4, Canada",
      "google_map_url": "https://maps.google.com?q=43.5930256,-79.5689483",
      "google_place_id": "ChIJdQzMOg9HK4gRjnZvkrnMG90"
    }
  }
]