[
  {
    "id": "117225",
    "name": "IKOYI/OSBORN ROAD",
    "registration_area_id": "5939",
    "precise_location": null,
    "abbreviation": "001",
    "units": "001",
    "delimitation": "24/08/09/001",
    "remark": "EXISTING PU",
    "ward_id": "5939",
    "ward_name": "IKOYI II",
    "local_government_id": "513",
    "local_government_name": "ETI-OSA",
    "state_id": "24",
    "state_name": "LAGOS",
    "location": {
      "latitude": 6.461722699999999,
      "longitude": 3.4293283,
      "viewport": {
        "northeast": {
          "lat": 6.464711000000048,
          "lng": 3.4366139
        },
        "southwest": {
          "lat": 6.457405799999951,
          "lng": 3.4221243
        }
      },
      "formatted_address": "Osborne Rd, Lagos, Nigeria",
      "google_map_url": "https://maps.google.com?q=6.461722699999999,3.4293283",
      "google_place_id": "EhpPc2Jvcm5lIFJkLCBMYWdvcywgTmlnZXJpYSIuKiwKFAoSCW88e3q19DsQEQdCzt-ZyL2ZEhQKEgkn3Qit5vQ7EBHdJ1rRATr5_w"
    }
  },
  {
    "id": "117226",
    "name": "CAMEROON ROAD",
    "registration_area_id": "5939",
    "precise_location": null,
    "abbreviation": "002",
    "units": "002",
    "delimitation": "24/08/09/002",
    "remark": "EXISTING PU",
    "ward_id": "5939",
    "ward_name": "IKOYI II",
    "local_government_id": "513",
    "local_government_name": "ETI-OSA",
    "state_id": "24",
    "state_name": "LAGOS",
    "location": {
      "latitude": 6.4570393,
      "longitude": 3.4318221,
      "viewport": {
        "northeast": {
          "lat": 6.461334750000052,
          "lng": 3.44402165
        },
        "southwest": {
          "lat": 6.453032549999945,
          "lng": 3.419636650000001
        }
      },
      "formatted_address": "Cameron Road, Ikoyi 106104, Lagos, Nigeria",
      "google_map_url": "https://maps.google.com?q=6.4570393,3.4318221",
      "google_place_id": "EipDYW1lcm9uIFJvYWQsIElrb3lpIDEwNjEwNCwgTGFnb3MsIE5pZ2VyaWEiLiosChQKEgmPSCVKwfQ7EBEaOvGSHA-K6BIUChIJJ90Ireb0OxAR3Sda0QE6-f8"
    }
  },
  {
    "id": "117227",
    "name": "LUGARD/BARROW",
    "registration_area_id": "5939",
    "precise_location": null,
    "abbreviation": "003",
    "units": "003",
    "delimitation": "24/08/09/003",
    "remark": "EXISTING PU",
    "ward_id": "5939",
    "ward_name": "IKOYI II",
    "local_government_id": "513",
    "local_government_name": "ETI-OSA",
    "state_id": "24",
    "state_name": "LAGOS",
    "location": {
      "latitude": 6.451813,
      "longitude": 3.4299855,
      "viewport": {
        "northeast": {
          "lat": 6.464090199999999,
          "lng": 3.45182
        },
        "southwest": {
          "lat": 6.4384291,
          "lng": 3.4057058
        }
      },
      "formatted_address": "Ikoyi 106104, Lagos, Nigeria",
      "google_map_url": "https://maps.google.com?q=6.451813,3.4299855",
      "google_place_id": "ChIJ9fyVms_0OxAR0rBRTLHEZ6E"
    }
  },
  {
    "id": "117228",
    "name": "GLOVER ROAD I",
    "registration_area_id": "5939",
    "precise_location": null,
    "abbreviation": "004",
    "units": "004",
    "delimitation": "24/08/09/004",
    "remark": "EXISTING PU",
    "ward_id": "5939",
    "ward_name": "IKOYI II",
    "local_government_id": "513",
    "local_government_name": "ETI-OSA",
    "state_id": "24",
    "state_name": "LAGOS",
    "location": {
      "latitude": 6.4539065,
      "longitude": 3.4332753,
      "viewport": {
        "northeast": {
          "lat": 6.455256329892721,
          "lng": 3.434625129892722
        },
        "southwest": {
          "lat": 6.452556670107278,
          "lng": 3.431925470107278
        }
      },
      "formatted_address": "Glover Rd, Ikoyi 106104, Lagos, Nigeria",
      "google_map_url": "https://maps.google.com?q=6.4539065,3.4332753",
      "google_place_id": "ChIJ16X4s8P0OxARgVRkPO83qhg"
    }
  },
  {
    "id": "117229",
    "name": "GLOVER ROAD II",
    "registration_area_id": "5939",
    "precise_location": null,
    "abbreviation": "005",
    "units": "005",
    "delimitation": "24/08/09/005",
    "remark": "EXISTING PU",
    "ward_id": "5939",
    "ward_name": "IKOYI II",
    "local_government_id": "513",
    "local_government_name": "ETI-OSA",
    "state_id": "24",
    "state_name": "LAGOS",
    "location": {
      "latitude": 6.450894,
      "longitude": 3.4108046,
      "viewport": {
        "northeast": {
          "lat": 6.452184329892722,
          "lng": 3.412199329892722
        },
        "southwest": {
          "lat": 6.449484670107278,
          "lng": 3.409499670107278
        }
      },
      "formatted_address": "Ikoyi Rd, Ikoyi 106104, Lagos, Nigeria",
      "google_map_url": "https://maps.google.com?q=6.450894,3.4108046",
      "google_place_id": "ChIJxcTKFzCLOxARSzefuG5kYOU"
    }
  },
  {
    "id": "117230",
    "name": "THOMPSON AVENUE",
    "registration_area_id": "5939",
    "precise_location": null,
    "abbreviation": "006",
    "units": "006",
    "delimitation": "24/08/09/006",
    "remark": "EXISTING PU",
    "ward_id": "5939",
    "ward_name": "IKOYI II",
    "local_government_id": "513",
    "local_government_name": "ETI-OSA",
    "state_id": "24",
    "state_name": "LAGOS",
    "location": {
      "latitude": 6.450877699999999,
      "longitude": 3.4333754,
      "viewport": {
        "northeast": {
          "lat": 6.452227529892721,
          "lng": 3.434725229892722
        },
        "southwest": {
          "lat": 6.449527870107278,
          "lng": 3.432025570107278
        }
      },
      "formatted_address": "Thompson Ave, Ikoyi 106104, Lagos, Nigeria",
      "google_map_url": "https://maps.google.com?q=6.450877699999999,3.4333754",
      "google_place_id": "ChIJfyh_Ntv0OxARUYTd--1lvZc"
    }
  },
  {
    "id": "117231",
    "name": "PARK VIEW/SOULE CLOSE I",
    "registration_area_id": "5939",
    "precise_location": null,
    "abbreviation": "007",
    "units": "007",
    "delimitation": "24/08/09/007",
    "remark": "EXISTING PU",
    "ward_id": "5939",
    "ward_name": "IKOYI II",
    "local_government_id": "513",
    "local_government_name": "ETI-OSA",
    "state_id": "24",
    "state_name": "LAGOS",
    "location": {
      "latitude": 6.4566393,
      "longitude": 3.4416769,
      "viewport": {
        "northeast": {
          "lat": 6.457989129892721,
          "lng": 3.443026729892722
        },
        "southwest": {
          "lat": 6.455289470107277,
          "lng": 3.440327070107278
        }
      },
      "formatted_address": "Soule Cl, Ikoyi 106104, Lagos, Nigeria",
      "google_map_url": "https://maps.google.com?q=6.4566393,3.4416769",
      "google_place_id": "ChIJX2f8aer0OxARsphWI5MDNd4"
    }
  },
  {
    "id": "117232",
    "name": "PARK VIEW/SOULE CLOSE II",
    "registration_area_id": "5939",
    "precise_location": null,
    "abbreviation": "008",
    "units": "008",
    "delimitation": "24/08/09/008",
    "remark": "EXISTING PU",
    "ward_id": "5939",
    "ward_name": "IKOYI II",
    "local_government_id": "513",
    "local_government_name": "ETI-OSA",
    "state_id": "24",
    "state_name": "LAGOS",
    "location": {
      "latitude": 6.4563875,
      "longitude": 3.4411037,
      "viewport": {
        "northeast": {
          "lat": 6.457737029892722,
          "lng": 3.442393929892722
        },
        "southwest": {
          "lat": 6.455037370107278,
          "lng": 3.439694270107278
        }
      },
      "formatted_address": "Parkview Estate, Soule Close, Park View Estate, Lagos, Nigeria",
      "google_map_url": "https://maps.google.com?q=6.4563875,3.4411037",
      "google_place_id": "ChIJkSwYQur0OxAR7u1vfBjNrMo"
    }
  },
  {
    "id": "117233",
    "name": "PARK VIEW/SOULE CLOSE III",
    "registration_area_id": "5939",
    "precise_location": null,
    "abbreviation": "009",
    "units": "009",
    "delimitation": "24/08/09/009",
    "remark": "EXISTING PU",
    "ward_id": "5939",
    "ward_name": "IKOYI II",
    "local_government_id": "513",
    "local_government_name": "ETI-OSA",
    "state_id": "24",
    "state_name": "LAGOS",
    "location": {
      "latitude": 6.4638231,
      "longitude": 3.4420839,
      "viewport": {
        "northeast": {
          "lat": 6.465138629892722,
          "lng": 3.443469129892722
        },
        "southwest": {
          "lat": 6.462438970107278,
          "lng": 3.440769470107277
        }
      },
      "formatted_address": "18/19 Prince Tayo Adesanya St, Parkview Estate 101233, Lagos, Nigeria",
      "google_map_url": "https://maps.google.com?q=6.4638231,3.4420839",
      "google_place_id": "ChIJYRhghS-LOxARhYBnO-PKk8k"
    }
  },
  {
    "id": "117234",
    "name": "REEVE ROAD I",
    "registration_area_id": "5939",
    "precise_location": null,
    "abbreviation": "010",
    "units": "010",
    "delimitation": "24/08/09/010",
    "remark": "EXISTING PU",
    "ward_id": "5939",
    "ward_name": "IKOYI II",
    "local_government_id": "513",
    "local_government_name": "ETI-OSA",
    "state_id": "24",
    "state_name": "LAGOS",
    "location": {
      "latitude": 6.4531293,
      "longitude": 3.4414386,
      "viewport": {
        "northeast": {
          "lat": 6.454479129892722,
          "lng": 3.442788429892722
        },
        "southwest": {
          "lat": 6.451779470107278,
          "lng": 3.440088770107277
        }
      },
      "formatted_address": "Reeve Rd, Ikoyi 106104, Lagos, Nigeria",
      "google_map_url": "https://maps.google.com?q=6.4531293,3.4414386",
      "google_place_id": "ChIJp2SLsOn0OxARzOMYsY-DRsU"
    }
  },
  {
    "id": "117235",
    "name": "REEVE ROAD II",
    "registration_area_id": "5939",
    "precise_location": null,
    "abbreviation": "011",
    "units": "011",
    "delimitation": "24/08/09/011",
    "remark": "EXISTING PU",
    "ward_id": "5939",
    "ward_name": "IKOYI II",
    "local_government_id": "513",
    "local_government_name": "ETI-OSA",
    "state_id": "24",
    "state_name": "LAGOS",
    "location": {
      "latitude": 6.4532593,
      "longitude": 3.4427101,
      "viewport": {
        "northeast": {
          "lat": 6.454621829892721,
          "lng": 3.444057579892723
        },
        "southwest": {
          "lat": 6.451922170107277,
          "lng": 3.441357920107278
        }
      },
      "formatted_address": "14 Reeve Rd, Ikoyi 106104, Lagos, Nigeria",
      "google_map_url": "https://maps.google.com?q=6.4532593,3.4427101",
      "google_place_id": "ChIJBQvZybH1OxARPV-POUPWQC8"
    }
  },
  {
    "id": "117236",
    "name": "ONITOLO/OJORA ROAD",
    "registration_area_id": "5939",
    "precise_location": null,
    "abbreviation": "012",
    "units": "012",
    "delimitation": "24/08/09/012",
    "remark": "EXISTING PU",
    "ward_id": "5939",
    "ward_name": "IKOYI II",
    "local_government_id": "513",
    "local_government_name": "ETI-OSA",
    "state_id": "24",
    "state_name": "LAGOS",
    "location": {
      "latitude": 6.4482998,
      "longitude": 3.4474186,
      "viewport": {
        "northeast": {
          "lat": 6.449520479892722,
          "lng": 3.448662079892722
        },
        "southwest": {
          "lat": 6.446820820107278,
          "lng": 3.445962420107278
        }
      },
      "formatted_address": "CCXW+8X6, Ikoyi 106104, Lagos, Nigeria",
      "google_map_url": "https://maps.google.com?q=6.4482998,3.4474186",
      "google_place_id": "ChIJAQtbHND1OxARXEq-KWzFUuk"
    }
  },
  {
    "id": "117237",
    "name": "GERRARD ROAD I",
    "registration_area_id": "5939",
    "precise_location": null,
    "abbreviation": "013",
    "units": "013",
    "delimitation": "24/08/09/013",
    "remark": "EXISTING PU",
    "ward_id": "5939",
    "ward_name": "IKOYI II",
    "local_government_id": "513",
    "local_government_name": "ETI-OSA",
    "state_id": "24",
    "state_name": "LAGOS",
    "location": {
      "latitude": 6.456349299999999,
      "longitude": 3.4374275,
      "viewport": {
        "northeast": {
          "lat": 6.457699129892721,
          "lng": 3.438777329892722
        },
        "southwest": {
          "lat": 6.454999470107277,
          "lng": 3.436077670107277
        }
      },
      "formatted_address": "Gerrard Road, Ikoyi 106104, Lagos, Nigeria",
      "google_map_url": "https://maps.google.com?q=6.456349299999999,3.4374275",
      "google_place_id": "ChIJhd3Ez8H0OxAR9bx3SVCWknM"
    }
  },
  {
    "id": "117238",
    "name": "GERRARD ROAD II",
    "registration_area_id": "5939",
    "precise_location": null,
    "abbreviation": "014",
    "units": "014",
    "delimitation": "24/08/09/014",
    "remark": "EXISTING PU",
    "ward_id": "5939",
    "ward_name": "IKOYI II",
    "local_government_id": "513",
    "local_government_name": "ETI-OSA",
    "state_id": "24",
    "state_name": "LAGOS",
    "location": {
      "latitude": 6.455739299999999,
      "longitude": 3.4375594,
      "viewport": {
        "northeast": {
          "lat": 6.457147229892723,
          "lng": 3.438983429892722
        },
        "southwest": {
          "lat": 6.454447570107279,
          "lng": 3.436283770107277
        }
      },
      "formatted_address": "7 Gerrard Road, Ikoyi 106104, Lagos, Nigeria",
      "google_map_url": "https://maps.google.com?q=6.455739299999999,3.4375594",
      "google_place_id": "ChIJwSepy1X1OxARGc0PYg0Dge0"
    }
  },
  {
    "id": "117239",
    "name": "MILVERTON ROAD",
    "registration_area_id": "5939",
    "precise_location": null,
    "abbreviation": "015",
    "units": "015",
    "delimitation": "24/08/09/015",
    "remark": "EXISTING PU",
    "ward_id": "5939",
    "ward_name": "IKOYI II",
    "local_government_id": "513",
    "local_government_name": "ETI-OSA",
    "state_id": "24",
    "state_name": "LAGOS",
    "location": {
      "latitude": 6.449032,
      "longitude": 3.4460814,
      "viewport": {
        "northeast": {
          "lat": 6.450381829892722,
          "lng": 3.447431229892722
        },
        "southwest": {
          "lat": 6.447682170107278,
          "lng": 3.444731570107277
        }
      },
      "formatted_address": "Milverton Rd, Ikoyi 106104, Lagos, Nigeria",
      "google_map_url": "https://maps.google.com?q=6.449032,3.4460814",
      "google_place_id": "ChIJ-dQzieX0OxARTccpzLE-960"
    }
  },
  {
    "id": "117240",
    "name": "ALEXANDER",
    "registration_area_id": "5939",
    "precise_location": null,
    "abbreviation": "016",
    "units": "016",
    "delimitation": "24/08/09/016",
    "remark": "EXISTING PU",
    "ward_id": "5939",
    "ward_name": "IKOYI II",
    "local_government_id": "513",
    "local_government_name": "ETI-OSA",
    "state_id": "24",
    "state_name": "LAGOS",
    "location": {
      "latitude": 6.4507895,
      "longitude": 3.4491707,
      "viewport": {
        "northeast": {
          "lat": 6.452139329892722,
          "lng": 3.450520529892722
        },
        "southwest": {
          "lat": 6.449439670107278,
          "lng": 3.447820870107277
        }
      },
      "formatted_address": "Alexander Rd, Ikoyi 106104, Lagos, Nigeria",
      "google_map_url": "https://maps.google.com?q=6.4507895,3.4491707",
      "google_place_id": "ChIJLx5MFu_0OxARcPpCfFc90FE"
    }
  },
  {
    "id": "117241",
    "name": "ONIKOYI ROAD",
    "registration_area_id": "5939",
    "precise_location": null,
    "abbreviation": "017",
    "units": "017",
    "delimitation": "24/08/09/017",
    "remark": "EXISTING PU",
    "ward_id": "5939",
    "ward_name": "IKOYI II",
    "local_government_id": "513",
    "local_government_name": "ETI-OSA",
    "state_id": "24",
    "state_name": "LAGOS",
    "location": {
      "latitude": 6.4543396,
      "longitude": 3.4487846,
      "viewport": {
        "northeast": {
          "lat": 6.455689429892722,
          "lng": 3.450134429892723
        },
        "southwest": {
          "lat": 6.452989770107278,
          "lng": 3.447434770107278
        }
      },
      "formatted_address": "Onikoyi Rd, Ikoyi 106104, Lagos, Nigeria",
      "google_map_url": "https://maps.google.com?q=6.4543396,3.4487846",
      "google_place_id": "ChIJawyUcu70OxAR-kn20VLptT8"
    }
  },
  {
    "id": "117242",
    "name": "OLOTO/ONISIWO ROAD",
    "registration_area_id": "5939",
    "precise_location": null,
    "abbreviation": "018",
    "units": "018",
    "delimitation": "24/08/09/018",
    "remark": "EXISTING PU",
    "ward_id": "5939",
    "ward_name": "IKOYI II",
    "local_government_id": "513",
    "local_government_name": "ETI-OSA",
    "state_id": "24",
    "state_name": "LAGOS",
    "location": {
      "latitude": 6.4441052,
      "longitude": 3.4447863,
      "viewport": {
        "northeast": {
          "lat": 6.4695388,
          "lng": 3.4625497
        },
        "southwest": {
          "lat": 6.418978699999999,
          "lng": 3.4259823
        }
      },
      "formatted_address": "Ikoyi II, Nigeria",
      "google_map_url": "https://maps.google.com?q=6.4441052,3.4447863",
      "google_place_id": "ChIJJ90Ireb0OxAR3Sda0QE6-f8"
    }
  },
  {
    "id": "117243",
    "name": "FEMI OKUNNU/LATEEF JAKANDE",
    "registration_area_id": "5939",
    "precise_location": null,
    "abbreviation": "019",
    "units": "019",
    "delimitation": "24/08/09/019",
    "remark": "EXISTING PU",
    "ward_id": "5939",
    "ward_name": "IKOYI II",
    "local_government_id": "513",
    "local_government_name": "ETI-OSA",
    "state_id": "24",
    "state_name": "LAGOS",
    "location": {
      "latitude": 6.4507648,
      "longitude": 3.4383524,
      "viewport": {
        "northeast": {
          "lat": 6.452114629892722,
          "lng": 3.439702229892723
        },
        "southwest": {
          "lat": 6.449414970107278,
          "lng": 3.437002570107278
        }
      },
      "formatted_address": "Cooper Rd & Lateef Jakande Ave, Ikoyi 106104, Lagos, Nigeria",
      "google_map_url": "https://maps.google.com?q=6.4507648,3.4383524",
      "google_place_id": "EjxDb29wZXIgUmQgJiBMYXRlZWYgSmFrYW5kZSBBdmUsIElrb3lpIDEwNjEwNCwgTGFnb3MsIE5pZ2VyaWEiZiJkChQKEglPiMTBwvQ7EBEVia7FvebMZRIUChIJT4jEwcL0OxARFYmuxb3mzGUaFAoSCTGEmbjl9DsQEVT4Ca6AWQ9AGhQKEgmTIgM13fQ7EBH_eoTjhUzkrSIKDQBP2AMVpKYMAg"
    }
  },
  {
    "id": "117244",
    "name": "BOURDILLION ROAD",
    "registration_area_id": "5939",
    "precise_location": null,
    "abbreviation": "020",
    "units": "020",
    "delimitation": "24/08/09/020",
    "remark": "EXISTING PU",
    "ward_id": "5939",
    "ward_name": "IKOYI II",
    "local_government_id": "513",
    "local_government_name": "ETI-OSA",
    "state_id": "24",
    "state_name": "LAGOS",
    "location": {
      "latitude": 6.446584,
      "longitude": 3.4384555,
      "viewport": {
        "northeast": {
          "lat": 6.447933829892721,
          "lng": 3.439805329892722
        },
        "southwest": {
          "lat": 6.445234170107277,
          "lng": 3.437105670107278
        }
      },
      "formatted_address": "Bourdillon Rd, Ikoyi 106104, Lagos, Nigeria",
      "google_map_url": "https://maps.google.com?q=6.446584,3.4384555",
      "google_place_id": "ChIJAzCbtt30OxARGQqkxBMlGrE"
    }
  },
  {
    "id": "117245",
    "name": "ONIRU/MOORE ROAD",
    "registration_area_id": "5939",
    "precise_location": null,
    "abbreviation": "021",
    "units": "021",
    "delimitation": "24/08/09/021",
    "remark": "EXISTING PU",
    "ward_id": "5939",
    "ward_name": "IKOYI II",
    "local_government_id": "513",
    "local_government_name": "ETI-OSA",
    "state_id": "24",
    "state_name": "LAGOS",
    "location": {
      "latitude": 6.4283781,
      "longitude": 3.4457963,
      "viewport": {
        "northeast": {
          "lat": 6.430530599999997,
          "lng": 3.44688495
        },
        "southwest": {
          "lat": 6.427660599999999,
          "lng": 3.442529549999999
        }
      },
      "formatted_address": "Odudu Eleyiwo Rd, Maroko 106104, Lagos, Nigeria",
      "google_map_url": "https://maps.google.com?q=6.4283781,3.4457963",
      "google_place_id": "ChIJfzqzHu_1OxARqMU6qnyzgvU"
    }
  },
  {
    "id": "117246",
    "name": "AROMIRE/OLUMEGBON",
    "registration_area_id": "5939",
    "precise_location": null,
    "abbreviation": "022",
    "units": "022",
    "delimitation": "24/08/09/022",
    "remark": "EXISTING PU",
    "ward_id": "5939",
    "ward_name": "IKOYI II",
    "local_government_id": "513",
    "local_government_name": "ETI-OSA",
    "state_id": "24",
    "state_name": "LAGOS",
    "location": {
      "latitude": 6.453117,
      "longitude": 3.4320102,
      "viewport": {
        "northeast": {
          "lat": 6.454341729892722,
          "lng": 3.433313179892723
        },
        "southwest": {
          "lat": 6.451642070107278,
          "lng": 3.430613520107278
        }
      },
      "formatted_address": "4 Aromire Rd, Ikoyi 106104, Lagos, Nigeria",
      "google_map_url": "https://maps.google.com?q=6.453117,3.4320102",
      "google_place_id": "ChIJcy28RcT0OxARjNmNf7pwzGA"
    }
  },
  {
    "id": "117247",
    "name": "RUMENS/OLAWALE DAWODU ROAD",
    "registration_area_id": "5939",
    "precise_location": null,
    "abbreviation": "023",
    "units": "023",
    "delimitation": "24/08/09/023",
    "remark": "EXISTING PU",
    "ward_id": "5939",
    "ward_name": "IKOYI II",
    "local_government_id": "513",
    "local_government_name": "ETI-OSA",
    "state_id": "24",
    "state_name": "LAGOS",
    "location": {
      "latitude": 6.4484597,
      "longitude": 3.430747,
      "viewport": {
        "northeast": {
          "lat": 6.449890079892722,
          "lng": 3.432017829892723
        },
        "southwest": {
          "lat": 6.447190420107278,
          "lng": 3.429318170107278
        }
      },
      "formatted_address": "6, Olawale Dawodu Street, Off Thompson Ave, Ikoyi, Lagos, Nigeria",
      "google_map_url": "https://maps.google.com?q=6.4484597,3.430747",
      "google_place_id": "ChIJP-yu-W-NOxARG1ykjal686U"
    }
  },
  {
    "id": "117248",
    "name": "MACPHERSON AVENUE/ILADO CLOSE I",
    "registration_area_id": "5939",
    "precise_location": null,
    "abbreviation": "024",
    "units": "024",
    "delimitation": "24/08/09/024",
    "remark": "EXISTING PU",
    "ward_id": "5939",
    "ward_name": "IKOYI II",
    "local_government_id": "513",
    "local_government_name": "ETI-OSA",
    "state_id": "24",
    "state_name": "LAGOS",
    "location": {
      "latitude": 6.4441052,
      "longitude": 3.4447863,
      "viewport": {
        "northeast": {
          "lat": 6.4695388,
          "lng": 3.4625497
        },
        "southwest": {
          "lat": 6.418978699999999,
          "lng": 3.4259823
        }
      },
      "formatted_address": "Ikoyi II, Nigeria",
      "google_map_url": "https://maps.google.com?q=6.4441052,3.4447863",
      "google_place_id": "ChIJJ90Ireb0OxAR3Sda0QE6-f8"
    }
  },
  {
    "id": "117249",
    "name": "MACPHERSON AVENUE/ILADO CLOSE II",
    "registration_area_id": "5939",
    "precise_location": null,
    "abbreviation": "025",
    "units": "025",
    "delimitation": "24/08/09/025",
    "remark": "EXISTING PU",
    "ward_id": "5939",
    "ward_name": "IKOYI II",
    "local_government_id": "513",
    "local_government_name": "ETI-OSA",
    "state_id": "24",
    "state_name": "LAGOS",
    "location": {
      "latitude": 6.4451576,
      "longitude": 3.4423876,
      "viewport": {
        "northeast": {
          "lat": 6.446507429892722,
          "lng": 3.443737429892722
        },
        "southwest": {
          "lat": 6.443807770107278,
          "lng": 3.441037770107278
        }
      },
      "formatted_address": "Ilado Cl & Macpherson Ave, Ikoyi 106104, Lagos, Nigeria",
      "google_map_url": "https://maps.google.com?q=6.4451576,3.4423876",
      "google_place_id": "EjdJbGFkbyBDbCAmIE1hY3BoZXJzb24gQXZlLCBJa295aSAxMDYxMDQsIExhZ29zLCBOaWdlcmlhImYiZAoUChIJw6FP3-b0OxARJTkhtT4XvbYSFAoSCcOhT9_m9DsQESU5IbU-F722GhQKEgmb2yDQ5vQ7EBFOmFKl8gugJxoUChIJ54AY3ub0OxAREVIxsGH1WLQiCg34c9cDFUREDQI"
    }
  },
  {
    "id": "117250",
    "name": "ADEYEMI LAWSON/ILU DRIVE",
    "registration_area_id": "5939",
    "precise_location": null,
    "abbreviation": "026",
    "units": "026",
    "delimitation": "24/08/09/026",
    "remark": "EXISTING PU",
    "ward_id": "5939",
    "ward_name": "IKOYI II",
    "local_government_id": "513",
    "local_government_name": "ETI-OSA",
    "state_id": "24",
    "state_name": "LAGOS",
    "location": {
      "latitude": 6.4430772,
      "longitude": 3.4466773,
      "viewport": {
        "northeast": {
          "lat": 6.444427029892722,
          "lng": 3.448027129892722
        },
        "southwest": {
          "lat": 6.441727370107278,
          "lng": 3.445327470107277
        }
      },
      "formatted_address": "Adeyemi Lawson St & Ilu Dr, Ikoyi 106104, Lagos, Nigeria",
      "google_map_url": "https://maps.google.com?q=6.4430772,3.4466773",
      "google_place_id": "EjhBZGV5ZW1pIExhd3NvbiBTdCAmIElsdSBEciwgSWtveWkgMTA2MTA0LCBMYWdvcywgTmlnZXJpYSJmImQKFAoSCXvLQZfj9DsQEXXgBDYgo3scEhQKEgl7y0GX4_Q7EBF14AQ2IKN7HBoUChIJ7dq0k-P0OxARDhuAVLVGhxsaFAoSCcV7Jcbj9DsQEbmmMNNZad0VIgoNtCLXAxXV6w0C"
    }
  },
  {
    "id": "117251",
    "name": "ILABERE AVENUE",
    "registration_area_id": "5939",
    "precise_location": null,
    "abbreviation": "027",
    "units": "027",
    "delimitation": "24/08/09/027",
    "remark": "EXISTING PU",
    "ward_id": "5939",
    "ward_name": "IKOYI II",
    "local_government_id": "513",
    "local_government_name": "ETI-OSA",
    "state_id": "24",
    "state_name": "LAGOS",
    "location": {
      "latitude": 6.4417217,
      "longitude": 3.4445532,
      "viewport": {
        "northeast": {
          "lat": 6.443071529892721,
          "lng": 3.445903029892722
        },
        "southwest": {
          "lat": 6.440371870107277,
          "lng": 3.443203370107277
        }
      },
      "formatted_address": "Ilabere Ave, Ikoyi 106104, Lagos, Nigeria",
      "google_map_url": "https://maps.google.com?q=6.4417217,3.4445532",
      "google_place_id": "ChIJ-RzyeeH0OxAR-657dReoG48"
    }
  },
  {
    "id": "117252",
    "name": "OYINKAN B/STOP",
    "registration_area_id": "5939",
    "precise_location": null,
    "abbreviation": "028",
    "units": "028",
    "delimitation": "24/08/09/028",
    "remark": "EXISTING PU",
    "ward_id": "5939",
    "ward_name": "IKOYI II",
    "local_government_id": "513",
    "local_government_name": "ETI-OSA",
    "state_id": "24",
    "state_name": "LAGOS",
    "location": null
  },
  {
    "id": "117253",
    "name": "IPEWU/MEKUNWEN",
    "registration_area_id": "5939",
    "precise_location": null,
    "abbreviation": "029",
    "units": "029",
    "delimitation": "24/08/09/029",
    "remark": "EXISTING PU",
    "ward_id": "5939",
    "ward_name": "IKOYI II",
    "local_government_id": "513",
    "local_government_name": "ETI-OSA",
    "state_id": "24",
    "state_name": "LAGOS",
    "location": {
      "latitude": 6.4441573,
      "longitude": 3.436215,
      "viewport": {
        "northeast": {
          "lat": 6.445681029892723,
          "lng": 3.437705379892722
        },
        "southwest": {
          "lat": 6.442981370107279,
          "lng": 3.435005720107278
        }
      },
      "formatted_address": "4 Mekunwen Rd, Ikoyi 106104, Lagos, Nigeria",
      "google_map_url": "https://maps.google.com?q=6.4441573,3.436215",
      "google_place_id": "ChIJFd01KNz0OxARc5PqswLlAhI"
    }
  },
  {
    "id": "117254",
    "name": "FALOMO",
    "registration_area_id": "5939",
    "precise_location": null,
    "abbreviation": "030",
    "units": "030",
    "delimitation": "24/08/09/030",
    "remark": "EXISTING PU",
    "ward_id": "5939",
    "ward_name": "IKOYI II",
    "local_government_id": "513",
    "local_government_name": "ETI-OSA",
    "state_id": "24",
    "state_name": "LAGOS",
    "location": {
      "latitude": 6.442919,
      "longitude": 3.4233369,
      "viewport": {
        "northeast": {
          "lat": 6.448577999999999,
          "lng": 3.4324551
        },
        "southwest": {
          "lat": 6.4396226,
          "lng": 3.4178637
        }
      },
      "formatted_address": "Falomo, 106104, Lagos, Nigeria",
      "google_map_url": "https://maps.google.com?q=6.442919,3.4233369",
      "google_place_id": "ChIJLQFzrdb0OxARMZFnEysW648"
    }
  },
  {
    "id": "117255",
    "name": "FALOMO POLICE BARRACKS I",
    "registration_area_id": "5939",
    "precise_location": null,
    "abbreviation": "031",
    "units": "031",
    "delimitation": "24/08/09/031",
    "remark": "EXISTING PU",
    "ward_id": "5939",
    "ward_name": "IKOYI II",
    "local_government_id": "513",
    "local_government_name": "ETI-OSA",
    "state_id": "24",
    "state_name": "LAGOS",
    "location": {
      "latitude": 6.4441891,
      "longitude": 3.4289705,
      "viewport": {
        "northeast": {
          "lat": 6.445542829892722,
          "lng": 3.430293629892723
        },
        "southwest": {
          "lat": 6.442843170107278,
          "lng": 3.427593970107278
        }
      },
      "formatted_address": "Awolowo Rd, Ikoyi 106104, Lagos, Nigeria",
      "google_map_url": "https://maps.google.com?q=6.4441891,3.4289705",
      "google_place_id": "ChIJPaTdeK71OxARej-FqXe0uRM"
    }
  },
  {
    "id": "117256",
    "name": "FALOMO POLICE BARRACKS II",
    "registration_area_id": "5939",
    "precise_location": null,
    "abbreviation": "032",
    "units": "032",
    "delimitation": "24/08/09/032",
    "remark": "EXISTING PU",
    "ward_id": "5939",
    "ward_name": "IKOYI II",
    "local_government_id": "513",
    "local_government_name": "ETI-OSA",
    "state_id": "24",
    "state_name": "LAGOS",
    "location": {
      "latitude": 6.4441891,
      "longitude": 3.4289705,
      "viewport": {
        "northeast": {
          "lat": 6.445542829892722,
          "lng": 3.430293629892723
        },
        "southwest": {
          "lat": 6.442843170107278,
          "lng": 3.427593970107278
        }
      },
      "formatted_address": "Awolowo Rd, Ikoyi 106104, Lagos, Nigeria",
      "google_map_url": "https://maps.google.com?q=6.4441891,3.4289705",
      "google_place_id": "ChIJPaTdeK71OxARej-FqXe0uRM"
    }
  },
  {
    "id": "117257",
    "name": "FALOMO POLICE BARRACKS III",
    "registration_area_id": "5939",
    "precise_location": null,
    "abbreviation": "033",
    "units": "033",
    "delimitation": "24/08/09/033",
    "remark": "EXISTING PU",
    "ward_id": "5939",
    "ward_name": "IKOYI II",
    "local_government_id": "513",
    "local_government_name": "ETI-OSA",
    "state_id": "24",
    "state_name": "LAGOS",
    "location": {
      "latitude": 6.4441891,
      "longitude": 3.4289705,
      "viewport": {
        "northeast": {
          "lat": 6.445542829892722,
          "lng": 3.430293629892723
        },
        "southwest": {
          "lat": 6.442843170107278,
          "lng": 3.427593970107278
        }
      },
      "formatted_address": "Awolowo Rd, Ikoyi 106104, Lagos, Nigeria",
      "google_map_url": "https://maps.google.com?q=6.4441891,3.4289705",
      "google_place_id": "ChIJPaTdeK71OxARej-FqXe0uRM"
    }
  },
  {
    "id": "117258",
    "name": "FALOMO POLICE BARRACKS IV",
    "registration_area_id": "5939",
    "precise_location": null,
    "abbreviation": "034",
    "units": "034",
    "delimitation": "24/08/09/034",
    "remark": "EXISTING PU",
    "ward_id": "5939",
    "ward_name": "IKOYI II",
    "local_government_id": "513",
    "local_government_name": "ETI-OSA",
    "state_id": "24",
    "state_name": "LAGOS",
    "location": {
      "latitude": 6.4441891,
      "longitude": 3.4289705,
      "viewport": {
        "northeast": {
          "lat": 6.445542829892722,
          "lng": 3.430293629892723
        },
        "southwest": {
          "lat": 6.442843170107278,
          "lng": 3.427593970107278
        }
      },
      "formatted_address": "Awolowo Rd, Ikoyi 106104, Lagos, Nigeria",
      "google_map_url": "https://maps.google.com?q=6.4441891,3.4289705",
      "google_place_id": "ChIJPaTdeK71OxARej-FqXe0uRM"
    }
  },
  {
    "id": "117259",
    "name": "JUNCTION OF BAYO KUKU STR.",
    "registration_area_id": "5939",
    "precise_location": null,
    "abbreviation": "035",
    "units": "035",
    "delimitation": "24/08/09/035",
    "remark": "NEW PU",
    "ward_id": "5939",
    "ward_name": "IKOYI II",
    "local_government_id": "513",
    "local_government_name": "ETI-OSA",
    "state_id": "24",
    "state_name": "LAGOS",
    "location": {
      "latitude": 6.4491253,
      "longitude": 3.4115262,
      "viewport": {
        "northeast": {
          "lat": 6.450485129892721,
          "lng": 3.412875779892723
        },
        "southwest": {
          "lat": 6.447785470107277,
          "lng": 3.410176120107278
        }
      },
      "formatted_address": "CCX6+JJJ, Ikoyi 106104, Lagos, Nigeria",
      "google_map_url": "https://maps.google.com?q=6.4491253,3.4115262",
      "google_place_id": "ChIJt8WJ1i-LOxARnrYcZ2P3XGY"
    }
  },
  {
    "id": "117260",
    "name": "OLU HOLLOW WAY JUNCTION. IKOYI",
    "registration_area_id": "5939",
    "precise_location": null,
    "abbreviation": "036",
    "units": "036",
    "delimitation": "24/08/09/036",
    "remark": "NEW PU",
    "ward_id": "5939",
    "ward_name": "IKOYI II",
    "local_government_id": "513",
    "local_government_name": "ETI-OSA",
    "state_id": "24",
    "state_name": "LAGOS",
    "location": {
      "latitude": 6.460504200000001,
      "longitude": 3.4334377,
      "viewport": {
        "northeast": {
          "lat": 6.461737429892721,
          "lng": 3.434741629892722
        },
        "southwest": {
          "lat": 6.459037770107277,
          "lng": 3.432041970107278
        }
      },
      "formatted_address": "FC6M+59V, Ikoyi 106104, Lagos, Nigeria",
      "google_map_url": "https://maps.google.com?q=6.460504200000001,3.4334377",
      "google_place_id": "ChIJs7qvmLj0OxARLv8jsas_yWI"
    }
  },
  {
    "id": "117261",
    "name": "45, CAMERON RD. OPP. COCACOLA",
    "registration_area_id": "5939",
    "precise_location": null,
    "abbreviation": "037",
    "units": "037",
    "delimitation": "24/08/09/037",
    "remark": "NEW PU",
    "ward_id": "5939",
    "ward_name": "IKOYI II",
    "local_government_id": "513",
    "local_government_name": "ETI-OSA",
    "state_id": "24",
    "state_name": "LAGOS",
    "location": {
      "latitude": 6.4548539,
      "longitude": 3.4376683,
      "viewport": {
        "northeast": {
          "lat": 6.456370379892722,
          "lng": 3.438907229892722
        },
        "southwest": {
          "lat": 6.453670720107278,
          "lng": 3.436207570107277
        }
      },
      "formatted_address": "45 Cameron Road, Ikoyi 106104, Lagos, Nigeria",
      "google_map_url": "https://maps.google.com?q=6.4548539,3.4376683",
      "google_place_id": "ChIJJSByh8H0OxARZ2ZYR0Nyyfo"
    }
  },
  {
    "id": "117262",
    "name": "OPEN SPACE AT OSBORNE FORESHORE ESTATE PHASE I",
    "registration_area_id": "5939",
    "precise_location": null,
    "abbreviation": "038",
    "units": "038",
    "delimitation": "24/08/09/038",
    "remark": "NEW PU",
    "ward_id": "5939",
    "ward_name": "IKOYI II",
    "local_government_id": "513",
    "local_government_name": "ETI-OSA",
    "state_id": "24",
    "state_name": "LAGOS",
    "location": {
      "latitude": 6.4437387,
      "longitude": 3.4258674,
      "viewport": {
        "northeast": {
          "lat": 6.444959129892721,
          "lng": 3.427094929892722
        },
        "southwest": {
          "lat": 6.442259470107278,
          "lng": 3.424395270107278
        }
      },
      "formatted_address": "2A Osborne Rd, Ikoyi 101233, Lagos, Nigeria",
      "google_map_url": "https://maps.google.com?q=6.4437387,3.4258674",
      "google_place_id": "ChIJOarFydb0OxARW1Z7MQAbXRI"
    }
  },
  {
    "id": "117263",
    "name": "OPEN SPACE AT OSBORNE FORESHORE ESTATE PHASE II",
    "registration_area_id": "5939",
    "precise_location": null,
    "abbreviation": "039",
    "units": "039",
    "delimitation": "24/08/09/039",
    "remark": "NEW PU",
    "ward_id": "5939",
    "ward_name": "IKOYI II",
    "local_government_id": "513",
    "local_government_name": "ETI-OSA",
    "state_id": "24",
    "state_name": "LAGOS",
    "location": {
      "latitude": 6.462336,
      "longitude": 3.4178791,
      "viewport": {
        "northeast": {
          "lat": 6.464127329892722,
          "lng": 3.4185956
        },
        "southwest": {
          "lat": 6.461427670107278,
          "lng": 3.415729600000001
        }
      },
      "formatted_address": "FC69+W5J, Ikoyi 106104, Lagos, Nigeria",
      "google_map_url": "https://maps.google.com?q=6.462336,3.4178791",
      "google_place_id": "ChIJb9rNGEuLOxAR789ChrRXnak"
    }
  },
  {
    "id": "117264",
    "name": "HOUSE 36, LUGARD STREET",
    "registration_area_id": "5939",
    "precise_location": null,
    "abbreviation": "040",
    "units": "040",
    "delimitation": "24/08/09/040",
    "remark": "NEW PU",
    "ward_id": "5939",
    "ward_name": "IKOYI II",
    "local_government_id": "513",
    "local_government_name": "ETI-OSA",
    "state_id": "24",
    "state_name": "LAGOS",
    "location": {
      "latitude": 6.4538724,
      "longitude": 3.4375367,
      "viewport": {
        "northeast": {
          "lat": 6.455143629892722,
          "lng": 3.438858329892722
        },
        "southwest": {
          "lat": 6.452443970107278,
          "lng": 3.436158670107277
        }
      },
      "formatted_address": "36 Lugard Ave, Ikoyi 106104, Lagos, Nigeria",
      "google_map_url": "https://maps.google.com?q=6.4538724,3.4375367",
      "google_place_id": "ChIJk3AHNML0OxARP6VnVS8p0ho"
    }
  },
  {
    "id": "117265",
    "name": "BESIDE LAGOS PREPARATRY SCHOOL.",
    "registration_area_id": "5939",
    "precise_location": null,
    "abbreviation": "041",
    "units": "041",
    "delimitation": "24/08/09/041",
    "remark": "NEW PU",
    "ward_id": "5939",
    "ward_name": "IKOYI II",
    "local_government_id": "513",
    "local_government_name": "ETI-OSA",
    "state_id": "24",
    "state_name": "LAGOS",
    "location": {
      "latitude": 6.452934399999999,
      "longitude": 3.436996,
      "viewport": {
        "northeast": {
          "lat": 6.454070679892723,
          "lng": 3.438638929892722
        },
        "southwest": {
          "lat": 6.451371020107279,
          "lng": 3.435939270107278
        }
      },
      "formatted_address": "36-40 Glover Rd, Ikoyi 106104, Lagos, Nigeria",
      "google_map_url": "https://maps.google.com?q=6.452934399999999,3.436996",
      "google_place_id": "ChIJfzmJrcP0OxARFMiPhOaDBug"
    }
  },
  {
    "id": "117266",
    "name": "33, GLOVER ROAD",
    "registration_area_id": "5939",
    "precise_location": null,
    "abbreviation": "042",
    "units": "042",
    "delimitation": "24/08/09/042",
    "remark": "NEW PU",
    "ward_id": "5939",
    "ward_name": "IKOYI II",
    "local_government_id": "513",
    "local_government_name": "ETI-OSA",
    "state_id": "24",
    "state_name": "LAGOS",
    "location": {
      "latitude": 6.4530236,
      "longitude": 3.4348096,
      "viewport": {
        "northeast": {
          "lat": 6.454513229892722,
          "lng": 3.436209829892722
        },
        "southwest": {
          "lat": 6.451813570107278,
          "lng": 3.433510170107278
        }
      },
      "formatted_address": "33 Glover Rd, Ikoyi 106104, Lagos, Nigeria",
      "google_map_url": "https://maps.google.com?q=6.4530236,3.4348096",
      "google_place_id": "ChIJSzY1iMP0OxARDItDfPzPmFw"
    }
  },
  {
    "id": "117267",
    "name": "OPP. ENTRANCE THOMPSON AVENUE",
    "registration_area_id": "5939",
    "precise_location": null,
    "abbreviation": "043",
    "units": "043",
    "delimitation": "24/08/09/043",
    "remark": "NEW PU",
    "ward_id": "5939",
    "ward_name": "IKOYI II",
    "local_government_id": "513",
    "local_government_name": "ETI-OSA",
    "state_id": "24",
    "state_name": "LAGOS",
    "location": {
      "latitude": 6.4523886,
      "longitude": 3.4342317,
      "viewport": {
        "northeast": {
          "lat": 6.453790179892721,
          "lng": 3.435434029892722
        },
        "southwest": {
          "lat": 6.451090520107277,
          "lng": 3.432734370107278
        }
      },
      "formatted_address": "20 Thompson Ave, Ikoyi 106104, Lagos, Nigeria",
      "google_map_url": "https://maps.google.com?q=6.4523886,3.4342317",
      "google_place_id": "ChIJO7Z0s9v1OxARroIN2UgQN80"
    }
  },
  {
    "id": "117268",
    "name": "ENTRANCE OF IGE SHONUBI CR",
    "registration_area_id": "5939",
    "precise_location": null,
    "abbreviation": "044",
    "units": "044",
    "delimitation": "24/08/09/044",
    "remark": "NEW PU",
    "ward_id": "5939",
    "ward_name": "IKOYI II",
    "local_government_id": "513",
    "local_government_name": "ETI-OSA",
    "state_id": "24",
    "state_name": "LAGOS",
    "location": {
      "latitude": 6.4509526,
      "longitude": 3.4481273,
      "viewport": {
        "northeast": {
          "lat": 6.452366779892722,
          "lng": 3.449531379892723
        },
        "southwest": {
          "lat": 6.449667120107278,
          "lng": 3.446831720107278
        }
      },
      "formatted_address": "11 Ojora Rd, Ikoyi 106104, Lagos, Nigeria",
      "google_map_url": "https://maps.google.com?q=6.4509526,3.4481273",
      "google_place_id": "ChIJ76VbvO_0OxARYbLoDfxzZ10"
    }
  },
  {
    "id": "117269",
    "name": "EXIT OF IGE SHONUBI CR",
    "registration_area_id": "5939",
    "precise_location": null,
    "abbreviation": "045",
    "units": "045",
    "delimitation": "24/08/09/045",
    "remark": "NEW PU",
    "ward_id": "5939",
    "ward_name": "IKOYI II",
    "local_government_id": "513",
    "local_government_name": "ETI-OSA",
    "state_id": "24",
    "state_name": "LAGOS",
    "location": {
      "latitude": 6.4440653,
      "longitude": 3.4169205,
      "viewport": {
        "northeast": {
          "lat": 6.445463729892722,
          "lng": 3.418268979892722
        },
        "southwest": {
          "lat": 6.442764070107278,
          "lng": 3.415569320107278
        }
      },
      "formatted_address": "45 Norman Williams St, Ikoyi 106104, Lagos, Nigeria",
      "google_map_url": "https://maps.google.com?q=6.4440653,3.4169205",
      "google_place_id": "ChIJp9DzgSuLOxAR8uSvJtyOWsk"
    }
  },
  {
    "id": "117270",
    "name": "OPP. 5 SOULE CLOSE, IKOYI",
    "registration_area_id": "5939",
    "precise_location": null,
    "abbreviation": "046",
    "units": "046",
    "delimitation": "24/08/09/046",
    "remark": "NEW PU",
    "ward_id": "5939",
    "ward_name": "IKOYI II",
    "local_government_id": "513",
    "local_government_name": "ETI-OSA",
    "state_id": "24",
    "state_name": "LAGOS",
    "location": {
      "latitude": 6.4566762,
      "longitude": 3.4418196,
      "viewport": {
        "northeast": {
          "lat": 6.458026029892721,
          "lng": 3.443169429892722
        },
        "southwest": {
          "lat": 6.455326370107278,
          "lng": 3.440469770107278
        }
      },
      "formatted_address": "5 Soule Cl, Ikoyi 106104, Lagos, Nigeria",
      "google_map_url": "https://maps.google.com?q=6.4566762,3.4418196",
      "google_place_id": "Eig1IFNvdWxlIENsLCBJa295aSAxMDYxMDQsIExhZ29zLCBOaWdlcmlhIjASLgoUChIJlzxYROr0OxARxQr_l1n10tYQBSoUChIJX2f8aer0OxARsphWI5MDNd4"
    }
  },
  {
    "id": "117271",
    "name": "OPP. HOUSE 9, BODE OLAJUMOKE CRESCENT",
    "registration_area_id": "5939",
    "precise_location": null,
    "abbreviation": "047",
    "units": "047",
    "delimitation": "24/08/09/047",
    "remark": "NEW PU",
    "ward_id": "5939",
    "ward_name": "IKOYI II",
    "local_government_id": "513",
    "local_government_name": "ETI-OSA",
    "state_id": "24",
    "state_name": "LAGOS",
    "location": {
      "latitude": 6.45975,
      "longitude": 3.4388908,
      "viewport": {
        "northeast": {
          "lat": 6.460981879892722,
          "lng": 3.440285929892722
        },
        "southwest": {
          "lat": 6.458282220107278,
          "lng": 3.437586270107277
        }
      },
      "formatted_address": "9 Bode Olajumoke Cres, Parkview Estate 106104, Lagos, Nigeria",
      "google_map_url": "https://maps.google.com?q=6.45975,3.4388908",
      "google_place_id": "ChIJwzi1DsD0OxARVcVPxgxlVhk"
    }
  },
  {
    "id": "117272",
    "name": "BESIDE CLAPTON COURT",
    "registration_area_id": "5939",
    "precise_location": null,
    "abbreviation": "048",
    "units": "048",
    "delimitation": "24/08/09/048",
    "remark": "NEW PU",
    "ward_id": "5939",
    "ward_name": "IKOYI II",
    "local_government_id": "513",
    "local_government_name": "ETI-OSA",
    "state_id": "24",
    "state_name": "LAGOS",
    "location": {
      "latitude": 6.441141099999999,
      "longitude": 3.4430723,
      "viewport": {
        "northeast": {
          "lat": 6.442483479892721,
          "lng": 3.444431829892722
        },
        "southwest": {
          "lat": 6.439783820107277,
          "lng": 3.441732170107278
        }
      },
      "formatted_address": "3 Bose Enenmoh Cl, Ikoyi 106104, Lagos, Nigeria",
      "google_map_url": "https://maps.google.com?q=6.441141099999999,3.4430723",
      "google_place_id": "ChIJ6RL2pNb1OxAR7t_fVUkQdTQ"
    }
  },
  {
    "id": "117273",
    "name": "6, MOSLEY JUNCTION, IKOYI",
    "registration_area_id": "5939",
    "precise_location": null,
    "abbreviation": "049",
    "units": "049",
    "delimitation": "24/08/09/049",
    "remark": "NEW PU",
    "ward_id": "5939",
    "ward_name": "IKOYI II",
    "local_government_id": "513",
    "local_government_name": "ETI-OSA",
    "state_id": "24",
    "state_name": "LAGOS",
    "location": {
      "latitude": 6.4556045,
      "longitude": 3.4445436,
      "viewport": {
        "northeast": {
          "lat": 6.457144979892722,
          "lng": 3.445795129892722
        },
        "southwest": {
          "lat": 6.454445320107278,
          "lng": 3.443095470107277
        }
      },
      "formatted_address": "FC4V+7R2, Moseley Road, Ikoyi 106104, Lagos, Nigeria",
      "google_map_url": "https://maps.google.com?q=6.4556045,3.4445436",
      "google_place_id": "ChIJl4my8ev0OxARlLbY0ih8i7U"
    }
  },
  {
    "id": "117274",
    "name": "FRONT OF NNPC",
    "registration_area_id": "5939",
    "precise_location": null,
    "abbreviation": "050",
    "units": "050",
    "delimitation": "24/08/09/050",
    "remark": "NEW PU",
    "ward_id": "5939",
    "ward_name": "IKOYI II",
    "local_government_id": "513",
    "local_government_name": "ETI-OSA",
    "state_id": "24",
    "state_name": "LAGOS",
    "location": {
      "latitude": 6.4561252,
      "longitude": 3.4427849,
      "viewport": {
        "northeast": {
          "lat": 6.457405929892722,
          "lng": 3.444186179892722
        },
        "southwest": {
          "lat": 6.454706270107279,
          "lng": 3.441486520107278
        }
      },
      "formatted_address": "Moseley Rd, Ikoyi 106104, Lagos, Nigeria",
      "google_map_url": "https://maps.google.com?q=6.4561252,3.4427849",
      "google_place_id": "ChIJld4wJ0z1OxARanD77HlXujo"
    }
  },
  {
    "id": "117275",
    "name": "ENTRANCE OF JABITA CLOSE",
    "registration_area_id": "5939",
    "precise_location": null,
    "abbreviation": "051",
    "units": "051",
    "delimitation": "24/08/09/051",
    "remark": "NEW PU",
    "ward_id": "5939",
    "ward_name": "IKOYI II",
    "local_government_id": "513",
    "local_government_name": "ETI-OSA",
    "state_id": "24",
    "state_name": "LAGOS",
    "location": {
      "latitude": 6.4509526,
      "longitude": 3.4481273,
      "viewport": {
        "northeast": {
          "lat": 6.452366779892722,
          "lng": 3.449531379892723
        },
        "southwest": {
          "lat": 6.449667120107278,
          "lng": 3.446831720107278
        }
      },
      "formatted_address": "11 Ojora Rd, Ikoyi 106104, Lagos, Nigeria",
      "google_map_url": "https://maps.google.com?q=6.4509526,3.4481273",
      "google_place_id": "ChIJ76VbvO_0OxARYbLoDfxzZ10"
    }
  },
  {
    "id": "117276",
    "name": "JUNCTION OF BANANA ISLAND ROAD",
    "registration_area_id": "5939",
    "precise_location": null,
    "abbreviation": "052",
    "units": "052",
    "delimitation": "24/08/09/052",
    "remark": "NEW PU",
    "ward_id": "5939",
    "ward_name": "IKOYI II",
    "local_government_id": "513",
    "local_government_name": "ETI-OSA",
    "state_id": "24",
    "state_name": "LAGOS",
    "location": {
      "latitude": 6.449331099999999,
      "longitude": 3.4134703,
      "viewport": {
        "northeast": {
          "lat": 6.450681029892722,
          "lng": 3.414821429892722
        },
        "southwest": {
          "lat": 6.447981370107279,
          "lng": 3.412121770107277
        }
      },
      "formatted_address": "CCX7+P9Q, Ajeniya Junction, Obalende, Ojo St, Lagos, Nigeria",
      "google_map_url": "https://maps.google.com?q=6.449331099999999,3.4134703",
      "google_place_id": "ChIJe7PT-i-LOxARypNqmG3ODBU"
    }
  },
  {
    "id": "117277",
    "name": "8, ONIKOYI ROAD",
    "registration_area_id": "5939",
    "precise_location": null,
    "abbreviation": "053",
    "units": "053",
    "delimitation": "24/08/09/053",
    "remark": "NEW PU",
    "ward_id": "5939",
    "ward_name": "IKOYI II",
    "local_government_id": "513",
    "local_government_name": "ETI-OSA",
    "state_id": "24",
    "state_name": "LAGOS",
    "location": {
      "latitude": 6.454329299999999,
      "longitude": 3.4491988,
      "viewport": {
        "northeast": {
          "lat": 6.455580029892722,
          "lng": 3.450461079892722
        },
        "southwest": {
          "lat": 6.452880370107278,
          "lng": 3.447761420107278
        }
      },
      "formatted_address": "8 Onikoyi Rd, Ikoyi 106104, Lagos, Nigeria",
      "google_map_url": "https://maps.google.com?q=6.454329299999999,3.4491988",
      "google_place_id": "ChIJuYpYD-70OxARFwRprqWfH8I"
    }
  },
  {
    "id": "117278",
    "name": "OPEN SPACE BANANA  ISLAND ESTATE",
    "registration_area_id": "5939",
    "precise_location": null,
    "abbreviation": "054",
    "units": "054",
    "delimitation": "24/08/09/054",
    "remark": "NEW PU",
    "ward_id": "5939",
    "ward_name": "IKOYI II",
    "local_government_id": "513",
    "local_government_name": "ETI-OSA",
    "state_id": "24",
    "state_name": "LAGOS",
    "location": {
      "latitude": 6.4665971,
      "longitude": 3.4457793,
      "viewport": {
        "northeast": {
          "lat": 6.467938329892722,
          "lng": 3.447133979892722
        },
        "southwest": {
          "lat": 6.465238670107278,
          "lng": 3.444434320107277
        }
      },
      "formatted_address": "1st Avenue, Banana Island 106104, Lagos, Nigeria",
      "google_map_url": "https://maps.google.com?q=6.4665971,3.4457793",
      "google_place_id": "ChIJD1O8Jtz1OxAREnBbX6vNLzg"
    }
  },
  {
    "id": "117279",
    "name": "OPP. FEMI OKUNNU/LATEEF JAKANDE, IKOYI",
    "registration_area_id": "5939",
    "precise_location": null,
    "abbreviation": "055",
    "units": "055",
    "delimitation": "24/08/09/055",
    "remark": "NEW PU",
    "ward_id": "5939",
    "ward_name": "IKOYI II",
    "local_government_id": "513",
    "local_government_name": "ETI-OSA",
    "state_id": "24",
    "state_name": "LAGOS",
    "location": {
      "latitude": 6.4507648,
      "longitude": 3.4383524,
      "viewport": {
        "northeast": {
          "lat": 6.452114629892722,
          "lng": 3.439702229892723
        },
        "southwest": {
          "lat": 6.449414970107278,
          "lng": 3.437002570107278
        }
      },
      "formatted_address": "Cooper Rd & Lateef Jakande Ave, Ikoyi 106104, Lagos, Nigeria",
      "google_map_url": "https://maps.google.com?q=6.4507648,3.4383524",
      "google_place_id": "EjxDb29wZXIgUmQgJiBMYXRlZWYgSmFrYW5kZSBBdmUsIElrb3lpIDEwNjEwNCwgTGFnb3MsIE5pZ2VyaWEiZiJkChQKEglPiMTBwvQ7EBEVia7FvebMZRIUChIJT4jEwcL0OxARFYmuxb3mzGUaFAoSCTGEmbjl9DsQEVT4Ca6AWQ9AGhQKEgmTIgM13fQ7EBH_eoTjhUzkrSIKDQBP2AMVpKYMAg"
    }
  },
  {
    "id": "117280",
    "name": "BESIDE 17A BOURDILLON ROAD",
    "registration_area_id": "5939",
    "precise_location": null,
    "abbreviation": "056",
    "units": "056",
    "delimitation": "24/08/09/056",
    "remark": "NEW PU",
    "ward_id": "5939",
    "ward_name": "IKOYI II",
    "local_government_id": "513",
    "local_government_name": "ETI-OSA",
    "state_id": "24",
    "state_name": "LAGOS",
    "location": {
      "latitude": 6.446190499999999,
      "longitude": 3.4377387,
      "viewport": {
        "northeast": {
          "lat": 6.447611429892723,
          "lng": 3.439064779892723
        },
        "southwest": {
          "lat": 6.444911770107279,
          "lng": 3.436365120107278
        }
      },
      "formatted_address": "17a Bourdillon Rd, Ikoyi 106104, Lagos, Nigeria",
      "google_map_url": "https://maps.google.com?q=6.446190499999999,3.4377387",
      "google_place_id": "ChIJYY83rt30OxARP6a8Mog41hw"
    }
  },
  {
    "id": "117281",
    "name": "17A BOURDILLON ROAD",
    "registration_area_id": "5939",
    "precise_location": null,
    "abbreviation": "057",
    "units": "057",
    "delimitation": "24/08/09/057",
    "remark": "NEW PU",
    "ward_id": "5939",
    "ward_name": "IKOYI II",
    "local_government_id": "513",
    "local_government_name": "ETI-OSA",
    "state_id": "24",
    "state_name": "LAGOS",
    "location": {
      "latitude": 6.446190499999999,
      "longitude": 3.4377387,
      "viewport": {
        "northeast": {
          "lat": 6.447611429892723,
          "lng": 3.439064779892723
        },
        "southwest": {
          "lat": 6.444911770107279,
          "lng": 3.436365120107278
        }
      },
      "formatted_address": "17a Bourdillon Rd, Ikoyi 106104, Lagos, Nigeria",
      "google_map_url": "https://maps.google.com?q=6.446190499999999,3.4377387",
      "google_place_id": "ChIJYY83rt30OxARP6a8Mog41hw"
    }
  },
  {
    "id": "117282",
    "name": "FRONT OF ABRAHAMS COURT, IKOYI",
    "registration_area_id": "5939",
    "precise_location": null,
    "abbreviation": "058",
    "units": "058",
    "delimitation": "24/08/09/058",
    "remark": "NEW PU",
    "ward_id": "5939",
    "ward_name": "IKOYI II",
    "local_government_id": "513",
    "local_government_name": "ETI-OSA",
    "state_id": "24",
    "state_name": "LAGOS",
    "location": {
      "latitude": 6.447865999999999,
      "longitude": 3.4306269,
      "viewport": {
        "northeast": {
          "lat": 6.449075279892722,
          "lng": 3.432168679892722
        },
        "southwest": {
          "lat": 6.446375620107278,
          "lng": 3.429469020107278
        }
      },
      "formatted_address": "CCXJ+47R, Rumens Road, Ikoyi 106104, Lagos, Nigeria",
      "google_map_url": "https://maps.google.com?q=6.447865999999999,3.4306269",
      "google_place_id": "ChIJ5ZF6l_j1OxARxgTxJZXzhlk"
    }
  },
  {
    "id": "117283",
    "name": "JUNCTION OF ILU DRIVE OFF ADEYEMI LAWSON",
    "registration_area_id": "5939",
    "precise_location": null,
    "abbreviation": "059",
    "units": "059",
    "delimitation": "24/08/09/059",
    "remark": "NEW PU",
    "ward_id": "5939",
    "ward_name": "IKOYI II",
    "local_government_id": "513",
    "local_government_name": "ETI-OSA",
    "state_id": "24",
    "state_name": "LAGOS",
    "location": {
      "latitude": 6.4416604,
      "longitude": 3.445605,
      "viewport": {
        "northeast": {
          "lat": 6.443041529892721,
          "lng": 3.446917279892722
        },
        "southwest": {
          "lat": 6.440341870107277,
          "lng": 3.444217620107277
        }
      },
      "formatted_address": "7 Ilu Dr, Ikoyi 106104, Lagos, Nigeria",
      "google_map_url": "https://maps.google.com?q=6.4416604,3.445605",
      "google_place_id": "ChIJE26cGCv1OxARQUbdyjZq-vs"
    }
  },
  {
    "id": "117284",
    "name": "ENTRANCE OF IKOYA OFF MACPHERSON",
    "registration_area_id": "5939",
    "precise_location": null,
    "abbreviation": "060",
    "units": "060",
    "delimitation": "24/08/09/060",
    "remark": "NEW PU",
    "ward_id": "5939",
    "ward_name": "IKOYI II",
    "local_government_id": "513",
    "local_government_name": "ETI-OSA",
    "state_id": "24",
    "state_name": "LAGOS",
    "location": null
  },
  {
    "id": "117285",
    "name": "JUNCTION OF OLADELE LAWORE DRIVE",
    "registration_area_id": "5939",
    "precise_location": null,
    "abbreviation": "061",
    "units": "061",
    "delimitation": "24/08/09/061",
    "remark": "NEW PU",
    "ward_id": "5939",
    "ward_name": "IKOYI II",
    "local_government_id": "513",
    "local_government_name": "ETI-OSA",
    "state_id": "24",
    "state_name": "LAGOS",
    "location": {
      "latitude": 6.4491253,
      "longitude": 3.4115262,
      "viewport": {
        "northeast": {
          "lat": 6.450485129892721,
          "lng": 3.412875779892723
        },
        "southwest": {
          "lat": 6.447785470107277,
          "lng": 3.410176120107278
        }
      },
      "formatted_address": "CCX6+JJJ, Ikoyi 106104, Lagos, Nigeria",
      "google_map_url": "https://maps.google.com?q=6.4491253,3.4115262",
      "google_place_id": "ChIJt8WJ1i-LOxARnrYcZ2P3XGY"
    }
  },
  {
    "id": "117286",
    "name": "INSIDE IRETI PRIMARY SCHOOL, IKOYI",
    "registration_area_id": "5939",
    "precise_location": null,
    "abbreviation": "062",
    "units": "062",
    "delimitation": "24/08/09/062",
    "remark": "NEW PU",
    "ward_id": "5939",
    "ward_name": "IKOYI II",
    "local_government_id": "513",
    "local_government_name": "ETI-OSA",
    "state_id": "24",
    "state_name": "LAGOS",
    "location": {
      "latitude": 6.4441573,
      "longitude": 3.436215,
      "viewport": {
        "northeast": {
          "lat": 6.445681029892723,
          "lng": 3.437705379892722
        },
        "southwest": {
          "lat": 6.442981370107279,
          "lng": 3.435005720107278
        }
      },
      "formatted_address": "4 Mekunwen Rd, Ikoyi 106104, Lagos, Nigeria",
      "google_map_url": "https://maps.google.com?q=6.4441573,3.436215",
      "google_place_id": "ChIJFd01KNz0OxARc5PqswLlAhI"
    }
  },
  {
    "id": "117287",
    "name": "ENTRANCE OF POLICE HOSPITAL",
    "registration_area_id": "5939",
    "precise_location": null,
    "abbreviation": "063",
    "units": "063",
    "delimitation": "24/08/09/063",
    "remark": "NEW PU",
    "ward_id": "5939",
    "ward_name": "IKOYI II",
    "local_government_id": "513",
    "local_government_name": "ETI-OSA",
    "state_id": "24",
    "state_name": "LAGOS",
    "location": {
      "latitude": 6.442756699999999,
      "longitude": 3.4289744,
      "viewport": {
        "northeast": {
          "lat": 6.444193729892722,
          "lng": 3.430332179892722
        },
        "southwest": {
          "lat": 6.441494070107278,
          "lng": 3.427632520107277
        }
      },
      "formatted_address": "CCVH+4H5, Ikoyi 106104, Lagos, Nigeria",
      "google_map_url": "https://maps.google.com?q=6.442756699999999,3.4289744",
      "google_place_id": "ChIJz51BaNf0OxAR9OQZ2c_urG0"
    }
  },
  {
    "id": "117288",
    "name": "BESIDE POLICE BARRACKS, IKOYI",
    "registration_area_id": "5939",
    "precise_location": null,
    "abbreviation": "064",
    "units": "064",
    "delimitation": "24/08/09/064",
    "remark": "NEW PU",
    "ward_id": "5939",
    "ward_name": "IKOYI II",
    "local_government_id": "513",
    "local_government_name": "ETI-OSA",
    "state_id": "24",
    "state_name": "LAGOS",
    "location": {
      "latitude": 6.4443268,
      "longitude": 3.4285659,
      "viewport": {
        "northeast": {
          "lat": 6.445561229892721,
          "lng": 3.429877329892722
        },
        "southwest": {
          "lat": 6.442861570107278,
          "lng": 3.427177670107278
        }
      },
      "formatted_address": "Police Barracks B, Bourdillon Rd, Ikoyi 106104, Lagos, Nigeria",
      "google_map_url": "https://maps.google.com?q=6.4443268,3.4285659",
      "google_place_id": "ChIJ1V3ktND0OxAR5lPaLy8e81s"
    }
  },
  {
    "id": "117289",
    "name": "BESIDE POLICE BARRACKS OPP. ECOBANK,",
    "registration_area_id": "5939",
    "precise_location": null,
    "abbreviation": "065",
    "units": "065",
    "delimitation": "24/08/09/065",
    "remark": "NEW PU",
    "ward_id": "5939",
    "ward_name": "IKOYI II",
    "local_government_id": "513",
    "local_government_name": "ETI-OSA",
    "state_id": "24",
    "state_name": "LAGOS",
    "location": {
      "latitude": 6.4443268,
      "longitude": 3.4285659,
      "viewport": {
        "northeast": {
          "lat": 6.445561229892721,
          "lng": 3.429877329892722
        },
        "southwest": {
          "lat": 6.442861570107278,
          "lng": 3.427177670107278
        }
      },
      "formatted_address": "Police Barracks B, Bourdillon Rd, Ikoyi 106104, Lagos, Nigeria",
      "google_map_url": "https://maps.google.com?q=6.4443268,3.4285659",
      "google_place_id": "ChIJ1V3ktND0OxAR5lPaLy8e81s"
    }
  },
  {
    "id": "117290",
    "name": "UNDER FALOMO BRIDGE",
    "registration_area_id": "5939",
    "precise_location": null,
    "abbreviation": "066",
    "units": "066",
    "delimitation": "24/08/09/066",
    "remark": "NEW PU",
    "ward_id": "5939",
    "ward_name": "IKOYI II",
    "local_government_id": "513",
    "local_government_name": "ETI-OSA",
    "state_id": "24",
    "state_name": "LAGOS",
    "location": {
      "latitude": 6.441144299999999,
      "longitude": 3.4260916,
      "viewport": {
        "northeast": {
          "lat": 6.443120079892722,
          "lng": 3.427825829892722
        },
        "southwest": {
          "lat": 6.440420420107278,
          "lng": 3.425126170107278
        }
      },
      "formatted_address": "CCRG+FC4, Akin Adesola St, 106104, Lagos, Nigeria",
      "google_map_url": "https://maps.google.com?q=6.441144299999999,3.4260916",
      "google_place_id": "ChIJecpBXNb0OxARtFyQPlHe9WM"
    }
  },
  {
    "id": "117291",
    "name": "INFRONT OF AA COURT CLOSE OFF BOURDILLION RD",
    "registration_area_id": "5939",
    "precise_location": null,
    "abbreviation": "067",
    "units": "067",
    "delimitation": "24/08/09/067",
    "remark": "NEW PU",
    "ward_id": "5939",
    "ward_name": "IKOYI II",
    "local_government_id": "513",
    "local_government_name": "ETI-OSA",
    "state_id": "24",
    "state_name": "LAGOS",
    "location": {
      "latitude": 6.445019599999999,
      "longitude": 3.437157,
      "viewport": {
        "northeast": {
          "lat": 6.446377129892721,
          "lng": 3.438529879892722
        },
        "southwest": {
          "lat": 6.443677470107278,
          "lng": 3.435830220107277
        }
      },
      "formatted_address": "Aduke Court 1 Ademola Seriki way, off Bourdillon Rd, Ikoyi, Lagos, Nigeria",
      "google_map_url": "https://maps.google.com?q=6.445019599999999,3.437157",
      "google_place_id": "ChIJyV1cxK31OxAR5xrztMxBnIo"
    }
  }
]