[
  {
    "id": "67445",
    "name": "SUNDIMINA P.SCH., SUNDIMINA P.SCH.",
    "registration_area_id": "3684",
    "precise_location": null,
    "abbreviation": "001",
    "units": "001",
    "delimitation": "17/03/07/001",
    "remark": "EXISTING PU",
    "ward_id": "3684",
    "ward_name": "SUNDIMINA",
    "local_government_id": "322",
    "local_government_name": "BIRNIN KUDU",
    "state_id": "17",
    "state_name": "JIGAWA",
    "location": {
      "latitude": 11.5704887,
      "longitude": 9.5607945,
      "viewport": {
        "northeast": {
          "lat": 11.57185707989272,
          "lng": 9.56214162989272
        },
        "southwest": {
          "lat": 11.56915742010728,
          "lng": 9.559441970107276
        }
      },
      "formatted_address": "1 Road, 721101, Sundimina, Nigeria",
      "google_map_url": "https://maps.google.com?q=11.5704887,9.5607945",
      "google_place_id": "ChIJ5X09GhbAqxERJfy5vSX97QI"
    }
  },
  {
    "id": "67446",
    "name": "SUNDIMINA GARI SUNDIMINA P.SCH.",
    "registration_area_id": "3684",
    "precise_location": null,
    "abbreviation": "002",
    "units": "002",
    "delimitation": "17/03/07/002",
    "remark": "EXISTING PU",
    "ward_id": "3684",
    "ward_name": "SUNDIMINA",
    "local_government_id": "322",
    "local_government_name": "BIRNIN KUDU",
    "state_id": "17",
    "state_name": "JIGAWA",
    "location": {
      "latitude": 11.6158701,
      "longitude": 9.5673479,
      "viewport": {
        "northeast": {
          "lat": 11.7329781,
          "lng": 9.6658209
        },
        "southwest": {
          "lat": 11.5324376,
          "lng": 9.464408599999999
        }
      },
      "formatted_address": "Sundimina, 721101, Nigeria",
      "google_map_url": "https://maps.google.com?q=11.6158701,9.5673479",
      "google_place_id": "ChIJM6AOffPBqxERJRJs4Ac3NwA"
    }
  },
  {
    "id": "67447",
    "name": "GARGADI/MASARI GARGADI",
    "registration_area_id": "3684",
    "precise_location": null,
    "abbreviation": "003",
    "units": "003",
    "delimitation": "17/03/07/003",
    "remark": "EXISTING PU",
    "ward_id": "3684",
    "ward_name": "SUNDIMINA",
    "local_government_id": "322",
    "local_government_name": "BIRNIN KUDU",
    "state_id": "17",
    "state_name": "JIGAWA",
    "location": {
      "latitude": 11.5704887,
      "longitude": 9.5607945,
      "viewport": {
        "northeast": {
          "lat": 11.57185707989272,
          "lng": 9.56214162989272
        },
        "southwest": {
          "lat": 11.56915742010728,
          "lng": 9.559441970107276
        }
      },
      "formatted_address": "1 Road, 721101, Sundimina, Nigeria",
      "google_map_url": "https://maps.google.com?q=11.5704887,9.5607945",
      "google_place_id": "ChIJ5X09GhbAqxERJfy5vSX97QI"
    }
  },
  {
    "id": "67448",
    "name": "GAMBARA, GAMBARA",
    "registration_area_id": "3684",
    "precise_location": null,
    "abbreviation": "004",
    "units": "004",
    "delimitation": "17/03/07/004",
    "remark": "EXISTING PU",
    "ward_id": "3684",
    "ward_name": "SUNDIMINA",
    "local_government_id": "322",
    "local_government_name": "BIRNIN KUDU",
    "state_id": "17",
    "state_name": "JIGAWA",
    "location": {
      "latitude": 11.5512046,
      "longitude": 9.499576099999999,
      "viewport": {
        "northeast": {
          "lat": 11.55298,
          "lng": 9.500491
        },
        "southwest": {
          "lat": 11.5468689,
          "lng": 9.492158
        }
      },
      "formatted_address": "721101, Gambara, Nigeria",
      "google_map_url": "https://maps.google.com?q=11.5512046,9.499576099999999",
      "google_place_id": "ChIJ5RQVUNWUqxERujFeWuurm28"
    }
  },
  {
    "id": "67449",
    "name": "KUMBURA, KUMBURA",
    "registration_area_id": "3684",
    "precise_location": null,
    "abbreviation": "005",
    "units": "005",
    "delimitation": "17/03/07/005",
    "remark": "EXISTING PU",
    "ward_id": "3684",
    "ward_name": "SUNDIMINA",
    "local_government_id": "322",
    "local_government_name": "BIRNIN KUDU",
    "state_id": "17",
    "state_name": "JIGAWA",
    "location": {
      "latitude": 11.6167,
      "longitude": 9.583300000000001,
      "viewport": {
        "northeast": {
          "lat": 11.61764092989272,
          "lng": 9.584848929892722
        },
        "southwest": {
          "lat": 11.61494127010728,
          "lng": 9.582149270107278
        }
      },
      "formatted_address": "JH8M+M8M, 721101, Jigawa, Nigeria",
      "google_map_url": "https://maps.google.com?q=11.6167,9.583300000000001",
      "google_place_id": "ChIJKwcQuJjBqxERMIBY0hd5pdw"
    }
  },
  {
    "id": "67450",
    "name": "ZURKUDA, ZURKUDA",
    "registration_area_id": "3684",
    "precise_location": null,
    "abbreviation": "006",
    "units": "006",
    "delimitation": "17/03/07/006",
    "remark": "EXISTING PU",
    "ward_id": "3684",
    "ward_name": "SUNDIMINA",
    "local_government_id": "322",
    "local_government_name": "BIRNIN KUDU",
    "state_id": "17",
    "state_name": "JIGAWA",
    "location": {
      "latitude": 11.5704887,
      "longitude": 9.5607945,
      "viewport": {
        "northeast": {
          "lat": 11.57185707989272,
          "lng": 9.56214162989272
        },
        "southwest": {
          "lat": 11.56915742010728,
          "lng": 9.559441970107276
        }
      },
      "formatted_address": "1 Road, 721101, Sundimina, Nigeria",
      "google_map_url": "https://maps.google.com?q=11.5704887,9.5607945",
      "google_place_id": "ChIJ5X09GhbAqxERJfy5vSX97QI"
    }
  },
  {
    "id": "67451",
    "name": "KWARI  P.SCH., KWARI  P.SCH.",
    "registration_area_id": "3684",
    "precise_location": null,
    "abbreviation": "007",
    "units": "007",
    "delimitation": "17/03/07/007",
    "remark": "EXISTING PU",
    "ward_id": "3684",
    "ward_name": "SUNDIMINA",
    "local_government_id": "322",
    "local_government_name": "BIRNIN KUDU",
    "state_id": "17",
    "state_name": "JIGAWA",
    "location": {
      "latitude": 11.4661613,
      "longitude": 9.4761928,
      "viewport": {
        "northeast": {
          "lat": 11.46763037989272,
          "lng": 9.477635329892722
        },
        "southwest": {
          "lat": 11.46493072010728,
          "lng": 9.474935670107278
        }
      },
      "formatted_address": "Kangire Road, 721101, Birnin Kudu, Nigeria",
      "google_map_url": "https://maps.google.com?q=11.4661613,9.4761928",
      "google_place_id": "ChIJ7wXejCWVqxERCo0MRsGJOQY"
    }
  },
  {
    "id": "67452",
    "name": "KWARI CHARKWANTI, CHARKWANTI",
    "registration_area_id": "3684",
    "precise_location": null,
    "abbreviation": "008",
    "units": "008",
    "delimitation": "17/03/07/008",
    "remark": "EXISTING PU",
    "ward_id": "3684",
    "ward_name": "SUNDIMINA",
    "local_government_id": "322",
    "local_government_name": "BIRNIN KUDU",
    "state_id": "17",
    "state_name": "JIGAWA",
    "location": {
      "latitude": 11.5704887,
      "longitude": 9.5607945,
      "viewport": {
        "northeast": {
          "lat": 11.57185707989272,
          "lng": 9.56214162989272
        },
        "southwest": {
          "lat": 11.56915742010728,
          "lng": 9.559441970107276
        }
      },
      "formatted_address": "1 Road, 721101, Sundimina, Nigeria",
      "google_map_url": "https://maps.google.com?q=11.5704887,9.5607945",
      "google_place_id": "ChIJ5X09GhbAqxERJfy5vSX97QI"
    }
  },
  {
    "id": "67453",
    "name": "ASAYAYA/FALAI DA ZANI ASAYAYA",
    "registration_area_id": "3684",
    "precise_location": null,
    "abbreviation": "009",
    "units": "009",
    "delimitation": "17/03/07/009",
    "remark": "EXISTING PU",
    "ward_id": "3684",
    "ward_name": "SUNDIMINA",
    "local_government_id": "322",
    "local_government_name": "BIRNIN KUDU",
    "state_id": "17",
    "state_name": "JIGAWA",
    "location": {
      "latitude": 11.6243849,
      "longitude": 9.6126817,
      "viewport": {
        "northeast": {
          "lat": 11.62573612989272,
          "lng": 9.614031129892721
        },
        "southwest": {
          "lat": 11.62303647010728,
          "lng": 9.611331470107277
        }
      },
      "formatted_address": "JJF7+Q33, 721101, Asayaya, Nigeria",
      "google_map_url": "https://maps.google.com?q=11.6243849,9.6126817",
      "google_place_id": "ChIJ7WkwxxLBqxERxEYWdWiz3Ys"
    }
  },
  {
    "id": "67454",
    "name": "KWATAI GIDAN JATAU KWATAI",
    "registration_area_id": "3684",
    "precise_location": null,
    "abbreviation": "010",
    "units": "010",
    "delimitation": "17/03/07/010",
    "remark": "EXISTING PU",
    "ward_id": "3684",
    "ward_name": "SUNDIMINA",
    "local_government_id": "322",
    "local_government_name": "BIRNIN KUDU",
    "state_id": "17",
    "state_name": "JIGAWA",
    "location": {
      "latitude": 11.5706003,
      "longitude": 9.5918651,
      "viewport": {
        "northeast": {
          "lat": 11.57210787989272,
          "lng": 9.593079529892721
        },
        "southwest": {
          "lat": 11.56940822010728,
          "lng": 9.590379870107277
        }
      },
      "formatted_address": "Kwatai Gidan Jatau Primary School, 721101, Nigeria",
      "google_map_url": "https://maps.google.com?q=11.5706003,9.5918651",
      "google_place_id": "ChIJ6afwL_XAqxERCVUPlzwdCsM"
    }
  },
  {
    "id": "67455",
    "name": "SAFA GIDAN KADANYA FADA",
    "registration_area_id": "3684",
    "precise_location": null,
    "abbreviation": "011",
    "units": "011",
    "delimitation": "17/03/07/011",
    "remark": "EXISTING PU",
    "ward_id": "3684",
    "ward_name": "SUNDIMINA",
    "local_government_id": "322",
    "local_government_name": "BIRNIN KUDU",
    "state_id": "17",
    "state_name": "JIGAWA",
    "location": {
      "latitude": 11.5704887,
      "longitude": 9.5607945,
      "viewport": {
        "northeast": {
          "lat": 11.57185707989272,
          "lng": 9.56214162989272
        },
        "southwest": {
          "lat": 11.56915742010728,
          "lng": 9.559441970107276
        }
      },
      "formatted_address": "1 Road, 721101, Sundimina, Nigeria",
      "google_map_url": "https://maps.google.com?q=11.5704887,9.5607945",
      "google_place_id": "ChIJ5X09GhbAqxERJfy5vSX97QI"
    }
  },
  {
    "id": "67456",
    "name": "TSALLAKAWA TSALLAKAWA",
    "registration_area_id": "3684",
    "precise_location": null,
    "abbreviation": "012",
    "units": "012",
    "delimitation": "17/03/07/012",
    "remark": "EXISTING PU",
    "ward_id": "3684",
    "ward_name": "SUNDIMINA",
    "local_government_id": "322",
    "local_government_name": "BIRNIN KUDU",
    "state_id": "17",
    "state_name": "JIGAWA",
    "location": {
      "latitude": 11.5704887,
      "longitude": 9.5607945,
      "viewport": {
        "northeast": {
          "lat": 11.57185707989272,
          "lng": 9.56214162989272
        },
        "southwest": {
          "lat": 11.56915742010728,
          "lng": 9.559441970107276
        }
      },
      "formatted_address": "1 Road, 721101, Sundimina, Nigeria",
      "google_map_url": "https://maps.google.com?q=11.5704887,9.5607945",
      "google_place_id": "ChIJ5X09GhbAqxERJfy5vSX97QI"
    }
  },
  {
    "id": "67457",
    "name": "RANGWAN TSANGAYA RANGWAN",
    "registration_area_id": "3684",
    "precise_location": null,
    "abbreviation": "013",
    "units": "013",
    "delimitation": "17/03/07/013",
    "remark": "EXISTING PU",
    "ward_id": "3684",
    "ward_name": "SUNDIMINA",
    "local_government_id": "322",
    "local_government_name": "BIRNIN KUDU",
    "state_id": "17",
    "state_name": "JIGAWA",
    "location": {
      "latitude": 11.5704887,
      "longitude": 9.5607945,
      "viewport": {
        "northeast": {
          "lat": 11.57185707989272,
          "lng": 9.56214162989272
        },
        "southwest": {
          "lat": 11.56915742010728,
          "lng": 9.559441970107276
        }
      },
      "formatted_address": "1 Road, 721101, Sundimina, Nigeria",
      "google_map_url": "https://maps.google.com?q=11.5704887,9.5607945",
      "google_place_id": "ChIJ5X09GhbAqxERJfy5vSX97QI"
    }
  },
  {
    "id": "67458",
    "name": "KADIRAWAN BELLO KADIRAWAN BELLO",
    "registration_area_id": "3684",
    "precise_location": null,
    "abbreviation": "014",
    "units": "014",
    "delimitation": "17/03/07/014",
    "remark": "EXISTING PU",
    "ward_id": "3684",
    "ward_name": "SUNDIMINA",
    "local_government_id": "322",
    "local_government_name": "BIRNIN KUDU",
    "state_id": "17",
    "state_name": "JIGAWA",
    "location": {
      "latitude": 11.5704887,
      "longitude": 9.5607945,
      "viewport": {
        "northeast": {
          "lat": 11.57185707989272,
          "lng": 9.56214162989272
        },
        "southwest": {
          "lat": 11.56915742010728,
          "lng": 9.559441970107276
        }
      },
      "formatted_address": "1 Road, 721101, Sundimina, Nigeria",
      "google_map_url": "https://maps.google.com?q=11.5704887,9.5607945",
      "google_place_id": "ChIJ5X09GhbAqxERJfy5vSX97QI"
    }
  },
  {
    "id": "67459",
    "name": "ATIYA/MALALUWA ATIYA",
    "registration_area_id": "3684",
    "precise_location": null,
    "abbreviation": "015",
    "units": "015",
    "delimitation": "17/03/07/015",
    "remark": "EXISTING PU",
    "ward_id": "3684",
    "ward_name": "SUNDIMINA",
    "local_government_id": "322",
    "local_government_name": "BIRNIN KUDU",
    "state_id": "17",
    "state_name": "JIGAWA",
    "location": {
      "latitude": 11.5704887,
      "longitude": 9.5607945,
      "viewport": {
        "northeast": {
          "lat": 11.57185707989272,
          "lng": 9.56214162989272
        },
        "southwest": {
          "lat": 11.56915742010728,
          "lng": 9.559441970107276
        }
      },
      "formatted_address": "1 Road, 721101, Sundimina, Nigeria",
      "google_map_url": "https://maps.google.com?q=11.5704887,9.5607945",
      "google_place_id": "ChIJ5X09GhbAqxERJfy5vSX97QI"
    }
  },
  {
    "id": "67460",
    "name": "KAFATA/KATIKA",
    "registration_area_id": "3684",
    "precise_location": null,
    "abbreviation": "016",
    "units": "016",
    "delimitation": "17/03/07/016",
    "remark": "EXISTING PU",
    "ward_id": "3684",
    "ward_name": "SUNDIMINA",
    "local_government_id": "322",
    "local_government_name": "BIRNIN KUDU",
    "state_id": "17",
    "state_name": "JIGAWA",
    "location": {
      "latitude": 11.5704887,
      "longitude": 9.5607945,
      "viewport": {
        "northeast": {
          "lat": 11.57185707989272,
          "lng": 9.56214162989272
        },
        "southwest": {
          "lat": 11.56915742010728,
          "lng": 9.559441970107276
        }
      },
      "formatted_address": "1 Road, 721101, Sundimina, Nigeria",
      "google_map_url": "https://maps.google.com?q=11.5704887,9.5607945",
      "google_place_id": "ChIJ5X09GhbAqxERJfy5vSX97QI"
    }
  },
  {
    "id": "67461",
    "name": "NAFARA P.SCH.",
    "registration_area_id": "3684",
    "precise_location": null,
    "abbreviation": "017",
    "units": "017",
    "delimitation": "17/03/07/017",
    "remark": "EXISTING PU",
    "ward_id": "3684",
    "ward_name": "SUNDIMINA",
    "local_government_id": "322",
    "local_government_name": "BIRNIN KUDU",
    "state_id": "17",
    "state_name": "JIGAWA",
    "location": {
      "latitude": 11.5704887,
      "longitude": 9.5607945,
      "viewport": {
        "northeast": {
          "lat": 11.57185707989272,
          "lng": 9.56214162989272
        },
        "southwest": {
          "lat": 11.56915742010728,
          "lng": 9.559441970107276
        }
      },
      "formatted_address": "1 Road, 721101, Sundimina, Nigeria",
      "google_map_url": "https://maps.google.com?q=11.5704887,9.5607945",
      "google_place_id": "ChIJ5X09GhbAqxERJfy5vSX97QI"
    }
  },
  {
    "id": "67462",
    "name": "NAFARA AREWA P.S",
    "registration_area_id": "3684",
    "precise_location": null,
    "abbreviation": "018",
    "units": "018",
    "delimitation": "17/03/07/018",
    "remark": "EXISTING PU",
    "ward_id": "3684",
    "ward_name": "SUNDIMINA",
    "local_government_id": "322",
    "local_government_name": "BIRNIN KUDU",
    "state_id": "17",
    "state_name": "JIGAWA",
    "location": {
      "latitude": 11.5704887,
      "longitude": 9.5607945,
      "viewport": {
        "northeast": {
          "lat": 11.57185707989272,
          "lng": 9.56214162989272
        },
        "southwest": {
          "lat": 11.56915742010728,
          "lng": 9.559441970107276
        }
      },
      "formatted_address": "1 Road, 721101, Sundimina, Nigeria",
      "google_map_url": "https://maps.google.com?q=11.5704887,9.5607945",
      "google_place_id": "ChIJ5X09GhbAqxERJfy5vSX97QI"
    }
  },
  {
    "id": "67463",
    "name": "BARDIN DAWA/ZUMAIKIN NAFARA KUDU",
    "registration_area_id": "3684",
    "precise_location": null,
    "abbreviation": "019",
    "units": "019",
    "delimitation": "17/03/07/019",
    "remark": "EXISTING PU",
    "ward_id": "3684",
    "ward_name": "SUNDIMINA",
    "local_government_id": "322",
    "local_government_name": "BIRNIN KUDU",
    "state_id": "17",
    "state_name": "JIGAWA",
    "location": {
      "latitude": 11.5704887,
      "longitude": 9.5607945,
      "viewport": {
        "northeast": {
          "lat": 11.57185707989272,
          "lng": 9.56214162989272
        },
        "southwest": {
          "lat": 11.56915742010728,
          "lng": 9.559441970107276
        }
      },
      "formatted_address": "1 Road, 721101, Sundimina, Nigeria",
      "google_map_url": "https://maps.google.com?q=11.5704887,9.5607945",
      "google_place_id": "ChIJ5X09GhbAqxERJfy5vSX97QI"
    }
  },
  {
    "id": "67464",
    "name": "YABAZA/CHINA'A YABAZA",
    "registration_area_id": "3684",
    "precise_location": null,
    "abbreviation": "020",
    "units": "020",
    "delimitation": "17/03/07/020",
    "remark": "EXISTING PU",
    "ward_id": "3684",
    "ward_name": "SUNDIMINA",
    "local_government_id": "322",
    "local_government_name": "BIRNIN KUDU",
    "state_id": "17",
    "state_name": "JIGAWA",
    "location": {
      "latitude": 11.5704887,
      "longitude": 9.5607945,
      "viewport": {
        "northeast": {
          "lat": 11.57185707989272,
          "lng": 9.56214162989272
        },
        "southwest": {
          "lat": 11.56915742010728,
          "lng": 9.559441970107276
        }
      },
      "formatted_address": "1 Road, 721101, Sundimina, Nigeria",
      "google_map_url": "https://maps.google.com?q=11.5704887,9.5607945",
      "google_place_id": "ChIJ5X09GhbAqxERJfy5vSX97QI"
    }
  },
  {
    "id": "67465",
    "name": "TAWAKAL/KUNGUYIN TAWAKAL",
    "registration_area_id": "3684",
    "precise_location": null,
    "abbreviation": "021",
    "units": "021",
    "delimitation": "17/03/07/021",
    "remark": "EXISTING PU",
    "ward_id": "3684",
    "ward_name": "SUNDIMINA",
    "local_government_id": "322",
    "local_government_name": "BIRNIN KUDU",
    "state_id": "17",
    "state_name": "JIGAWA",
    "location": {
      "latitude": 11.5704887,
      "longitude": 9.5607945,
      "viewport": {
        "northeast": {
          "lat": 11.57185707989272,
          "lng": 9.56214162989272
        },
        "southwest": {
          "lat": 11.56915742010728,
          "lng": 9.559441970107276
        }
      },
      "formatted_address": "1 Road, 721101, Sundimina, Nigeria",
      "google_map_url": "https://maps.google.com?q=11.5704887,9.5607945",
      "google_place_id": "ChIJ5X09GhbAqxERJfy5vSX97QI"
    }
  },
  {
    "id": "67466",
    "name": "DUKWANA, DUKWANA",
    "registration_area_id": "3684",
    "precise_location": null,
    "abbreviation": "022",
    "units": "022",
    "delimitation": "17/03/07/022",
    "remark": "EXISTING PU",
    "ward_id": "3684",
    "ward_name": "SUNDIMINA",
    "local_government_id": "322",
    "local_government_name": "BIRNIN KUDU",
    "state_id": "17",
    "state_name": "JIGAWA",
    "location": {
      "latitude": 11.5704887,
      "longitude": 9.5607945,
      "viewport": {
        "northeast": {
          "lat": 11.57185707989272,
          "lng": 9.56214162989272
        },
        "southwest": {
          "lat": 11.56915742010728,
          "lng": 9.559441970107276
        }
      },
      "formatted_address": "1 Road, 721101, Sundimina, Nigeria",
      "google_map_url": "https://maps.google.com?q=11.5704887,9.5607945",
      "google_place_id": "ChIJ5X09GhbAqxERJfy5vSX97QI"
    }
  },
  {
    "id": "67467",
    "name": "KADIRAWA, KADIRAWA",
    "registration_area_id": "3684",
    "precise_location": null,
    "abbreviation": "023",
    "units": "023",
    "delimitation": "17/03/07/023",
    "remark": "EXISTING PU",
    "ward_id": "3684",
    "ward_name": "SUNDIMINA",
    "local_government_id": "322",
    "local_government_name": "BIRNIN KUDU",
    "state_id": "17",
    "state_name": "JIGAWA",
    "location": {
      "latitude": 11.5704887,
      "longitude": 9.5607945,
      "viewport": {
        "northeast": {
          "lat": 11.57185707989272,
          "lng": 9.56214162989272
        },
        "southwest": {
          "lat": 11.56915742010728,
          "lng": 9.559441970107276
        }
      },
      "formatted_address": "1 Road, 721101, Sundimina, Nigeria",
      "google_map_url": "https://maps.google.com?q=11.5704887,9.5607945",
      "google_place_id": "ChIJ5X09GhbAqxERJfy5vSX97QI"
    }
  },
  {
    "id": "67468",
    "name": "GIDAN GANDI/GIDAN MUDI GONAR SANI WANZAN",
    "registration_area_id": "3684",
    "precise_location": null,
    "abbreviation": "024",
    "units": "024",
    "delimitation": "17/03/07/024",
    "remark": "EXISTING PU",
    "ward_id": "3684",
    "ward_name": "SUNDIMINA",
    "local_government_id": "322",
    "local_government_name": "BIRNIN KUDU",
    "state_id": "17",
    "state_name": "JIGAWA",
    "location": {
      "latitude": 11.4661613,
      "longitude": 9.4761928,
      "viewport": {
        "northeast": {
          "lat": 11.46763037989272,
          "lng": 9.477635329892722
        },
        "southwest": {
          "lat": 11.46493072010728,
          "lng": 9.474935670107278
        }
      },
      "formatted_address": "Kangire Road, 721101, Birnin Kudu, Nigeria",
      "google_map_url": "https://maps.google.com?q=11.4661613,9.4761928",
      "google_place_id": "ChIJ7wXejCWVqxERCo0MRsGJOQY"
    }
  },
  {
    "id": "67469",
    "name": "GAURAM/KITIRI/G.ALHAJI GAURAM",
    "registration_area_id": "3684",
    "precise_location": null,
    "abbreviation": "025",
    "units": "025",
    "delimitation": "17/03/07/025",
    "remark": "EXISTING PU",
    "ward_id": "3684",
    "ward_name": "SUNDIMINA",
    "local_government_id": "322",
    "local_government_name": "BIRNIN KUDU",
    "state_id": "17",
    "state_name": "JIGAWA",
    "location": {
      "latitude": 11.5704887,
      "longitude": 9.5607945,
      "viewport": {
        "northeast": {
          "lat": 11.57185707989272,
          "lng": 9.56214162989272
        },
        "southwest": {
          "lat": 11.56915742010728,
          "lng": 9.559441970107276
        }
      },
      "formatted_address": "1 Road, 721101, Sundimina, Nigeria",
      "google_map_url": "https://maps.google.com?q=11.5704887,9.5607945",
      "google_place_id": "ChIJ5X09GhbAqxERJfy5vSX97QI"
    }
  },
  {
    "id": "67470",
    "name": "NAFARA DUNGU PRY SCH.",
    "registration_area_id": "3684",
    "precise_location": null,
    "abbreviation": "026",
    "units": "026",
    "delimitation": "17/03/07/026",
    "remark": "EXISTING PU",
    "ward_id": "3684",
    "ward_name": "SUNDIMINA",
    "local_government_id": "322",
    "local_government_name": "BIRNIN KUDU",
    "state_id": "17",
    "state_name": "JIGAWA",
    "location": {
      "latitude": 11.5704887,
      "longitude": 9.5607945,
      "viewport": {
        "northeast": {
          "lat": 11.57185707989272,
          "lng": 9.56214162989272
        },
        "southwest": {
          "lat": 11.56915742010728,
          "lng": 9.559441970107276
        }
      },
      "formatted_address": "1 Road, 721101, Sundimina, Nigeria",
      "google_map_url": "https://maps.google.com?q=11.5704887,9.5607945",
      "google_place_id": "ChIJ5X09GhbAqxERJfy5vSX97QI"
    }
  },
  {
    "id": "67471",
    "name": "GIDAN MUDI",
    "registration_area_id": "3684",
    "precise_location": null,
    "abbreviation": "027",
    "units": "027",
    "delimitation": "17/03/07/027",
    "remark": "EXISTING PU",
    "ward_id": "3684",
    "ward_name": "SUNDIMINA",
    "local_government_id": "322",
    "local_government_name": "BIRNIN KUDU",
    "state_id": "17",
    "state_name": "JIGAWA",
    "location": {
      "latitude": 11.5704887,
      "longitude": 9.5607945,
      "viewport": {
        "northeast": {
          "lat": 11.57185707989272,
          "lng": 9.56214162989272
        },
        "southwest": {
          "lat": 11.56915742010728,
          "lng": 9.559441970107276
        }
      },
      "formatted_address": "1 Road, 721101, Sundimina, Nigeria",
      "google_map_url": "https://maps.google.com?q=11.5704887,9.5607945",
      "google_place_id": "ChIJ5X09GhbAqxERJfy5vSX97QI"
    }
  },
  {
    "id": "67472",
    "name": "AGARU/NASAKAR/GDSS SUNDIMINA  II",
    "registration_area_id": "3684",
    "precise_location": null,
    "abbreviation": "028",
    "units": "028",
    "delimitation": "17/03/07/028",
    "remark": "NEW PU",
    "ward_id": "3684",
    "ward_name": "SUNDIMINA",
    "local_government_id": "322",
    "local_government_name": "BIRNIN KUDU",
    "state_id": "17",
    "state_name": "JIGAWA",
    "location": {
      "latitude": 11.560814,
      "longitude": 9.5549517,
      "viewport": {
        "northeast": {
          "lat": 11.56219507989272,
          "lng": 9.55622497989272
        },
        "southwest": {
          "lat": 11.55949542010728,
          "lng": 9.553525320107276
        }
      },
      "formatted_address": "HH63+8XG, 721101, Sundimina, Nigeria",
      "google_map_url": "https://maps.google.com?q=11.560814,9.5549517",
      "google_place_id": "ChIJk0RvA1fBqxER7EXr5RZi3zQ"
    }
  },
  {
    "id": "67473",
    "name": "TSANGAYAR KANYAWA",
    "registration_area_id": "3684",
    "precise_location": null,
    "abbreviation": "029",
    "units": "029",
    "delimitation": "17/03/07/029",
    "remark": "NEW PU",
    "ward_id": "3684",
    "ward_name": "SUNDIMINA",
    "local_government_id": "322",
    "local_government_name": "BIRNIN KUDU",
    "state_id": "17",
    "state_name": "JIGAWA",
    "location": {
      "latitude": 11.5704887,
      "longitude": 9.5607945,
      "viewport": {
        "northeast": {
          "lat": 11.57185707989272,
          "lng": 9.56214162989272
        },
        "southwest": {
          "lat": 11.56915742010728,
          "lng": 9.559441970107276
        }
      },
      "formatted_address": "1 Road, 721101, Sundimina, Nigeria",
      "google_map_url": "https://maps.google.com?q=11.5704887,9.5607945",
      "google_place_id": "ChIJ5X09GhbAqxERJfy5vSX97QI"
    }
  },
  {
    "id": "67474",
    "name": "SUNDIMINA NURSERY PRI. SCH.  II",
    "registration_area_id": "3684",
    "precise_location": null,
    "abbreviation": "030",
    "units": "030",
    "delimitation": "17/03/07/030",
    "remark": "NEW PU",
    "ward_id": "3684",
    "ward_name": "SUNDIMINA",
    "local_government_id": "322",
    "local_government_name": "BIRNIN KUDU",
    "state_id": "17",
    "state_name": "JIGAWA",
    "location": {
      "latitude": 11.5704887,
      "longitude": 9.5607945,
      "viewport": {
        "northeast": {
          "lat": 11.57185707989272,
          "lng": 9.56214162989272
        },
        "southwest": {
          "lat": 11.56915742010728,
          "lng": 9.559441970107276
        }
      },
      "formatted_address": "1 Road, 721101, Sundimina, Nigeria",
      "google_map_url": "https://maps.google.com?q=11.5704887,9.5607945",
      "google_place_id": "ChIJ5X09GhbAqxERJfy5vSX97QI"
    }
  },
  {
    "id": "67475",
    "name": "SUNDIMINA VIEW CENTRE III",
    "registration_area_id": "3684",
    "precise_location": null,
    "abbreviation": "031",
    "units": "031",
    "delimitation": "17/03/07/031",
    "remark": "NEW PU",
    "ward_id": "3684",
    "ward_name": "SUNDIMINA",
    "local_government_id": "322",
    "local_government_name": "BIRNIN KUDU",
    "state_id": "17",
    "state_name": "JIGAWA",
    "location": {
      "latitude": 11.5704887,
      "longitude": 9.5607945,
      "viewport": {
        "northeast": {
          "lat": 11.57185707989272,
          "lng": 9.56214162989272
        },
        "southwest": {
          "lat": 11.56915742010728,
          "lng": 9.559441970107276
        }
      },
      "formatted_address": "1 Road, 721101, Sundimina, Nigeria",
      "google_map_url": "https://maps.google.com?q=11.5704887,9.5607945",
      "google_place_id": "ChIJ5X09GhbAqxERJfy5vSX97QI"
    }
  },
  {
    "id": "67476",
    "name": "GAMBARA/TSANGAYA BAKIN RIJIYA",
    "registration_area_id": "3684",
    "precise_location": null,
    "abbreviation": "032",
    "units": "032",
    "delimitation": "17/03/07/032",
    "remark": "NEW PU",
    "ward_id": "3684",
    "ward_name": "SUNDIMINA",
    "local_government_id": "322",
    "local_government_name": "BIRNIN KUDU",
    "state_id": "17",
    "state_name": "JIGAWA",
    "location": {
      "latitude": 11.5704887,
      "longitude": 9.5607945,
      "viewport": {
        "northeast": {
          "lat": 11.57185707989272,
          "lng": 9.56214162989272
        },
        "southwest": {
          "lat": 11.56915742010728,
          "lng": 9.559441970107276
        }
      },
      "formatted_address": "1 Road, 721101, Sundimina, Nigeria",
      "google_map_url": "https://maps.google.com?q=11.5704887,9.5607945",
      "google_place_id": "ChIJ5X09GhbAqxERJfy5vSX97QI"
    }
  },
  {
    "id": "67477",
    "name": "KUMBURA JUNIOR SEC. SCH.  II",
    "registration_area_id": "3684",
    "precise_location": null,
    "abbreviation": "033",
    "units": "033",
    "delimitation": "17/03/07/033",
    "remark": "NEW PU",
    "ward_id": "3684",
    "ward_name": "SUNDIMINA",
    "local_government_id": "322",
    "local_government_name": "BIRNIN KUDU",
    "state_id": "17",
    "state_name": "JIGAWA",
    "location": null
  },
  {
    "id": "67478",
    "name": "KWATAI ASIBITI  II",
    "registration_area_id": "3684",
    "precise_location": null,
    "abbreviation": "034",
    "units": "034",
    "delimitation": "17/03/07/034",
    "remark": "NEW PU",
    "ward_id": "3684",
    "ward_name": "SUNDIMINA",
    "local_government_id": "322",
    "local_government_name": "BIRNIN KUDU",
    "state_id": "17",
    "state_name": "JIGAWA",
    "location": {
      "latitude": 11.5704887,
      "longitude": 9.5607945,
      "viewport": {
        "northeast": {
          "lat": 11.57185707989272,
          "lng": 9.56214162989272
        },
        "southwest": {
          "lat": 11.56915742010728,
          "lng": 9.559441970107276
        }
      },
      "formatted_address": "1 Road, 721101, Sundimina, Nigeria",
      "google_map_url": "https://maps.google.com?q=11.5704887,9.5607945",
      "google_place_id": "ChIJ5X09GhbAqxERJfy5vSX97QI"
    }
  }
]