[
  {
    "id": "29440",
    "name": "UKPILLA - OPEN SPACE",
    "registration_area_id": "1572",
    "precise_location": null,
    "abbreviation": "001",
    "units": "001",
    "delimitation": "07/16/06/001",
    "remark": "EXISTING PU",
    "ward_id": "1572",
    "ward_name": "OBORU/OYE",
    "local_government_id": "134",
    "local_government_name": "OJU",
    "state_id": "7",
    "state_name": "BENUE",
    "location": {
      "latitude": 6.882068299999999,
      "longitude": 8.4243688,
      "viewport": {
        "northeast": {
          "lat": 6.883417729892721,
          "lng": 8.425719429892723
        },
        "southwest": {
          "lat": 6.880718070107277,
          "lng": 8.42301977010728
        }
      },
      "formatted_address": "VCJF+RPH, opposite college of education, 973108, phaseII, Nigeria",
      "google_map_url": "https://maps.google.com?q=6.882068299999999,8.4243688",
      "google_place_id": "ChIJj6WXhVsGWxARXKAhz_28Htw"
    }
  },
  {
    "id": "29441",
    "name": "OKPINYA - OPEN SPACE",
    "registration_area_id": "1572",
    "precise_location": null,
    "abbreviation": "002",
    "units": "002",
    "delimitation": "07/16/06/002",
    "remark": "EXISTING PU",
    "ward_id": "1572",
    "ward_name": "OBORU/OYE",
    "local_government_id": "134",
    "local_government_name": "OJU",
    "state_id": "7",
    "state_name": "BENUE",
    "location": {
      "latitude": 6.8019269,
      "longitude": 8.5636497,
      "viewport": {
        "northeast": {
          "lat": 6.803611229892722,
          "lng": 8.56501597989272
        },
        "southwest": {
          "lat": 6.800911570107278,
          "lng": 8.562316320107277
        }
      },
      "formatted_address": "6FRCRH27+RC5, OKPINYA, 973108, Ibegi, Nigeria",
      "google_map_url": "https://maps.google.com?q=6.8019269,8.5636497",
      "google_place_id": "ChIJV2invPGnWxARlL9G6hwRQxk"
    }
  },
  {
    "id": "29442",
    "name": "ITEGA - OPEN SPACE",
    "registration_area_id": "1572",
    "precise_location": null,
    "abbreviation": "003",
    "units": "003",
    "delimitation": "07/16/06/003",
    "remark": "EXISTING PU",
    "ward_id": "1572",
    "ward_name": "OBORU/OYE",
    "local_government_id": "134",
    "local_government_name": "OJU",
    "state_id": "7",
    "state_name": "BENUE",
    "location": {
      "latitude": 6.882068299999999,
      "longitude": 8.4243688,
      "viewport": {
        "northeast": {
          "lat": 6.883417729892721,
          "lng": 8.425719429892723
        },
        "southwest": {
          "lat": 6.880718070107277,
          "lng": 8.42301977010728
        }
      },
      "formatted_address": "VCJF+RPH, opposite college of education, 973108, phaseII, Nigeria",
      "google_map_url": "https://maps.google.com?q=6.882068299999999,8.4243688",
      "google_place_id": "ChIJj6WXhVsGWxARXKAhz_28Htw"
    }
  },
  {
    "id": "29443",
    "name": "IYAKOM - OPEN SPACE",
    "registration_area_id": "1572",
    "precise_location": null,
    "abbreviation": "004",
    "units": "004",
    "delimitation": "07/16/06/004",
    "remark": "EXISTING PU",
    "ward_id": "1572",
    "ward_name": "OBORU/OYE",
    "local_government_id": "134",
    "local_government_name": "OJU",
    "state_id": "7",
    "state_name": "BENUE",
    "location": {
      "latitude": 6.882068299999999,
      "longitude": 8.4243688,
      "viewport": {
        "northeast": {
          "lat": 6.883417729892721,
          "lng": 8.425719429892723
        },
        "southwest": {
          "lat": 6.880718070107277,
          "lng": 8.42301977010728
        }
      },
      "formatted_address": "VCJF+RPH, opposite college of education, 973108, phaseII, Nigeria",
      "google_map_url": "https://maps.google.com?q=6.882068299999999,8.4243688",
      "google_place_id": "ChIJj6WXhVsGWxARXKAhz_28Htw"
    }
  },
  {
    "id": "29444",
    "name": "OHO - OPEN SPACE",
    "registration_area_id": "1572",
    "precise_location": null,
    "abbreviation": "005",
    "units": "005",
    "delimitation": "07/16/06/005",
    "remark": "EXISTING PU",
    "ward_id": "1572",
    "ward_name": "OBORU/OYE",
    "local_government_id": "134",
    "local_government_name": "OJU",
    "state_id": "7",
    "state_name": "BENUE",
    "location": {
      "latitude": 6.882068299999999,
      "longitude": 8.4243688,
      "viewport": {
        "northeast": {
          "lat": 6.883417729892721,
          "lng": 8.425719429892723
        },
        "southwest": {
          "lat": 6.880718070107277,
          "lng": 8.42301977010728
        }
      },
      "formatted_address": "VCJF+RPH, opposite college of education, 973108, phaseII, Nigeria",
      "google_map_url": "https://maps.google.com?q=6.882068299999999,8.4243688",
      "google_place_id": "ChIJj6WXhVsGWxARXKAhz_28Htw"
    }
  },
  {
    "id": "29445",
    "name": "OBEGEDE/OGODO - OPEN SPACE",
    "registration_area_id": "1572",
    "precise_location": null,
    "abbreviation": "006",
    "units": "006",
    "delimitation": "07/16/06/006",
    "remark": "EXISTING PU",
    "ward_id": "1572",
    "ward_name": "OBORU/OYE",
    "local_government_id": "134",
    "local_government_name": "OJU",
    "state_id": "7",
    "state_name": "BENUE",
    "location": {
      "latitude": 6.882068299999999,
      "longitude": 8.4243688,
      "viewport": {
        "northeast": {
          "lat": 6.883417729892721,
          "lng": 8.425719429892723
        },
        "southwest": {
          "lat": 6.880718070107277,
          "lng": 8.42301977010728
        }
      },
      "formatted_address": "VCJF+RPH, opposite college of education, 973108, phaseII, Nigeria",
      "google_map_url": "https://maps.google.com?q=6.882068299999999,8.4243688",
      "google_place_id": "ChIJj6WXhVsGWxARXKAhz_28Htw"
    }
  },
  {
    "id": "29446",
    "name": "OHIMENYI/ACHAWU - OPEN SPACE",
    "registration_area_id": "1572",
    "precise_location": null,
    "abbreviation": "007",
    "units": "007",
    "delimitation": "07/16/06/007",
    "remark": "EXISTING PU",
    "ward_id": "1572",
    "ward_name": "OBORU/OYE",
    "local_government_id": "134",
    "local_government_name": "OJU",
    "state_id": "7",
    "state_name": "BENUE",
    "location": {
      "latitude": 6.882068299999999,
      "longitude": 8.4243688,
      "viewport": {
        "northeast": {
          "lat": 6.883417729892721,
          "lng": 8.425719429892723
        },
        "southwest": {
          "lat": 6.880718070107277,
          "lng": 8.42301977010728
        }
      },
      "formatted_address": "VCJF+RPH, opposite college of education, 973108, phaseII, Nigeria",
      "google_map_url": "https://maps.google.com?q=6.882068299999999,8.4243688",
      "google_place_id": "ChIJj6WXhVsGWxARXKAhz_28Htw"
    }
  },
  {
    "id": "29447",
    "name": "ORIPWA - OPEN SPACE",
    "registration_area_id": "1572",
    "precise_location": null,
    "abbreviation": "008",
    "units": "008",
    "delimitation": "07/16/06/008",
    "remark": "EXISTING PU",
    "ward_id": "1572",
    "ward_name": "OBORU/OYE",
    "local_government_id": "134",
    "local_government_name": "OJU",
    "state_id": "7",
    "state_name": "BENUE",
    "location": {
      "latitude": 6.882068299999999,
      "longitude": 8.4243688,
      "viewport": {
        "northeast": {
          "lat": 6.883417729892721,
          "lng": 8.425719429892723
        },
        "southwest": {
          "lat": 6.880718070107277,
          "lng": 8.42301977010728
        }
      },
      "formatted_address": "VCJF+RPH, opposite college of education, 973108, phaseII, Nigeria",
      "google_map_url": "https://maps.google.com?q=6.882068299999999,8.4243688",
      "google_place_id": "ChIJj6WXhVsGWxARXKAhz_28Htw"
    }
  },
  {
    "id": "29448",
    "name": "OKETE/ADUM/ATEKPE - OPEN SPACE",
    "registration_area_id": "1572",
    "precise_location": null,
    "abbreviation": "009",
    "units": "009",
    "delimitation": "07/16/06/009",
    "remark": "EXISTING PU",
    "ward_id": "1572",
    "ward_name": "OBORU/OYE",
    "local_government_id": "134",
    "local_government_name": "OJU",
    "state_id": "7",
    "state_name": "BENUE",
    "location": {
      "latitude": 6.882068299999999,
      "longitude": 8.4243688,
      "viewport": {
        "northeast": {
          "lat": 6.883417729892721,
          "lng": 8.425719429892723
        },
        "southwest": {
          "lat": 6.880718070107277,
          "lng": 8.42301977010728
        }
      },
      "formatted_address": "VCJF+RPH, opposite college of education, 973108, phaseII, Nigeria",
      "google_map_url": "https://maps.google.com?q=6.882068299999999,8.4243688",
      "google_place_id": "ChIJj6WXhVsGWxARXKAhz_28Htw"
    }
  },
  {
    "id": "29449",
    "name": "OHO II - OPEN SPACE",
    "registration_area_id": "1572",
    "precise_location": null,
    "abbreviation": "010",
    "units": "010",
    "delimitation": "07/16/06/010",
    "remark": "EXISTING PU",
    "ward_id": "1572",
    "ward_name": "OBORU/OYE",
    "local_government_id": "134",
    "local_government_name": "OJU",
    "state_id": "7",
    "state_name": "BENUE",
    "location": null
  },
  {
    "id": "29450",
    "name": "UKPILA II P/SCHOOL",
    "registration_area_id": "1572",
    "precise_location": null,
    "abbreviation": "011",
    "units": "011",
    "delimitation": "07/16/06/011",
    "remark": "NEW PU",
    "ward_id": "1572",
    "ward_name": "OBORU/OYE",
    "local_government_id": "134",
    "local_government_name": "OJU",
    "state_id": "7",
    "state_name": "BENUE",
    "location": {
      "latitude": 6.804264799999999,
      "longitude": 8.541509,
      "viewport": {
        "northeast": {
          "lat": 6.805591329892721,
          "lng": 8.542847529892722
        },
        "southwest": {
          "lat": 6.802891670107277,
          "lng": 8.540147870107278
        }
      },
      "formatted_address": "6FRCRG3R+MJF, UKPILA, 973108, Ibegi, Nigeria",
      "google_map_url": "https://maps.google.com?q=6.804264799999999,8.541509",
      "google_place_id": "ChIJu5Q0CQSnWxAR-FzivCpXCFk"
    }
  },
  {
    "id": "29451",
    "name": "ULOKO OPEN SPACE",
    "registration_area_id": "1572",
    "precise_location": null,
    "abbreviation": "012",
    "units": "012",
    "delimitation": "07/16/06/012",
    "remark": "NEW PU",
    "ward_id": "1572",
    "ward_name": "OBORU/OYE",
    "local_government_id": "134",
    "local_government_name": "OJU",
    "state_id": "7",
    "state_name": "BENUE",
    "location": {
      "latitude": 6.882068299999999,
      "longitude": 8.4243688,
      "viewport": {
        "northeast": {
          "lat": 6.883417729892721,
          "lng": 8.425719429892723
        },
        "southwest": {
          "lat": 6.880718070107277,
          "lng": 8.42301977010728
        }
      },
      "formatted_address": "VCJF+RPH, opposite college of education, 973108, phaseII, Nigeria",
      "google_map_url": "https://maps.google.com?q=6.882068299999999,8.4243688",
      "google_place_id": "ChIJj6WXhVsGWxARXKAhz_28Htw"
    }
  },
  {
    "id": "29452",
    "name": "ADUM/IJEGUN/UPWO",
    "registration_area_id": "1572",
    "precise_location": null,
    "abbreviation": "013",
    "units": "013",
    "delimitation": "07/16/06/013",
    "remark": "NEW PU",
    "ward_id": "1572",
    "ward_name": "OBORU/OYE",
    "local_government_id": "134",
    "local_government_name": "OJU",
    "state_id": "7",
    "state_name": "BENUE",
    "location": {
      "latitude": 6.882068299999999,
      "longitude": 8.4243688,
      "viewport": {
        "northeast": {
          "lat": 6.883417729892721,
          "lng": 8.425719429892723
        },
        "southwest": {
          "lat": 6.880718070107277,
          "lng": 8.42301977010728
        }
      },
      "formatted_address": "VCJF+RPH, opposite college of education, 973108, phaseII, Nigeria",
      "google_map_url": "https://maps.google.com?q=6.882068299999999,8.4243688",
      "google_place_id": "ChIJj6WXhVsGWxARXKAhz_28Htw"
    }
  }
]