[
  {
    "id": "344765",
    "name": "KOWODE MARKET/SUBERU/ODENIYANS HOUSE, AT CHIEF ADUNLUS HOUSE",
    "registration_area_id": "17511",
    "precise_location": null,
    "abbreviation": "001",
    "units": "001",
    "delimitation": "28/01/13/001",
    "remark": "EXISTING PU",
    "ward_id": "17511",
    "ward_name": "OYINMO",
    "local_government_id": "582",
    "local_government_name": "AKOKO NORTH EAST",
    "state_id": "28",
    "state_name": "ONDO",
    "location": {
      "latitude": 7.524806300000001,
      "longitude": 5.7668515,
      "viewport": {
        "northeast": {
          "lat": 7.526400429892723,
          "lng": 5.768157279892722
        },
        "southwest": {
          "lat": 7.523700770107279,
          "lng": 5.765457620107278
        }
      },
      "formatted_address": "No 3 Ikare Garage, Ikare Road, Akoko#, Nigeria",
      "google_map_url": "https://maps.google.com?q=7.524806300000001,5.7668515",
      "google_place_id": "ChIJmWovNyczRhAR1SjTLEV5-7E"
    }
  },
  {
    "id": "344766",
    "name": "KOWODE MARKET/SUBERU/ODENIYANS HOUSE, NEAR CHIEF ADUNLUS HOUSE",
    "registration_area_id": "17511",
    "precise_location": null,
    "abbreviation": "002",
    "units": "002",
    "delimitation": "28/01/13/002",
    "remark": "EXISTING PU",
    "ward_id": "17511",
    "ward_name": "OYINMO",
    "local_government_id": "582",
    "local_government_name": "AKOKO NORTH EAST",
    "state_id": "28",
    "state_name": "ONDO",
    "location": {
      "latitude": 7.524806300000001,
      "longitude": 5.7668515,
      "viewport": {
        "northeast": {
          "lat": 7.526400429892723,
          "lng": 5.768157279892722
        },
        "southwest": {
          "lat": 7.523700770107279,
          "lng": 5.765457620107278
        }
      },
      "formatted_address": "No 1 Kenac Plaza Off Idi Mango Ikere Akoko#, Nigeria",
      "google_map_url": "https://maps.google.com?q=7.524806300000001,5.7668515",
      "google_place_id": "ChIJN6D5G-czRhARRFgzYxOdxlQ"
    }
  },
  {
    "id": "344767",
    "name": "JOHN HOLT, AT OLADUGBAS OPP TOTAL FILLING STATION",
    "registration_area_id": "17511",
    "precise_location": null,
    "abbreviation": "003",
    "units": "003",
    "delimitation": "28/01/13/003",
    "remark": "EXISTING PU",
    "ward_id": "17511",
    "ward_name": "OYINMO",
    "local_government_id": "582",
    "local_government_name": "AKOKO NORTH EAST",
    "state_id": "28",
    "state_name": "ONDO",
    "location": {
      "latitude": 7.5175869,
      "longitude": 5.752598,
      "viewport": {
        "northeast": {
          "lat": 7.51894482989272,
          "lng": 5.753982979892721
        },
        "southwest": {
          "lat": 7.516245170107276,
          "lng": 5.751283320107277
        }
      },
      "formatted_address": "GQ93+22Q, Odoruwa Road, 342110, Ikare, Nigeria",
      "google_map_url": "https://maps.google.com?q=7.5175869,5.752598",
      "google_place_id": "ChIJTRDfuRczRhARD8RCI96-69Y"
    }
  },
  {
    "id": "344768",
    "name": "MR OBATIMEHINS/ALA YEYE AREGBESOLA/MR SUNDAY OLORUNTUYI, OLUMOFINS COMP",
    "registration_area_id": "17511",
    "precise_location": null,
    "abbreviation": "004",
    "units": "004",
    "delimitation": "28/01/13/004",
    "remark": "EXISTING PU",
    "ward_id": "17511",
    "ward_name": "OYINMO",
    "local_government_id": "582",
    "local_government_name": "AKOKO NORTH EAST",
    "state_id": "28",
    "state_name": "ONDO",
    "location": {
      "latitude": 7.335183999999999,
      "longitude": 5.984566200000001,
      "viewport": {
        "northeast": {
          "lat": 7.336304549999999,
          "lng": 5.98798365
        },
        "southwest": {
          "lat": 7.331822350000001,
          "lng": 5.983427049999999
        }
      },
      "formatted_address": "Ipesi Akoko, Aiyegunle Imeri Road, Nigeria",
      "google_map_url": "https://maps.google.com?q=7.335183999999999,5.984566200000001",
      "google_place_id": "ChIJwwztRTVBRhARFlMKoQjtSNU"
    }
  },
  {
    "id": "344769",
    "name": "ATERE/OWOLABI/ALAO/ARO/ADULOJU/SUNDAY COMP, AT OMOJOLAS HOUSE",
    "registration_area_id": "17511",
    "precise_location": null,
    "abbreviation": "005",
    "units": "005",
    "delimitation": "28/01/13/005",
    "remark": "EXISTING PU",
    "ward_id": "17511",
    "ward_name": "OYINMO",
    "local_government_id": "582",
    "local_government_name": "AKOKO NORTH EAST",
    "state_id": "28",
    "state_name": "ONDO",
    "location": null
  },
  {
    "id": "344770",
    "name": "OSANIYI/ODENUSI/AKINNUGBAGBE/NIYI, AT OMOWAYES HOUSE",
    "registration_area_id": "17511",
    "precise_location": null,
    "abbreviation": "006",
    "units": "006",
    "delimitation": "28/01/13/006",
    "remark": "EXISTING PU",
    "ward_id": "17511",
    "ward_name": "OYINMO",
    "local_government_id": "582",
    "local_government_name": "AKOKO NORTH EAST",
    "state_id": "28",
    "state_name": "ONDO",
    "location": {
      "latitude": 7.628715899999999,
      "longitude": 5.9398634,
      "viewport": {
        "northeast": {
          "lat": 7.630092329892721,
          "lng": 5.941157479892722
        },
        "southwest": {
          "lat": 7.627392670107278,
          "lng": 5.938457820107277
        }
      },
      "formatted_address": "JWHQ+FWQ, Akunu Akoko, along Ipele road, Kabba, Nigeria",
      "google_map_url": "https://maps.google.com?q=7.628715899999999,5.9398634",
      "google_place_id": "ChIJY13sPrMlRhARJbfR7XKdMVg"
    }
  },
  {
    "id": "344771",
    "name": "OSANIYI/ODENUSI/AKINNUGBAGBE/NIYI, AT ALETILES HOUSE",
    "registration_area_id": "17511",
    "precise_location": null,
    "abbreviation": "007",
    "units": "007",
    "delimitation": "28/01/13/007",
    "remark": "EXISTING PU",
    "ward_id": "17511",
    "ward_name": "OYINMO",
    "local_government_id": "582",
    "local_government_name": "AKOKO NORTH EAST",
    "state_id": "28",
    "state_name": "ONDO",
    "location": {
      "latitude": 7.628715899999999,
      "longitude": 5.9398634,
      "viewport": {
        "northeast": {
          "lat": 7.630092329892721,
          "lng": 5.941157479892722
        },
        "southwest": {
          "lat": 7.627392670107278,
          "lng": 5.938457820107277
        }
      },
      "formatted_address": "JWHQ+FWQ, Akunu Akoko, along Ipele road, Kabba, Nigeria",
      "google_map_url": "https://maps.google.com?q=7.628715899999999,5.9398634",
      "google_place_id": "ChIJY13sPrMlRhARJbfR7XKdMVg"
    }
  },
  {
    "id": "344772",
    "name": "OMOTUNWASE/MR GIWAS HOUSE, AT LATE PA ALIU BAKARES HOUSE",
    "registration_area_id": "17511",
    "precise_location": null,
    "abbreviation": "008",
    "units": "008",
    "delimitation": "28/01/13/008",
    "remark": "EXISTING PU",
    "ward_id": "17511",
    "ward_name": "OYINMO",
    "local_government_id": "582",
    "local_government_name": "AKOKO NORTH EAST",
    "state_id": "28",
    "state_name": "ONDO",
    "location": {
      "latitude": 7.5214307,
      "longitude": 5.7361246,
      "viewport": {
        "northeast": {
          "lat": 7.522587479892722,
          "lng": 5.737504079892722
        },
        "southwest": {
          "lat": 7.519887820107278,
          "lng": 5.734804420107278
        }
      },
      "formatted_address": "GPCP+HCH, Okegbe,, Ikare, Nigeria",
      "google_map_url": "https://maps.google.com?q=7.5214307,5.7361246",
      "google_place_id": "ChIJKRA5bC4zRhARGJXaNUUS_Yc"
    }
  },
  {
    "id": "344773",
    "name": "OMOTUNWASE/MR GIWAS HOUSE NEAR LATE PA ALIU BAKARES HOUSE",
    "registration_area_id": "17511",
    "precise_location": null,
    "abbreviation": "009",
    "units": "009",
    "delimitation": "28/01/13/009",
    "remark": "EXISTING PU",
    "ward_id": "17511",
    "ward_name": "OYINMO",
    "local_government_id": "582",
    "local_government_name": "AKOKO NORTH EAST",
    "state_id": "28",
    "state_name": "ONDO",
    "location": {
      "latitude": 7.5214307,
      "longitude": 5.7361246,
      "viewport": {
        "northeast": {
          "lat": 7.522587479892722,
          "lng": 5.737504079892722
        },
        "southwest": {
          "lat": 7.519887820107278,
          "lng": 5.734804420107278
        }
      },
      "formatted_address": "GPCP+HCH, Okegbe,, Ikare, Nigeria",
      "google_map_url": "https://maps.google.com?q=7.5214307,5.7361246",
      "google_place_id": "ChIJKRA5bC4zRhARGJXaNUUS_Yc"
    }
  }
]