[
  {
    "id": "91255",
    "name": "DUGUJI, PRIMARY SCHOOL",
    "registration_area_id": "4666",
    "precise_location": null,
    "abbreviation": "001",
    "units": "001",
    "delimitation": "19/30/05/001",
    "remark": "EXISTING PU",
    "ward_id": "4666",
    "ward_name": "KURU",
    "local_government_id": "399",
    "local_government_name": "MINJIBIR",
    "state_id": "19",
    "state_name": "KANO",
    "location": {
      "latitude": 12.1957616,
      "longitude": 8.529918799999999,
      "viewport": {
        "northeast": {
          "lat": 12.19719777989272,
          "lng": 8.531215279892722
        },
        "southwest": {
          "lat": 12.19449812010728,
          "lng": 8.528515620107278
        }
      },
      "formatted_address": "7F4C5GWH+8X3 Duguji Kuru Kano Kunya, Nigeria",
      "google_map_url": "https://maps.google.com?q=12.1957616,8.529918799999999",
      "google_place_id": "ChIJQxrpgXmJrhERMB3EUkZbAXs"
    }
  },
  {
    "id": "91256",
    "name": "GEZA, PRIMARY SCHOOL",
    "registration_area_id": "4666",
    "precise_location": null,
    "abbreviation": "002",
    "units": "002",
    "delimitation": "19/30/05/002",
    "remark": "EXISTING PU",
    "ward_id": "4666",
    "ward_name": "KURU",
    "local_government_id": "399",
    "local_government_name": "MINJIBIR",
    "state_id": "19",
    "state_name": "KANO",
    "location": {
      "latitude": 11.9526061,
      "longitude": 8.514460999999999,
      "viewport": {
        "northeast": {
          "lat": 11.95397487989272,
          "lng": 8.515833779892722
        },
        "southwest": {
          "lat": 11.95127522010728,
          "lng": 8.513134120107278
        }
      },
      "formatted_address": "7F3CXG37+2QW SABUWAR GANDU, Kano, Nigeria",
      "google_map_url": "https://maps.google.com?q=11.9526061,8.514460999999999",
      "google_place_id": "ChIJY3vUITGBrhER7MmIjE44y7g"
    }
  },
  {
    "id": "91257",
    "name": "GOBIRAWA, GIDAN MAI UNGUWA",
    "registration_area_id": "4666",
    "precise_location": null,
    "abbreviation": "003",
    "units": "003",
    "delimitation": "19/30/05/003",
    "remark": "EXISTING PU",
    "ward_id": "4666",
    "ward_name": "KURU",
    "local_government_id": "399",
    "local_government_name": "MINJIBIR",
    "state_id": "19",
    "state_name": "KANO",
    "location": {
      "latitude": 12.1659186,
      "longitude": 8.6160674,
      "viewport": {
        "northeast": {
          "lat": 12.3062975,
          "lng": 8.733958099999999
        },
        "southwest": {
          "lat": 12.0743878,
          "lng": 8.5157987
        }
      },
      "formatted_address": "Minjibir, Nigeria",
      "google_map_url": "https://maps.google.com?q=12.1659186,8.6160674",
      "google_place_id": "ChIJKcYSpWeOrhERh_S7eTCNCPw"
    }
  },
  {
    "id": "91258",
    "name": "JIRGABAWA, GIDAN MAI UNGUWA",
    "registration_area_id": "4666",
    "precise_location": null,
    "abbreviation": "004",
    "units": "004",
    "delimitation": "19/30/05/004",
    "remark": "EXISTING PU",
    "ward_id": "4666",
    "ward_name": "KURU",
    "local_government_id": "399",
    "local_government_name": "MINJIBIR",
    "state_id": "19",
    "state_name": "KANO",
    "location": {
      "latitude": 11.7652528,
      "longitude": 8.423003699999999,
      "viewport": {
        "northeast": {
          "lat": 11.76659807989272,
          "lng": 8.424332679892723
        },
        "southwest": {
          "lat": 11.76389842010728,
          "lng": 8.42163302010728
        }
      },
      "formatted_address": "QC8F+462, Kano-Zaria Rd, 711101, Kura, Nigeria",
      "google_map_url": "https://maps.google.com?q=11.7652528,8.423003699999999",
      "google_place_id": "ChIJhQ0gbP3TrRERuCrJMslKPN4"
    }
  },
  {
    "id": "91259",
    "name": "KURU, CKIN GARI PRIMARY SCHOOL I",
    "registration_area_id": "4666",
    "precise_location": null,
    "abbreviation": "005",
    "units": "005",
    "delimitation": "19/30/05/005",
    "remark": "EXISTING PU",
    "ward_id": "4666",
    "ward_name": "KURU",
    "local_government_id": "399",
    "local_government_name": "MINJIBIR",
    "state_id": "19",
    "state_name": "KANO",
    "location": {
      "latitude": 11.9819913,
      "longitude": 8.571852500000002,
      "viewport": {
        "northeast": {
          "lat": 11.98353912989272,
          "lng": 8.573177079892721
        },
        "southwest": {
          "lat": 11.98083947010728,
          "lng": 8.570477420107277
        }
      },
      "formatted_address": "Kawo Cikin Gari Primary School, Hotoro GRA 700213, Kano, Nigeria",
      "google_map_url": "https://maps.google.com?q=11.9819913,8.571852500000002",
      "google_place_id": "ChIJo2UWn4CBrhEReiGELRlY-2A"
    }
  },
  {
    "id": "91260",
    "name": "KURU, CKIN GARI PRIMARY SCHOOL II",
    "registration_area_id": "4666",
    "precise_location": null,
    "abbreviation": "006",
    "units": "006",
    "delimitation": "19/30/05/006",
    "remark": "EXISTING PU",
    "ward_id": "4666",
    "ward_name": "KURU",
    "local_government_id": "399",
    "local_government_name": "MINJIBIR",
    "state_id": "19",
    "state_name": "KANO",
    "location": {
      "latitude": 11.9819913,
      "longitude": 8.571852500000002,
      "viewport": {
        "northeast": {
          "lat": 11.98353912989272,
          "lng": 8.573177079892721
        },
        "southwest": {
          "lat": 11.98083947010728,
          "lng": 8.570477420107277
        }
      },
      "formatted_address": "Kawo Cikin Gari Primary School, Hotoro GRA 700213, Kano, Nigeria",
      "google_map_url": "https://maps.google.com?q=11.9819913,8.571852500000002",
      "google_place_id": "ChIJo2UWn4CBrhEReiGELRlY-2A"
    }
  },
  {
    "id": "91261",
    "name": "KURU, GABAS PRIMARY SCHOOL",
    "registration_area_id": "4666",
    "precise_location": null,
    "abbreviation": "007",
    "units": "007",
    "delimitation": "19/30/05/007",
    "remark": "EXISTING PU",
    "ward_id": "4666",
    "ward_name": "KURU",
    "local_government_id": "399",
    "local_government_name": "MINJIBIR",
    "state_id": "19",
    "state_name": "KANO",
    "location": {
      "latitude": 11.5344751,
      "longitude": 8.9575803,
      "viewport": {
        "northeast": {
          "lat": 11.53582222989272,
          "lng": 8.95893067989272
        },
        "southwest": {
          "lat": 11.53312257010728,
          "lng": 8.956231020107277
        }
      },
      "formatted_address": "7F3CGXM5+Q2W SUMAILA GABAS, Kano, Nigeria",
      "google_map_url": "https://maps.google.com?q=11.5344751,8.9575803",
      "google_place_id": "ChIJm8MgBtdtrBERHQvu0gQ5u5U"
    }
  },
  {
    "id": "91262",
    "name": "KURMA PRI. SCH.",
    "registration_area_id": "4666",
    "precise_location": null,
    "abbreviation": "008",
    "units": "008",
    "delimitation": "19/30/05/008",
    "remark": "EXISTING PU",
    "ward_id": "4666",
    "ward_name": "KURU",
    "local_government_id": "399",
    "local_government_name": "MINJIBIR",
    "state_id": "19",
    "state_name": "KANO",
    "location": null
  },
  {
    "id": "91263",
    "name": "SHEGEM PRI. SCH.",
    "registration_area_id": "4666",
    "precise_location": null,
    "abbreviation": "009",
    "units": "009",
    "delimitation": "19/30/05/009",
    "remark": "EXISTING PU",
    "ward_id": "4666",
    "ward_name": "KURU",
    "local_government_id": "399",
    "local_government_name": "MINJIBIR",
    "state_id": "19",
    "state_name": "KANO",
    "location": {
      "latitude": 9.705686799999999,
      "longitude": 8.841415399999999,
      "viewport": {
        "northeast": {
          "lat": 9.707089029892723,
          "lng": 8.842718529892721
        },
        "southwest": {
          "lat": 9.704389370107279,
          "lng": 8.840018870107277
        }
      },
      "formatted_address": "PR4R+7G7, 930101, Kuru, Nigeria",
      "google_map_url": "https://maps.google.com?q=9.705686799999999,8.841415399999999",
      "google_place_id": "ChIJP4euSUKfUxAREj0fYJzNV9M"
    }
  },
  {
    "id": "91264",
    "name": "ZABAINAWA DANSUDU, PRIMARY SCHOOL",
    "registration_area_id": "4666",
    "precise_location": null,
    "abbreviation": "010",
    "units": "010",
    "delimitation": "19/30/05/010",
    "remark": "EXISTING PU",
    "ward_id": "4666",
    "ward_name": "KURU",
    "local_government_id": "399",
    "local_government_name": "MINJIBIR",
    "state_id": "19",
    "state_name": "KANO",
    "location": {
      "latitude": 11.9437275,
      "longitude": 8.5437657,
      "viewport": {
        "northeast": {
          "lat": 11.94513372989272,
          "lng": 8.545096129892721
        },
        "southwest": {
          "lat": 11.94243407010728,
          "lng": 8.542396470107278
        }
      },
      "formatted_address": "WGVV+FG6, Local Govt Line Bariki, Kano, Nigeria",
      "google_map_url": "https://maps.google.com?q=11.9437275,8.5437657",
      "google_place_id": "ChIJo530_B-BrhERgRHXQSv2QgE"
    }
  },
  {
    "id": "91265",
    "name": "ZABAINAWA INUSA PRIMARY SCHOOL",
    "registration_area_id": "4666",
    "precise_location": null,
    "abbreviation": "011",
    "units": "011",
    "delimitation": "19/30/05/011",
    "remark": "EXISTING PU",
    "ward_id": "4666",
    "ward_name": "KURU",
    "local_government_id": "399",
    "local_government_name": "MINJIBIR",
    "state_id": "19",
    "state_name": "KANO",
    "location": {
      "latitude": 12.1540145,
      "longitude": 8.6753822,
      "viewport": {
        "northeast": {
          "lat": 12.15530482989272,
          "lng": 8.67674367989272
        },
        "southwest": {
          "lat": 12.15260517010728,
          "lng": 8.674044020107276
        }
      },
      "formatted_address": "7F4C5M3G+H4X WARD Kano, HAUSA, 702103, Minjibir, Nigeria",
      "google_map_url": "https://maps.google.com?q=12.1540145,8.6753822",
      "google_place_id": "ChIJe7LZebuRrhERFEikm3if9DU"
    }
  },
  {
    "id": "91266",
    "name": "ZABAINAWA MAIKUDI PRI. SCH.",
    "registration_area_id": "4666",
    "precise_location": null,
    "abbreviation": "012",
    "units": "012",
    "delimitation": "19/30/05/012",
    "remark": "EXISTING PU",
    "ward_id": "4666",
    "ward_name": "KURU",
    "local_government_id": "399",
    "local_government_name": "MINJIBIR",
    "state_id": "19",
    "state_name": "KANO",
    "location": null
  },
  {
    "id": "91267",
    "name": "ZABAINAWA MAIKUDI PRI. SCH.",
    "registration_area_id": "4666",
    "precise_location": null,
    "abbreviation": "013",
    "units": "013",
    "delimitation": "19/30/05/013",
    "remark": "EXISTING PU",
    "ward_id": "4666",
    "ward_name": "KURU",
    "local_government_id": "399",
    "local_government_name": "MINJIBIR",
    "state_id": "19",
    "state_name": "KANO",
    "location": null
  },
  {
    "id": "91268",
    "name": "JIRGABAWA PRIMARY SCHOOL",
    "registration_area_id": "4666",
    "precise_location": null,
    "abbreviation": "014",
    "units": "014",
    "delimitation": "19/30/05/014",
    "remark": "NEW PU",
    "ward_id": "4666",
    "ward_name": "KURU",
    "local_government_id": "399",
    "local_government_name": "MINJIBIR",
    "state_id": "19",
    "state_name": "KANO",
    "location": {
      "latitude": 12.1759292,
      "longitude": 8.6624094,
      "viewport": {
        "northeast": {
          "lat": 12.17745617989272,
          "lng": 8.663898729892722
        },
        "southwest": {
          "lat": 12.17475652010728,
          "lng": 8.661199070107278
        }
      },
      "formatted_address": "7F4C5MG6+9XF MINJIBIR ABUJA, Minjibir, Nigeria",
      "google_map_url": "https://maps.google.com?q=12.1759292,8.6624094",
      "google_place_id": "ChIJf8vYV0qRrhERKYuSmZdQS-k"
    }
  },
  {
    "id": "91269",
    "name": "ZABAINAWA DANSUDU PRIMARYSCHOOL",
    "registration_area_id": "4666",
    "precise_location": null,
    "abbreviation": "016",
    "units": "016",
    "delimitation": "19/30/05/016",
    "remark": "NEW PU",
    "ward_id": "4666",
    "ward_name": "KURU",
    "local_government_id": "399",
    "local_government_name": "MINJIBIR",
    "state_id": "19",
    "state_name": "KANO",
    "location": {
      "latitude": 11.9437275,
      "longitude": 8.5437657,
      "viewport": {
        "northeast": {
          "lat": 11.94513372989272,
          "lng": 8.545096129892721
        },
        "southwest": {
          "lat": 11.94243407010728,
          "lng": 8.542396470107278
        }
      },
      "formatted_address": "WGVV+FG6, Local Govt Line Bariki, Kano, Nigeria",
      "google_map_url": "https://maps.google.com?q=11.9437275,8.5437657",
      "google_place_id": "ChIJo530_B-BrhERgRHXQSv2QgE"
    }
  },
  {
    "id": "91270",
    "name": "ZABAINAWAR INUSA PRIMARYSCHOOL",
    "registration_area_id": "4666",
    "precise_location": null,
    "abbreviation": "017",
    "units": "017",
    "delimitation": "19/30/05/017",
    "remark": "NEW PU",
    "ward_id": "4666",
    "ward_name": "KURU",
    "local_government_id": "399",
    "local_government_name": "MINJIBIR",
    "state_id": "19",
    "state_name": "KANO",
    "location": {
      "latitude": 12.1540145,
      "longitude": 8.6753822,
      "viewport": {
        "northeast": {
          "lat": 12.15530482989272,
          "lng": 8.67674367989272
        },
        "southwest": {
          "lat": 12.15260517010728,
          "lng": 8.674044020107276
        }
      },
      "formatted_address": "7F4C5M3G+H4X WARD Kano, HAUSA, 702103, Minjibir, Nigeria",
      "google_map_url": "https://maps.google.com?q=12.1540145,8.6753822",
      "google_place_id": "ChIJe7LZebuRrhERFEikm3if9DU"
    }
  },
  {
    "id": "91271",
    "name": "GEZA PRIMARYSCHOOL",
    "registration_area_id": "4666",
    "precise_location": null,
    "abbreviation": "018",
    "units": "018",
    "delimitation": "19/30/05/018",
    "remark": "NEW PU",
    "ward_id": "4666",
    "ward_name": "KURU",
    "local_government_id": "399",
    "local_government_name": "MINJIBIR",
    "state_id": "19",
    "state_name": "KANO",
    "location": {
      "latitude": 12.1751477,
      "longitude": 8.6627017,
      "viewport": {
        "northeast": {
          "lat": 12.17648607989272,
          "lng": 8.66412207989272
        },
        "southwest": {
          "lat": 12.17378642010728,
          "lng": 8.661422420107277
        }
      },
      "formatted_address": "7F4C5MG7+332, 702103, Minjibir, Nigeria",
      "google_map_url": "https://maps.google.com?q=12.1751477,8.6627017",
      "google_place_id": "ChIJ4Sb5vxmRrhERm6PgQ-tAwEA"
    }
  },
  {
    "id": "91272",
    "name": "GOBIRAWA PRIMARY SCHOOL",
    "registration_area_id": "4666",
    "precise_location": null,
    "abbreviation": "019",
    "units": "019",
    "delimitation": "19/30/05/019",
    "remark": "NEW PU",
    "ward_id": "4666",
    "ward_name": "KURU",
    "local_government_id": "399",
    "local_government_name": "MINJIBIR",
    "state_id": "19",
    "state_name": "KANO",
    "location": {
      "latitude": 12.1924477,
      "longitude": 8.6284374,
      "viewport": {
        "northeast": {
          "lat": 12.19384727989272,
          "lng": 8.629778229892723
        },
        "southwest": {
          "lat": 12.19114762010728,
          "lng": 8.62707857010728
        }
      },
      "formatted_address": "Singer market Minjibir, 702103, Kano, Nigeria",
      "google_map_url": "https://maps.google.com?q=12.1924477,8.6284374",
      "google_place_id": "ChIJC5Jln-yPrhERLXTP8GVf_fM"
    }
  }
]