[
  {
    "id": "347713",
    "name": "AWODUYI/LIKOKOJIA/ARON/OMINITU/BALOGUN, ST GERALD PRY SCH AWODUYI",
    "registration_area_id": "17661",
    "precise_location": null,
    "abbreviation": "001",
    "units": "001",
    "delimitation": "28/15/05/001",
    "remark": "EXISTING PU",
    "ward_id": "17661",
    "ward_name": "FAGBO",
    "local_government_id": "596",
    "local_government_name": "ONDO EAST",
    "state_id": "28",
    "state_name": "ONDO",
    "location": null
  },
  {
    "id": "347714",
    "name": "IWORI/BETIKU/AWAYE/ORISANLA/LIPETESI, OPEN SPACE AT IWORI",
    "registration_area_id": "17661",
    "precise_location": null,
    "abbreviation": "002",
    "units": "002",
    "delimitation": "28/15/05/002",
    "remark": "EXISTING PU",
    "ward_id": "17661",
    "ward_name": "FAGBO",
    "local_government_id": "596",
    "local_government_name": "ONDO EAST",
    "state_id": "28",
    "state_name": "ONDO",
    "location": null
  },
  {
    "id": "347715",
    "name": "LIJOKA/AKINSOYE/OJOLASORO, OPEN SPACE AT LIJOKA",
    "registration_area_id": "17661",
    "precise_location": null,
    "abbreviation": "003",
    "units": "003",
    "delimitation": "28/15/05/003",
    "remark": "EXISTING PU",
    "ward_id": "17661",
    "ward_name": "FAGBO",
    "local_government_id": "596",
    "local_government_name": "ONDO EAST",
    "state_id": "28",
    "state_name": "ONDO",
    "location": {
      "latitude": 7.225008600000001,
      "longitude": 4.8734776,
      "viewport": {
        "northeast": {
          "lat": 7.226323529892722,
          "lng": 4.874832829892722
        },
        "southwest": {
          "lat": 7.223623870107278,
          "lng": 4.872133170107278
        }
      },
      "formatted_address": "Ileoluji 1v, Nigeria",
      "google_map_url": "https://maps.google.com?q=7.225008600000001,4.8734776",
      "google_place_id": "ChIJNdXqIOxlOBARVUQXWUhpcTU"
    }
  },
  {
    "id": "347716",
    "name": "OMIFUNFUN/OPINPIN/SOKO, ST WILLIAMS PRY SCH OMINFUNFUN",
    "registration_area_id": "17661",
    "precise_location": null,
    "abbreviation": "004",
    "units": "004",
    "delimitation": "28/15/05/004",
    "remark": "EXISTING PU",
    "ward_id": "17661",
    "ward_name": "FAGBO",
    "local_government_id": "596",
    "local_government_name": "ONDO EAST",
    "state_id": "28",
    "state_name": "ONDO",
    "location": {
      "latitude": 7.1008635,
      "longitude": 4.8531803,
      "viewport": {
        "northeast": {
          "lat": 7.102127779892721,
          "lng": 4.854435629892722
        },
        "southwest": {
          "lat": 7.099428120107278,
          "lng": 4.851735970107279
        }
      },
      "formatted_address": "4V23+978, 351110, Ondo, Nigeria",
      "google_map_url": "https://maps.google.com?q=7.1008635,4.8531803",
      "google_place_id": "ChIJk2XUFfhiOBAR80ly4hyyBXw"
    }
  },
  {
    "id": "347717",
    "name": "FAGBO/DISPENSARY, ST JOHNS PRY SCH FAGBO",
    "registration_area_id": "17661",
    "precise_location": null,
    "abbreviation": "005",
    "units": "005",
    "delimitation": "28/15/05/005",
    "remark": "EXISTING PU",
    "ward_id": "17661",
    "ward_name": "FAGBO",
    "local_government_id": "596",
    "local_government_name": "ONDO EAST",
    "state_id": "28",
    "state_name": "ONDO",
    "location": {
      "latitude": 47.616024,
      "longitude": -52.718157,
      "viewport": {
        "northeast": {
          "lat": 47.61738797989273,
          "lng": -52.71682227010728
        },
        "southwest": {
          "lat": 47.61468832010728,
          "lng": -52.71952192989272
        }
      },
      "formatted_address": "55 Stavanger Dr, St. John's, NL A1A 5E8, Canada",
      "google_map_url": "https://maps.google.com?q=47.616024,-52.718157",
      "google_place_id": "ChIJe8JYlb6mDEsRsAPpWJUiJ6w"
    }
  },
  {
    "id": "347718",
    "name": "KOONI, DISPENSARY FAGBO",
    "registration_area_id": "17661",
    "precise_location": null,
    "abbreviation": "006",
    "units": "006",
    "delimitation": "28/15/05/006",
    "remark": "EXISTING PU",
    "ward_id": "17661",
    "ward_name": "FAGBO",
    "local_government_id": "596",
    "local_government_name": "ONDO EAST",
    "state_id": "28",
    "state_name": "ONDO",
    "location": null
  },
  {
    "id": "347719",
    "name": "OKE-OPA , OPEN SPACE AT OKE-OPA",
    "registration_area_id": "17661",
    "precise_location": null,
    "abbreviation": "007",
    "units": "007",
    "delimitation": "28/15/05/007",
    "remark": "EXISTING PU",
    "ward_id": "17661",
    "ward_name": "FAGBO",
    "local_government_id": "596",
    "local_government_name": "ONDO EAST",
    "state_id": "28",
    "state_name": "ONDO",
    "location": {
      "latitude": 43.5265016,
      "longitude": -79.8667639,
      "viewport": {
        "northeast": {
          "lat": 43.52782272989272,
          "lng": -79.86544787010727
        },
        "southwest": {
          "lat": 43.52512307010728,
          "lng": -79.86814752989272
        }
      },
      "formatted_address": "850 Main St E b7, Milton, ON L9T 0J4, Canada",
      "google_map_url": "https://maps.google.com?q=43.5265016,-79.8667639",
      "google_place_id": "ChIJAeqN9ANvK4gREHQIXhXKWSQ"
    }
  },
  {
    "id": "347720",
    "name": "FAGBO PAADI/ABEERE/FAGOAYADI, ST MICHAELS PRY. SCH. FAGBO-PAADI",
    "registration_area_id": "17661",
    "precise_location": null,
    "abbreviation": "008",
    "units": "008",
    "delimitation": "28/15/05/008",
    "remark": "EXISTING PU",
    "ward_id": "17661",
    "ward_name": "FAGBO",
    "local_government_id": "596",
    "local_government_name": "ONDO EAST",
    "state_id": "28",
    "state_name": "ONDO",
    "location": {
      "latitude": 7.353955,
      "longitude": 5.1080624,
      "viewport": {
        "northeast": {
          "lat": 7.355142979892722,
          "lng": 5.109422929892722
        },
        "southwest": {
          "lat": 7.352443320107279,
          "lng": 5.106723270107278
        }
      },
      "formatted_address": "9435+H6M, Mokin Rd, 340110, Ilara-Mokin, Nigeria",
      "google_map_url": "https://maps.google.com?q=7.353955,5.1080624",
      "google_place_id": "ChIJU46h6bGLRxARh9kUKThYasw"
    }
  },
  {
    "id": "347721",
    "name": "ARAROMI DOWN FAGBO",
    "registration_area_id": "17661",
    "precise_location": null,
    "abbreviation": "009",
    "units": "009",
    "delimitation": "28/15/05/009",
    "remark": "NEW PU",
    "ward_id": "17661",
    "ward_name": "FAGBO",
    "local_government_id": "596",
    "local_government_name": "ONDO EAST",
    "state_id": "28",
    "state_name": "ONDO",
    "location": {
      "latitude": 6.590982899999999,
      "longitude": 4.4953649,
      "viewport": {
        "northeast": {
          "lat": 6.602067,
          "lng": 4.5113723
        },
        "southwest": {
          "lat": 6.5798985,
          "lng": 4.4793575
        }
      },
      "formatted_address": "Araromi, 350102, Araromi Obu, Nigeria",
      "google_map_url": "https://maps.google.com?q=6.590982899999999,4.4953649",
      "google_place_id": "ChIJtyTBsjDaOBAREzjuMKbjdSE"
    }
  },
  {
    "id": "347722",
    "name": "OPEN SPACE AT TOWN HALL, OKE-ALAFIA",
    "registration_area_id": "17661",
    "precise_location": null,
    "abbreviation": "010",
    "units": "010",
    "delimitation": "28/15/05/010",
    "remark": "NEW PU",
    "ward_id": "17661",
    "ward_name": "FAGBO",
    "local_government_id": "596",
    "local_government_name": "ONDO EAST",
    "state_id": "28",
    "state_name": "ONDO",
    "location": {
      "latitude": 7.0692717,
      "longitude": 4.8363504,
      "viewport": {
        "northeast": {
          "lat": 7.070589629892721,
          "lng": 4.837682129892722
        },
        "southwest": {
          "lat": 7.067889970107277,
          "lng": 4.834982470107278
        }
      },
      "formatted_address": "3R9P+PG5, Ore-Ondo Road, 351103, Ondo, Nigeria",
      "google_map_url": "https://maps.google.com?q=7.0692717,4.8363504",
      "google_place_id": "ChIJuyfN33ViOBARcXorMDPzIqc"
    }
  },
  {
    "id": "347723",
    "name": "OPEN SPACE AT GANTRY PAADI",
    "registration_area_id": "17661",
    "precise_location": null,
    "abbreviation": "011",
    "units": "011",
    "delimitation": "28/15/05/011",
    "remark": "NEW PU",
    "ward_id": "17661",
    "ward_name": "FAGBO",
    "local_government_id": "596",
    "local_government_name": "ONDO EAST",
    "state_id": "28",
    "state_name": "ONDO",
    "location": {
      "latitude": 7.0254238,
      "longitude": 4.870502699999999,
      "viewport": {
        "northeast": {
          "lat": 7.026791829892722,
          "lng": 4.871855729892722
        },
        "southwest": {
          "lat": 7.024092170107277,
          "lng": 4.869156070107278
        }
      },
      "formatted_address": "2VGC+566, 351101, Ondo, Nigeria",
      "google_map_url": "https://maps.google.com?q=7.0254238,4.870502699999999",
      "google_place_id": "ChIJO2yanF-IOBAR0DQrYIsIEcE"
    }
  }
]