[
  {
    "id": "36044",
    "name": "ST. VINCENT PRIMARY SCHOOL ANONG",
    "registration_area_id": "1975",
    "precise_location": null,
    "abbreviation": "001",
    "units": "001",
    "delimitation": "09/01/05/001",
    "remark": "EXISTING PU",
    "ward_id": "1975",
    "ward_name": "EKUREKU I",
    "local_government_id": "169",
    "local_government_name": "ABI",
    "state_id": "9",
    "state_name": "CROSS RIVER",
    "location": {
      "latitude": 6.414725499999999,
      "longitude": 7.488946899999998,
      "viewport": {
        "northeast": {
          "lat": 6.416051129892721,
          "lng": 7.490330079892721
        },
        "southwest": {
          "lat": 6.413351470107277,
          "lng": 7.487630420107277
        }
      },
      "formatted_address": "CF7Q+VHV, Achara 400107, Enugu, Nigeria",
      "google_map_url": "https://maps.google.com?q=6.414725499999999,7.488946899999998",
      "google_place_id": "ChIJKToL-gyhRBARXh0lAz0p1WE"
    }
  },
  {
    "id": "36045",
    "name": "LIKPO TOWN HALL",
    "registration_area_id": "1975",
    "precise_location": null,
    "abbreviation": "002",
    "units": "002",
    "delimitation": "09/01/05/002",
    "remark": "EXISTING PU",
    "ward_id": "1975",
    "ward_name": "EKUREKU I",
    "local_government_id": "169",
    "local_government_name": "ABI",
    "state_id": "9",
    "state_name": "CROSS RIVER",
    "location": {
      "latitude": 5.0812193,
      "longitude": 8.349859,
      "viewport": {
        "northeast": {
          "lat": 5.082558679892721,
          "lng": 8.35108957989272
        },
        "southwest": {
          "lat": 5.079859020107278,
          "lng": 8.348389920107277
        }
      },
      "formatted_address": "Local Government Council, 100001, Odukpani, Nigeria",
      "google_map_url": "https://maps.google.com?q=5.0812193,8.349859",
      "google_place_id": "ChIJ9456yUd9XRARHr8N57aVTGY"
    }
  },
  {
    "id": "36046",
    "name": "ANONG LETAFOR PLAY GROUND",
    "registration_area_id": "1975",
    "precise_location": null,
    "abbreviation": "003",
    "units": "003",
    "delimitation": "09/01/05/003",
    "remark": "EXISTING PU",
    "ward_id": "1975",
    "ward_name": "EKUREKU I",
    "local_government_id": "169",
    "local_government_name": "ABI",
    "state_id": "9",
    "state_name": "CROSS RIVER",
    "location": {
      "latitude": 5.0812193,
      "longitude": 8.349859,
      "viewport": {
        "northeast": {
          "lat": 5.082558679892721,
          "lng": 8.35108957989272
        },
        "southwest": {
          "lat": 5.079859020107278,
          "lng": 8.348389920107277
        }
      },
      "formatted_address": "Local Government Council, 100001, Odukpani, Nigeria",
      "google_map_url": "https://maps.google.com?q=5.0812193,8.349859",
      "google_place_id": "ChIJ9456yUd9XRARHr8N57aVTGY"
    }
  },
  {
    "id": "36047",
    "name": "PRIMARY SCHOOL EKUREKU",
    "registration_area_id": "1975",
    "precise_location": null,
    "abbreviation": "004",
    "units": "004",
    "delimitation": "09/01/05/004",
    "remark": "EXISTING PU",
    "ward_id": "1975",
    "ward_name": "EKUREKU I",
    "local_government_id": "169",
    "local_government_name": "ABI",
    "state_id": "9",
    "state_name": "CROSS RIVER",
    "location": {
      "latitude": 5.854241500000001,
      "longitude": 7.972955799999999,
      "viewport": {
        "northeast": {
          "lat": 5.855730579892722,
          "lng": 7.974281829892721
        },
        "southwest": {
          "lat": 5.853030920107278,
          "lng": 7.971582170107277
        }
      },
      "formatted_address": "VX3F+M5W, Bazohure, Abi LGA, Cross River, Igoni-Igoni, Nigeria",
      "google_map_url": "https://maps.google.com?q=5.854241500000001,7.972955799999999",
      "google_place_id": "ChIJm8REp0XFXBARqtXzWKtvCW4"
    }
  },
  {
    "id": "36048",
    "name": "AKPOHE PLAY GROUND",
    "registration_area_id": "1975",
    "precise_location": null,
    "abbreviation": "005",
    "units": "005",
    "delimitation": "09/01/05/005",
    "remark": "EXISTING PU",
    "ward_id": "1975",
    "ward_name": "EKUREKU I",
    "local_government_id": "169",
    "local_government_name": "ABI",
    "state_id": "9",
    "state_name": "CROSS RIVER",
    "location": {
      "latitude": 5.0812193,
      "longitude": 8.349859,
      "viewport": {
        "northeast": {
          "lat": 5.082558679892721,
          "lng": 8.35108957989272
        },
        "southwest": {
          "lat": 5.079859020107278,
          "lng": 8.348389920107277
        }
      },
      "formatted_address": "Local Government Council, 100001, Odukpani, Nigeria",
      "google_map_url": "https://maps.google.com?q=5.0812193,8.349859",
      "google_place_id": "ChIJ9456yUd9XRARHr8N57aVTGY"
    }
  },
  {
    "id": "36049",
    "name": "EZEKE PLAY GROUND",
    "registration_area_id": "1975",
    "precise_location": null,
    "abbreviation": "006",
    "units": "006",
    "delimitation": "09/01/05/006",
    "remark": "EXISTING PU",
    "ward_id": "1975",
    "ward_name": "EKUREKU I",
    "local_government_id": "169",
    "local_government_name": "ABI",
    "state_id": "9",
    "state_name": "CROSS RIVER",
    "location": null
  },
  {
    "id": "36050",
    "name": "AKPANKU PLAY GROUND",
    "registration_area_id": "1975",
    "precise_location": null,
    "abbreviation": "007",
    "units": "007",
    "delimitation": "09/01/05/007",
    "remark": "EXISTING PU",
    "ward_id": "1975",
    "ward_name": "EKUREKU I",
    "local_government_id": "169",
    "local_government_name": "ABI",
    "state_id": "9",
    "state_name": "CROSS RIVER",
    "location": {
      "latitude": 5.0812193,
      "longitude": 8.349859,
      "viewport": {
        "northeast": {
          "lat": 5.082558679892721,
          "lng": 8.35108957989272
        },
        "southwest": {
          "lat": 5.079859020107278,
          "lng": 8.348389920107277
        }
      },
      "formatted_address": "Local Government Council, 100001, Odukpani, Nigeria",
      "google_map_url": "https://maps.google.com?q=5.0812193,8.349859",
      "google_place_id": "ChIJ9456yUd9XRARHr8N57aVTGY"
    }
  },
  {
    "id": "36051",
    "name": "EKUREKU MARKET SQUARE",
    "registration_area_id": "1975",
    "precise_location": null,
    "abbreviation": "008",
    "units": "008",
    "delimitation": "09/01/05/008",
    "remark": "EXISTING PU",
    "ward_id": "1975",
    "ward_name": "EKUREKU I",
    "local_government_id": "169",
    "local_government_name": "ABI",
    "state_id": "9",
    "state_name": "CROSS RIVER",
    "location": {
      "latitude": 5.9844988,
      "longitude": 8.0198824,
      "viewport": {
        "northeast": {
          "lat": 5.985831879892722,
          "lng": 8.02123857989272
        },
        "southwest": {
          "lat": 5.983132220107279,
          "lng": 8.018538920107277
        }
      },
      "formatted_address": "543106, Akarafo, Nigeria",
      "google_map_url": "https://maps.google.com?q=5.9844988,8.0198824",
      "google_place_id": "ChIJYZbocRTHXBARrQXx1AdBy0U"
    }
  },
  {
    "id": "36052",
    "name": "AKAREFOR PLAY GROUND",
    "registration_area_id": "1975",
    "precise_location": null,
    "abbreviation": "009",
    "units": "009",
    "delimitation": "09/01/05/009",
    "remark": "EXISTING PU",
    "ward_id": "1975",
    "ward_name": "EKUREKU I",
    "local_government_id": "169",
    "local_government_name": "ABI",
    "state_id": "9",
    "state_name": "CROSS RIVER",
    "location": {
      "latitude": 5.0812193,
      "longitude": 8.349859,
      "viewport": {
        "northeast": {
          "lat": 5.082558679892721,
          "lng": 8.35108957989272
        },
        "southwest": {
          "lat": 5.079859020107278,
          "lng": 8.348389920107277
        }
      },
      "formatted_address": "Local Government Council, 100001, Odukpani, Nigeria",
      "google_map_url": "https://maps.google.com?q=5.0812193,8.349859",
      "google_place_id": "ChIJ9456yUd9XRARHr8N57aVTGY"
    }
  },
  {
    "id": "36053",
    "name": "ANONG TOWN HALL",
    "registration_area_id": "1975",
    "precise_location": null,
    "abbreviation": "010",
    "units": "010",
    "delimitation": "09/01/05/010",
    "remark": "EXISTING PU",
    "ward_id": "1975",
    "ward_name": "EKUREKU I",
    "local_government_id": "169",
    "local_government_name": "ABI",
    "state_id": "9",
    "state_name": "CROSS RIVER",
    "location": {
      "latitude": 6.631581499999999,
      "longitude": 8.6160674,
      "viewport": {
        "northeast": {
          "lat": 6.8968709,
          "lng": 8.9287242
        },
        "southwest": {
          "lat": 6.2826309,
          "lng": 8.2938023
        }
      },
      "formatted_address": "Yala, Nigeria",
      "google_map_url": "https://maps.google.com?q=6.631581499999999,8.6160674",
      "google_place_id": "ChIJo2lLG36ZWxARdKrtafGpuWY"
    }
  },
  {
    "id": "36054",
    "name": "LIKPO WATERSIDE TOWN HALL",
    "registration_area_id": "1975",
    "precise_location": null,
    "abbreviation": "011",
    "units": "011",
    "delimitation": "09/01/05/011",
    "remark": "EXISTING PU",
    "ward_id": "1975",
    "ward_name": "EKUREKU I",
    "local_government_id": "169",
    "local_government_name": "ABI",
    "state_id": "9",
    "state_name": "CROSS RIVER",
    "location": {
      "latitude": 4.9757165,
      "longitude": 8.3417006,
      "viewport": {
        "northeast": {
          "lat": 4.977015229892721,
          "lng": 8.343239729892721
        },
        "southwest": {
          "lat": 4.974315570107278,
          "lng": 8.340540070107277
        }
      },
      "formatted_address": "X8GR+7MP, Leopad Town 540281, Calabar, Nigeria",
      "google_map_url": "https://maps.google.com?q=4.9757165,8.3417006",
      "google_place_id": "ChIJs64PyICHZxARsKn7FczgBfY"
    }
  },
  {
    "id": "36055",
    "name": "EKUREKU-BE PLAYGROUND",
    "registration_area_id": "1975",
    "precise_location": null,
    "abbreviation": "012",
    "units": "012",
    "delimitation": "09/01/05/012",
    "remark": "NEW PU",
    "ward_id": "1975",
    "ward_name": "EKUREKU I",
    "local_government_id": "169",
    "local_government_name": "ABI",
    "state_id": "9",
    "state_name": "CROSS RIVER",
    "location": {
      "latitude": 5.5805318,
      "longitude": 8.748116699999999,
      "viewport": {
        "northeast": {
          "lat": 5.581881629892723,
          "lng": 8.74946652989272
        },
        "southwest": {
          "lat": 5.579181970107279,
          "lng": 8.746766870107276
        }
      },
      "formatted_address": "HPJX+669, Ikom - Abanliko Rd, Basua, Nigeria",
      "google_map_url": "https://maps.google.com?q=5.5805318,8.748116699999999",
      "google_place_id": "ChIJRaD05NymXRAR07InCVZA_rg"
    }
  },
  {
    "id": "36056",
    "name": "GOVERNMENT SECONDARY SCHOOL EZEKE",
    "registration_area_id": "1975",
    "precise_location": null,
    "abbreviation": "013",
    "units": "013",
    "delimitation": "09/01/05/013",
    "remark": "NEW PU",
    "ward_id": "1975",
    "ward_name": "EKUREKU I",
    "local_government_id": "169",
    "local_government_name": "ABI",
    "state_id": "9",
    "state_name": "CROSS RIVER",
    "location": {
      "latitude": 5.9308596,
      "longitude": 8.0823591,
      "viewport": {
        "northeast": {
          "lat": 5.932167379892721,
          "lng": 8.08363137989272
        },
        "southwest": {
          "lat": 5.929467720107278,
          "lng": 8.080931720107277
        }
      },
      "formatted_address": "W3JJ+8WX, 543103, Imina, Nigeria",
      "google_map_url": "https://maps.google.com?q=5.9308596,8.0823591",
      "google_place_id": "ChIJ_XgZonvBXBARrLdLONwIq_g"
    }
  },
  {
    "id": "36057",
    "name": "PRESBYTERIAN PRIMARY SCHOOL",
    "registration_area_id": "1975",
    "precise_location": null,
    "abbreviation": "014",
    "units": "014",
    "delimitation": "09/01/05/014",
    "remark": "NEW PU",
    "ward_id": "1975",
    "ward_name": "EKUREKU I",
    "local_government_id": "169",
    "local_government_name": "ABI",
    "state_id": "9",
    "state_name": "CROSS RIVER",
    "location": {
      "latitude": 5.807750299999999,
      "longitude": 8.0835963,
      "viewport": {
        "northeast": {
          "lat": 5.809122729892721,
          "lng": 8.084735829892724
        },
        "southwest": {
          "lat": 5.806423070107277,
          "lng": 8.08203617010728
        }
      },
      "formatted_address": "R35M+4C5, 543105, Ugep, Nigeria",
      "google_map_url": "https://maps.google.com?q=5.807750299999999,8.0835963",
      "google_place_id": "ChIJrbJBavvcXBAROys21-x2KIQ"
    }
  },
  {
    "id": "36058",
    "name": "ST. MATTHEW PRIMARY SCHOOL",
    "registration_area_id": "1975",
    "precise_location": null,
    "abbreviation": "015",
    "units": "015",
    "delimitation": "09/01/05/015",
    "remark": "NEW PU",
    "ward_id": "1975",
    "ward_name": "EKUREKU I",
    "local_government_id": "169",
    "local_government_name": "ABI",
    "state_id": "9",
    "state_name": "CROSS RIVER",
    "location": {
      "latitude": 43.4954647,
      "longitude": -80.4939071,
      "viewport": {
        "northeast": {
          "lat": 43.49684652989272,
          "lng": -80.49247057010727
        },
        "southwest": {
          "lat": 43.49414687010727,
          "lng": -80.49517022989272
        }
      },
      "formatted_address": "405 Pastern Trail, Waterloo, ON N2K 3V6, Canada",
      "google_map_url": "https://maps.google.com?q=43.4954647,-80.4939071",
      "google_place_id": "ChIJZz9EHQzzK4gRVPDBhuVWc4k"
    }
  }
]