[
  {
    "id": "106945",
    "name": "OPEN SPACE, IGOLIJO",
    "registration_area_id": "5500",
    "precise_location": null,
    "abbreviation": "001",
    "units": "001",
    "delimitation": "22/08/06/001",
    "remark": "EXISTING PU",
    "ward_id": "5500",
    "ward_name": "UBELE",
    "local_government_id": "476",
    "local_government_name": "IGALAMELA/ODOLU",
    "state_id": "22",
    "state_name": "KOGI",
    "location": {
      "latitude": 7.8023256,
      "longitude": 6.733435,
      "viewport": {
        "northeast": {
          "lat": 7.803590029892721,
          "lng": 6.734788679892723
        },
        "southwest": {
          "lat": 7.800890370107277,
          "lng": 6.732089020107279
        }
      },
      "formatted_address": "Suit 14, Lokongoma Plaza Lokoja, 260101, Lokoja, Nigeria",
      "google_map_url": "https://maps.google.com?q=7.8023256,6.733435",
      "google_place_id": "ChIJ7yjgfhhfTxAR1DAbwm2zN-w"
    }
  },
  {
    "id": "106946",
    "name": "AMAKA/EJUGWU, OPEN SPACE AMAKA",
    "registration_area_id": "5500",
    "precise_location": null,
    "abbreviation": "002",
    "units": "002",
    "delimitation": "22/08/06/002",
    "remark": "EXISTING PU",
    "ward_id": "5500",
    "ward_name": "UBELE",
    "local_government_id": "476",
    "local_government_name": "IGALAMELA/ODOLU",
    "state_id": "22",
    "state_name": "KOGI",
    "location": null
  },
  {
    "id": "106947",
    "name": "OPEN SPACE, UGBUGBU",
    "registration_area_id": "5500",
    "precise_location": null,
    "abbreviation": "003",
    "units": "003",
    "delimitation": "22/08/06/003",
    "remark": "EXISTING PU",
    "ward_id": "5500",
    "ward_name": "UBELE",
    "local_government_id": "476",
    "local_government_name": "IGALAMELA/ODOLU",
    "state_id": "22",
    "state_name": "KOGI",
    "location": {
      "latitude": 7.8023256,
      "longitude": 6.733435,
      "viewport": {
        "northeast": {
          "lat": 7.803590029892721,
          "lng": 6.734788679892723
        },
        "southwest": {
          "lat": 7.800890370107277,
          "lng": 6.732089020107279
        }
      },
      "formatted_address": "Suit 14, Lokongoma Plaza Lokoja, 260101, Lokoja, Nigeria",
      "google_map_url": "https://maps.google.com?q=7.8023256,6.733435",
      "google_place_id": "ChIJ7yjgfhhfTxAR1DAbwm2zN-w"
    }
  },
  {
    "id": "106948",
    "name": "OPEN SPACE, IGEBIJE",
    "registration_area_id": "5500",
    "precise_location": null,
    "abbreviation": "004",
    "units": "004",
    "delimitation": "22/08/06/004",
    "remark": "EXISTING PU",
    "ward_id": "5500",
    "ward_name": "UBELE",
    "local_government_id": "476",
    "local_government_name": "IGALAMELA/ODOLU",
    "state_id": "22",
    "state_name": "KOGI",
    "location": {
      "latitude": 7.8023256,
      "longitude": 6.733435,
      "viewport": {
        "northeast": {
          "lat": 7.803590029892721,
          "lng": 6.734788679892723
        },
        "southwest": {
          "lat": 7.800890370107277,
          "lng": 6.732089020107279
        }
      },
      "formatted_address": "Suit 14, Lokongoma Plaza Lokoja, 260101, Lokoja, Nigeria",
      "google_map_url": "https://maps.google.com?q=7.8023256,6.733435",
      "google_place_id": "ChIJ7yjgfhhfTxAR1DAbwm2zN-w"
    }
  },
  {
    "id": "106949",
    "name": "OPEN SPACE, OCHIBITAKO",
    "registration_area_id": "5500",
    "precise_location": null,
    "abbreviation": "005",
    "units": "005",
    "delimitation": "22/08/06/005",
    "remark": "EXISTING PU",
    "ward_id": "5500",
    "ward_name": "UBELE",
    "local_government_id": "476",
    "local_government_name": "IGALAMELA/ODOLU",
    "state_id": "22",
    "state_name": "KOGI",
    "location": {
      "latitude": 7.3383511,
      "longitude": 7.062395,
      "viewport": {
        "northeast": {
          "lat": 7.33970682989272,
          "lng": 7.063745229892723
        },
        "southwest": {
          "lat": 7.337007170107277,
          "lng": 7.061045570107279
        }
      },
      "formatted_address": "83Q6+8XR, 271106, Ejule, Nigeria",
      "google_map_url": "https://maps.google.com?q=7.3383511,7.062395",
      "google_place_id": "ChIJp1aaxvegRRAR_mdcoX5Jc20"
    }
  },
  {
    "id": "106950",
    "name": "EDIMEGO/IPABACHA, LGEA SCH. EDIMEGO",
    "registration_area_id": "5500",
    "precise_location": null,
    "abbreviation": "006",
    "units": "006",
    "delimitation": "22/08/06/006",
    "remark": "EXISTING PU",
    "ward_id": "5500",
    "ward_name": "UBELE",
    "local_government_id": "476",
    "local_government_name": "IGALAMELA/ODOLU",
    "state_id": "22",
    "state_name": "KOGI",
    "location": {
      "latitude": 6.9826837,
      "longitude": 7.1683728,
      "viewport": {
        "northeast": {
          "lat": 6.984056529892722,
          "lng": 7.169697479892721
        },
        "southwest": {
          "lat": 6.981356870107279,
          "lng": 7.166997820107277
        }
      },
      "formatted_address": "X5M9+38H, Obolo - Idah Rd, 271101, Adoru, Nigeria",
      "google_map_url": "https://maps.google.com?q=6.9826837,7.1683728",
      "google_place_id": "ChIJ97Bwc8T_RBARJ3SSS-XjbDE"
    }
  },
  {
    "id": "106951",
    "name": "IN FRONT OF THE COMMUNITY TOWN HALL AMAKA",
    "registration_area_id": "5500",
    "precise_location": null,
    "abbreviation": "007",
    "units": "007",
    "delimitation": "22/08/06/007",
    "remark": "NEW PU",
    "ward_id": "5500",
    "ward_name": "UBELE",
    "local_government_id": "476",
    "local_government_name": "IGALAMELA/ODOLU",
    "state_id": "22",
    "state_name": "KOGI",
    "location": null
  }
]