[
  {
    "id": "25869",
    "name": "METHODIST PRI SCHO I, SCH. COMP.APA",
    "registration_area_id": "1384",
    "precise_location": null,
    "abbreviation": "001",
    "units": "001",
    "delimitation": "07/01/02/001",
    "remark": "EXISTING PU",
    "ward_id": "1384",
    "ward_name": "APA",
    "local_government_id": "119",
    "local_government_name": "ADO",
    "state_id": "7",
    "state_name": "BENUE",
    "location": {
      "latitude": 7.610968999999999,
      "longitude": 7.933708499999999,
      "viewport": {
        "northeast": {
          "lat": 7.612296429892721,
          "lng": 7.935056629892721
        },
        "southwest": {
          "lat": 7.609596770107277,
          "lng": 7.932356970107278
        }
      },
      "formatted_address": "6FV9JW6M+9F4 Edikwu Icho Edikwu, 1 apa Benue, 972107, Ugboko, Nigeria",
      "google_map_url": "https://maps.google.com?q=7.610968999999999,7.933708499999999",
      "google_place_id": "ChIJZ8dflG-vWhARqnbkxDqcK2k"
    }
  },
  {
    "id": "25870",
    "name": "R.C.M. SCH. APA, SCH. COMP",
    "registration_area_id": "1384",
    "precise_location": null,
    "abbreviation": "002",
    "units": "002",
    "delimitation": "07/01/02/002",
    "remark": "EXISTING PU",
    "ward_id": "1384",
    "ward_name": "APA",
    "local_government_id": "119",
    "local_government_name": "ADO",
    "state_id": "7",
    "state_name": "BENUE",
    "location": {
      "latitude": 6.776839,
      "longitude": 9.2884262,
      "viewport": {
        "northeast": {
          "lat": 6.778559629892722,
          "lng": 9.28997452989272
        },
        "southwest": {
          "lat": 6.775859970107279,
          "lng": 9.287274870107277
        }
      },
      "formatted_address": "6FRFQ7GQ+P97, MBAHURA, 982104, Adikpo, Nigeria",
      "google_map_url": "https://maps.google.com?q=6.776839,9.2884262",
      "google_place_id": "ChIJhWPrdTdlWRAR7bs8N5PgMYU"
    }
  },
  {
    "id": "25871",
    "name": "APA I MARKETSQ. MARKET SQ.",
    "registration_area_id": "1384",
    "precise_location": null,
    "abbreviation": "003",
    "units": "003",
    "delimitation": "07/01/02/003",
    "remark": "EXISTING PU",
    "ward_id": "1384",
    "ward_name": "APA",
    "local_government_id": "119",
    "local_government_name": "ADO",
    "state_id": "7",
    "state_name": "BENUE",
    "location": null
  },
  {
    "id": "25872",
    "name": "APA II, OPPOSITE AUSTIN CHEM.",
    "registration_area_id": "1384",
    "precise_location": null,
    "abbreviation": "004",
    "units": "004",
    "delimitation": "07/01/02/004",
    "remark": "EXISTING PU",
    "ward_id": "1384",
    "ward_name": "APA",
    "local_government_id": "119",
    "local_government_name": "ADO",
    "state_id": "7",
    "state_name": "BENUE",
    "location": {
      "latitude": 7.206276099999999,
      "longitude": 8.1525414,
      "viewport": {
        "northeast": {
          "lat": 7.207652029892722,
          "lng": 8.153935129892721
        },
        "southwest": {
          "lat": 7.204952370107278,
          "lng": 8.151235470107277
        }
      },
      "formatted_address": "6543+G27, Enugu - Makurdi Rd, 972261, Otukpo, Nigeria",
      "google_map_url": "https://maps.google.com?q=7.206276099999999,8.1525414",
      "google_place_id": "ChIJvzp6VxLoWhAR4Unprr6sN2c"
    }
  },
  {
    "id": "25873",
    "name": "APA III, BY A1-UNAZI PLAY GRD",
    "registration_area_id": "1384",
    "precise_location": null,
    "abbreviation": "005",
    "units": "005",
    "delimitation": "07/01/02/005",
    "remark": "EXISTING PU",
    "ward_id": "1384",
    "ward_name": "APA",
    "local_government_id": "119",
    "local_government_name": "ADO",
    "state_id": "7",
    "state_name": "BENUE",
    "location": null
  },
  {
    "id": "25874",
    "name": "APA IV BY A1-KPACHO BORE HOLE",
    "registration_area_id": "1384",
    "precise_location": null,
    "abbreviation": "006",
    "units": "006",
    "delimitation": "07/01/02/006",
    "remark": "EXISTING PU",
    "ward_id": "1384",
    "ward_name": "APA",
    "local_government_id": "119",
    "local_government_name": "ADO",
    "state_id": "7",
    "state_name": "BENUE",
    "location": {
      "latitude": 40.75285480000001,
      "longitude": -73.6994673,
      "viewport": {
        "northeast": {
          "lat": 40.75432342989272,
          "lng": -73.69807377010729
        },
        "southwest": {
          "lat": 40.75162377010728,
          "lng": -73.70077342989272
        }
      },
      "formatted_address": "1270 Union Tpke, New Hyde Park, NY 11040, United States",
      "google_map_url": "https://maps.google.com?q=40.75285480000001,-73.6994673",
      "google_place_id": "ChIJk4QPJYBiwokRBtUzdS1JdK8"
    }
  },
  {
    "id": "25875",
    "name": "APA OGBOZU MARKET SQ.",
    "registration_area_id": "1384",
    "precise_location": null,
    "abbreviation": "007",
    "units": "007",
    "delimitation": "07/01/02/007",
    "remark": "EXISTING PU",
    "ward_id": "1384",
    "ward_name": "APA",
    "local_government_id": "119",
    "local_government_name": "ADO",
    "state_id": "7",
    "state_name": "BENUE",
    "location": {
      "latitude": 7.6698122,
      "longitude": 7.882206699999998,
      "viewport": {
        "northeast": {
          "lat": 7.671093779892722,
          "lng": 7.883971829892722
        },
        "southwest": {
          "lat": 7.668394120107278,
          "lng": 7.881272170107279
        }
      },
      "formatted_address": "MV9J+WVG, Otukpo-Oweto Road, 972107, Bopo, Nigeria",
      "google_map_url": "https://maps.google.com?q=7.6698122,7.882206699999998",
      "google_place_id": "ChIJNw01pIKpWhARcVajDOurYOI"
    }
  },
  {
    "id": "25876",
    "name": "OKPODO, PLAY GRD",
    "registration_area_id": "1384",
    "precise_location": null,
    "abbreviation": "008",
    "units": "008",
    "delimitation": "07/01/02/008",
    "remark": "EXISTING PU",
    "ward_id": "1384",
    "ward_name": "APA",
    "local_government_id": "119",
    "local_government_name": "ADO",
    "state_id": "7",
    "state_name": "BENUE",
    "location": null
  },
  {
    "id": "25877",
    "name": "AZIGBILEDE, PLAY GRD",
    "registration_area_id": "1384",
    "precise_location": null,
    "abbreviation": "009",
    "units": "009",
    "delimitation": "07/01/02/009",
    "remark": "EXISTING PU",
    "ward_id": "1384",
    "ward_name": "APA",
    "local_government_id": "119",
    "local_government_name": "ADO",
    "state_id": "7",
    "state_name": "BENUE",
    "location": null
  },
  {
    "id": "25878",
    "name": "OKPOBILA, MKT SQ.",
    "registration_area_id": "1384",
    "precise_location": null,
    "abbreviation": "010",
    "units": "010",
    "delimitation": "07/01/02/010",
    "remark": "EXISTING PU",
    "ward_id": "1384",
    "ward_name": "APA",
    "local_government_id": "119",
    "local_government_name": "ADO",
    "state_id": "7",
    "state_name": "BENUE",
    "location": {
      "latitude": 6.9072453,
      "longitude": 7.7892191,
      "viewport": {
        "northeast": {
          "lat": 6.908627679892721,
          "lng": 7.790494329892721
        },
        "southwest": {
          "lat": 6.905928020107277,
          "lng": 7.787794670107277
        }
      },
      "formatted_address": "WQ4Q+VMX, 973102, Ichama, Nigeria",
      "google_map_url": "https://maps.google.com?q=6.9072453,7.7892191",
      "google_place_id": "ChIJjar4ZGstWxARr_XCnpUW1Ws"
    }
  },
  {
    "id": "25879",
    "name": "OGEBE, PRI SCH.",
    "registration_area_id": "1384",
    "precise_location": null,
    "abbreviation": "011",
    "units": "011",
    "delimitation": "07/01/02/011",
    "remark": "EXISTING PU",
    "ward_id": "1384",
    "ward_name": "APA",
    "local_government_id": "119",
    "local_government_name": "ADO",
    "state_id": "7",
    "state_name": "BENUE",
    "location": {
      "latitude": 6.689934,
      "longitude": 7.949665,
      "viewport": {
        "northeast": {
          "lat": 6.691283829892722,
          "lng": 7.951014829892722
        },
        "southwest": {
          "lat": 6.688584170107278,
          "lng": 7.948315170107279
        }
      },
      "formatted_address": "6FR9MWQX+XVF ogebe apa ado, Apa-Agila, Nigeria",
      "google_map_url": "https://maps.google.com?q=6.689934,7.949665",
      "google_place_id": "ChIJxwQ0ML83WxAR7Gxr8ETAIks"
    }
  },
  {
    "id": "25880",
    "name": "UMUEZEOKA, PLAY GRD",
    "registration_area_id": "1384",
    "precise_location": null,
    "abbreviation": "012",
    "units": "012",
    "delimitation": "07/01/02/012",
    "remark": "EXISTING PU",
    "ward_id": "1384",
    "ward_name": "APA",
    "local_government_id": "119",
    "local_government_name": "ADO",
    "state_id": "7",
    "state_name": "BENUE",
    "location": null
  },
  {
    "id": "25881",
    "name": "IVEISE, PRI. SCH.",
    "registration_area_id": "1384",
    "precise_location": null,
    "abbreviation": "013",
    "units": "013",
    "delimitation": "07/01/02/013",
    "remark": "EXISTING PU",
    "ward_id": "1384",
    "ward_name": "APA",
    "local_government_id": "119",
    "local_government_name": "ADO",
    "state_id": "7",
    "state_name": "BENUE",
    "location": {
      "latitude": 7.192057699999999,
      "longitude": 8.1509035,
      "viewport": {
        "northeast": {
          "lat": 7.19338012989272,
          "lng": 8.152394429892722
        },
        "southwest": {
          "lat": 7.190680470107276,
          "lng": 8.149694770107278
        }
      },
      "formatted_address": "972261, Otukpo, Nigeria",
      "google_map_url": "https://maps.google.com?q=7.192057699999999,8.1509035",
      "google_place_id": "ChIJhbD3_BHnWhAR3JSrcAcP4i0"
    }
  },
  {
    "id": "25882",
    "name": "NETH. PRIM. SCH. II SCH. COMP, APA",
    "registration_area_id": "1384",
    "precise_location": null,
    "abbreviation": "014",
    "units": "014",
    "delimitation": "07/01/02/014",
    "remark": "EXISTING PU",
    "ward_id": "1384",
    "ward_name": "APA",
    "local_government_id": "119",
    "local_government_name": "ADO",
    "state_id": "7",
    "state_name": "BENUE",
    "location": {
      "latitude": 7.724261599999999,
      "longitude": 8.5402196,
      "viewport": {
        "northeast": {
          "lat": 7.725733179892722,
          "lng": 8.541544579892724
        },
        "southwest": {
          "lat": 7.723033520107278,
          "lng": 8.53884492010728
        }
      },
      "formatted_address": "PGFR+P35, School lane lowlevel, Wurukum, Makurdi, Nigeria",
      "google_map_url": "https://maps.google.com?q=7.724261599999999,8.5402196",
      "google_place_id": "ChIJ7dmay7mBUBAR4f-dC9Ya8-A"
    }
  },
  {
    "id": "25883",
    "name": "APA, OKLOBA PLAY GROUND",
    "registration_area_id": "1384",
    "precise_location": null,
    "abbreviation": "015",
    "units": "015",
    "delimitation": "07/01/02/015",
    "remark": "NEW PU",
    "ward_id": "1384",
    "ward_name": "APA",
    "local_government_id": "119",
    "local_government_name": "ADO",
    "state_id": "7",
    "state_name": "BENUE",
    "location": {
      "latitude": -6.3666638,
      "longitude": 106.9682473,
      "viewport": {
        "northeast": {
          "lat": -6.365373570107279,
          "lng": 106.9695744798927
        },
        "southwest": {
          "lat": -6.368073229892723,
          "lng": 106.9668748201073
        }
      },
      "formatted_address": "Komplek Kota Wisata COMMPARK Blok A No.16, Limus Nunggal, Cileungsi, Bogor Regency, West Java 16820, Indonesia",
      "google_map_url": "https://maps.google.com?q=-6.3666638,106.9682473",
      "google_place_id": "ChIJtaA_5Y-TaS4RV5NJupm7r7w"
    }
  },
  {
    "id": "25884",
    "name": "ALOKWO PLAY GROUND",
    "registration_area_id": "1384",
    "precise_location": null,
    "abbreviation": "016",
    "units": "016",
    "delimitation": "07/01/02/016",
    "remark": "NEW PU",
    "ward_id": "1384",
    "ward_name": "APA",
    "local_government_id": "119",
    "local_government_name": "ADO",
    "state_id": "7",
    "state_name": "BENUE",
    "location": null
  },
  {
    "id": "25885",
    "name": "ONYODUMA PLAY GROUND",
    "registration_area_id": "1384",
    "precise_location": null,
    "abbreviation": "017",
    "units": "017",
    "delimitation": "07/01/02/017",
    "remark": "NEW PU",
    "ward_id": "1384",
    "ward_name": "APA",
    "local_government_id": "119",
    "local_government_name": "ADO",
    "state_id": "7",
    "state_name": "BENUE",
    "location": {
      "latitude": -2.2251512,
      "longitude": 113.8850655,
      "viewport": {
        "northeast": {
          "lat": -2.223684670107278,
          "lng": 113.8863567798927
        },
        "southwest": {
          "lat": -2.226384329892722,
          "lng": 113.8836571201073
        }
      },
      "formatted_address": "Jl. Yos Sudarso No.789, Menteng, Kec. Jekan Raya, Kota Palangka Raya, Kalimantan Tengah 73112, Indonesia",
      "google_map_url": "https://maps.google.com?q=-2.2251512,113.8850655",
      "google_place_id": "ChIJ_7oMAROz_C0RCS4b6eox1sg"
    }
  },
  {
    "id": "25886",
    "name": "VICTORY NUR./PRI. SCH. AL-KPACHO",
    "registration_area_id": "1384",
    "precise_location": null,
    "abbreviation": "018",
    "units": "018",
    "delimitation": "07/01/02/018",
    "remark": "NEW PU",
    "ward_id": "1384",
    "ward_name": "APA",
    "local_government_id": "119",
    "local_government_name": "ADO",
    "state_id": "7",
    "state_name": "BENUE",
    "location": null
  },
  {
    "id": "25887",
    "name": "UNITY SQUARE, NEW JERUSALEM",
    "registration_area_id": "1384",
    "precise_location": null,
    "abbreviation": "019",
    "units": "019",
    "delimitation": "07/01/02/019",
    "remark": "NEW PU",
    "ward_id": "1384",
    "ward_name": "APA",
    "local_government_id": "119",
    "local_government_name": "ADO",
    "state_id": "7",
    "state_name": "BENUE",
    "location": {
      "latitude": 40.135903,
      "longitude": -75.06904879999999,
      "viewport": {
        "northeast": {
          "lat": 40.13732317989273,
          "lng": -75.06740307010729
        },
        "southwest": {
          "lat": 40.13462352010728,
          "lng": -75.07010272989272
        }
      },
      "formatted_address": "1100 Cathedral Rd, Bryn Athyn, PA 19009, United States",
      "google_map_url": "https://maps.google.com?q=40.135903,-75.06904879999999",
      "google_place_id": "ChIJp4Ixmd6xxokRHxTog2fDWvk"
    }
  },
  {
    "id": "25888",
    "name": "APA, COMM SEC,SCH APA",
    "registration_area_id": "1384",
    "precise_location": null,
    "abbreviation": "020",
    "units": "020",
    "delimitation": "07/01/02/020",
    "remark": "NEW PU",
    "ward_id": "1384",
    "ward_name": "APA",
    "local_government_id": "119",
    "local_government_name": "ADO",
    "state_id": "7",
    "state_name": "BENUE",
    "location": {
      "latitude": 7.8662775,
      "longitude": 8.084900000000001,
      "viewport": {
        "northeast": {
          "lat": 7.869224500000001,
          "lng": 8.086392379892722
        },
        "southwest": {
          "lat": 7.865204099999999,
          "lng": 8.083692720107278
        }
      },
      "formatted_address": "6FVCV38P+G25, Agbaduma, 972108, Akoro, Nigeria",
      "google_map_url": "https://maps.google.com?q=7.8662775,8.084900000000001",
      "google_place_id": "ChIJk7mzhc4NUBARh5kKK80SwDM"
    }
  }
]