[
  {
    "id": "68593",
    "name": "KOFAR FADA/ BASIRKA FADA",
    "registration_area_id": "3763",
    "precise_location": null,
    "abbreviation": "001",
    "units": "001",
    "delimitation": "17/11/01/001",
    "remark": "EXISTING PU",
    "ward_id": "3763",
    "ward_name": "BASIRKA",
    "local_government_id": "330",
    "local_government_name": "GWARAM",
    "state_id": "17",
    "state_name": "JIGAWA",
    "location": {
      "latitude": 12.5652068,
      "longitude": 9.880963999999999,
      "viewport": {
        "northeast": {
          "lat": 12.56654072989272,
          "lng": 9.88232302989272
        },
        "southwest": {
          "lat": 12.56384107010728,
          "lng": 9.879623370107277
        }
      },
      "formatted_address": "730101, Dunari, Nigeria",
      "google_map_url": "https://maps.google.com?q=12.5652068,9.880963999999999",
      "google_place_id": "ChIJM0pWmT0BqRERA48R9LSEmSI"
    }
  },
  {
    "id": "68594",
    "name": "WUDILAWA/WUDILAWA",
    "registration_area_id": "3763",
    "precise_location": null,
    "abbreviation": "002",
    "units": "002",
    "delimitation": "17/11/01/002",
    "remark": "EXISTING PU",
    "ward_id": "3763",
    "ward_name": "BASIRKA",
    "local_government_id": "330",
    "local_government_name": "GWARAM",
    "state_id": "17",
    "state_name": "JIGAWA",
    "location": null
  },
  {
    "id": "68595",
    "name": "BASIRKA PRI. SCH/SABALARI  I",
    "registration_area_id": "3763",
    "precise_location": null,
    "abbreviation": "003",
    "units": "003",
    "delimitation": "17/11/01/003",
    "remark": "EXISTING PU",
    "ward_id": "3763",
    "ward_name": "BASIRKA",
    "local_government_id": "330",
    "local_government_name": "GWARAM",
    "state_id": "17",
    "state_name": "JIGAWA",
    "location": {
      "latitude": 11.1547552,
      "longitude": 10.2712297,
      "viewport": {
        "northeast": {
          "lat": 11.2104995,
          "lng": 10.3667201
        },
        "southwest": {
          "lat": 11.0764769,
          "lng": 10.1551159
        }
      },
      "formatted_address": "Basirka, 721102, Nigeria",
      "google_map_url": "https://maps.google.com?q=11.1547552,10.2712297",
      "google_place_id": "ChIJ5aRJpMqKqhERN_ohKTOe3cI"
    }
  },
  {
    "id": "68596",
    "name": "BASIRKA PRI. SCH/SABALARI  II",
    "registration_area_id": "3763",
    "precise_location": null,
    "abbreviation": "004",
    "units": "004",
    "delimitation": "17/11/01/004",
    "remark": "EXISTING PU",
    "ward_id": "3763",
    "ward_name": "BASIRKA",
    "local_government_id": "330",
    "local_government_name": "GWARAM",
    "state_id": "17",
    "state_name": "JIGAWA",
    "location": {
      "latitude": 11.3332,
      "longitude": 9.859673299999999,
      "viewport": {
        "northeast": {
          "lat": 11.33452242989272,
          "lng": 9.86098802989272
        },
        "southwest": {
          "lat": 11.33182277010728,
          "lng": 9.858288370107276
        }
      },
      "formatted_address": "8VM5+7WV, Sabuwar, Gwaram, Nigeria",
      "google_map_url": "https://maps.google.com?q=11.3332,9.859673299999999",
      "google_place_id": "ChIJMcreVLytqxERSp46B1yBhbA"
    }
  },
  {
    "id": "68597",
    "name": "KOFAR FADA/KUNDUM",
    "registration_area_id": "3763",
    "precise_location": null,
    "abbreviation": "005",
    "units": "005",
    "delimitation": "17/11/01/005",
    "remark": "EXISTING PU",
    "ward_id": "3763",
    "ward_name": "BASIRKA",
    "local_government_id": "330",
    "local_government_name": "GWARAM",
    "state_id": "17",
    "state_name": "JIGAWA",
    "location": {
      "latitude": 11.5804735,
      "longitude": 9.3388701,
      "viewport": {
        "northeast": {
          "lat": 11.5829801,
          "lng": 9.3418799
        },
        "southwest": {
          "lat": 11.5782579,
          "lng": 9.333404
        }
      },
      "formatted_address": "720101, Malamawa Kofar Fada, Nigeria",
      "google_map_url": "https://maps.google.com?q=11.5804735,9.3388701",
      "google_place_id": "ChIJYZEepenyqxERje7lLuhuTmU"
    }
  },
  {
    "id": "68598",
    "name": "KOFAR FADA/DIGIJIN GABAS",
    "registration_area_id": "3763",
    "precise_location": null,
    "abbreviation": "006",
    "units": "006",
    "delimitation": "17/11/01/006",
    "remark": "EXISTING PU",
    "ward_id": "3763",
    "ward_name": "BASIRKA",
    "local_government_id": "330",
    "local_government_name": "GWARAM",
    "state_id": "17",
    "state_name": "JIGAWA",
    "location": null
  },
  {
    "id": "68599",
    "name": "KOFAR FADA/DIGIJIN NASARAWA",
    "registration_area_id": "3763",
    "precise_location": null,
    "abbreviation": "007",
    "units": "007",
    "delimitation": "17/11/01/007",
    "remark": "EXISTING PU",
    "ward_id": "3763",
    "ward_name": "BASIRKA",
    "local_government_id": "330",
    "local_government_name": "GWARAM",
    "state_id": "17",
    "state_name": "JIGAWA",
    "location": null
  },
  {
    "id": "68600",
    "name": "KOFAR FADA/MALALLUWA",
    "registration_area_id": "3763",
    "precise_location": null,
    "abbreviation": "008",
    "units": "008",
    "delimitation": "17/11/01/008",
    "remark": "EXISTING PU",
    "ward_id": "3763",
    "ward_name": "BASIRKA",
    "local_government_id": "330",
    "local_government_name": "GWARAM",
    "state_id": "17",
    "state_name": "JIGAWA",
    "location": {
      "latitude": 11.5804735,
      "longitude": 9.3388701,
      "viewport": {
        "northeast": {
          "lat": 11.5829801,
          "lng": 9.3418799
        },
        "southwest": {
          "lat": 11.5782579,
          "lng": 9.333404
        }
      },
      "formatted_address": "720101, Malamawa Kofar Fada, Nigeria",
      "google_map_url": "https://maps.google.com?q=11.5804735,9.3388701",
      "google_place_id": "ChIJYZEepenyqxERje7lLuhuTmU"
    }
  },
  {
    "id": "68601",
    "name": "KOFAR FADA/MALALLUWA",
    "registration_area_id": "3763",
    "precise_location": null,
    "abbreviation": "009",
    "units": "009",
    "delimitation": "17/11/01/009",
    "remark": "EXISTING PU",
    "ward_id": "3763",
    "ward_name": "BASIRKA",
    "local_government_id": "330",
    "local_government_name": "GWARAM",
    "state_id": "17",
    "state_name": "JIGAWA",
    "location": {
      "latitude": 11.5804735,
      "longitude": 9.3388701,
      "viewport": {
        "northeast": {
          "lat": 11.5829801,
          "lng": 9.3418799
        },
        "southwest": {
          "lat": 11.5782579,
          "lng": 9.333404
        }
      },
      "formatted_address": "720101, Malamawa Kofar Fada, Nigeria",
      "google_map_url": "https://maps.google.com?q=11.5804735,9.3388701",
      "google_place_id": "ChIJYZEepenyqxERje7lLuhuTmU"
    }
  },
  {
    "id": "68602",
    "name": "KOFAR FADA/CHEDIYA FADA",
    "registration_area_id": "3763",
    "precise_location": null,
    "abbreviation": "010",
    "units": "010",
    "delimitation": "17/11/01/010",
    "remark": "EXISTING PU",
    "ward_id": "3763",
    "ward_name": "BASIRKA",
    "local_government_id": "330",
    "local_government_name": "GWARAM",
    "state_id": "17",
    "state_name": "JIGAWA",
    "location": {
      "latitude": 11.5804735,
      "longitude": 9.3388701,
      "viewport": {
        "northeast": {
          "lat": 11.5829801,
          "lng": 9.3418799
        },
        "southwest": {
          "lat": 11.5782579,
          "lng": 9.333404
        }
      },
      "formatted_address": "720101, Malamawa Kofar Fada, Nigeria",
      "google_map_url": "https://maps.google.com?q=11.5804735,9.3388701",
      "google_place_id": "ChIJYZEepenyqxERje7lLuhuTmU"
    }
  },
  {
    "id": "68603",
    "name": "KOFAR FADA/JARKASA",
    "registration_area_id": "3763",
    "precise_location": null,
    "abbreviation": "011",
    "units": "011",
    "delimitation": "17/11/01/011",
    "remark": "EXISTING PU",
    "ward_id": "3763",
    "ward_name": "BASIRKA",
    "local_government_id": "330",
    "local_government_name": "GWARAM",
    "state_id": "17",
    "state_name": "JIGAWA",
    "location": {
      "latitude": 12.257141,
      "longitude": 9.4004694,
      "viewport": {
        "northeast": {
          "lat": 12.26254415,
          "lng": 9.402685200000002
        },
        "southwest": {
          "lat": 12.25533995,
          "lng": 9.3997308
        }
      },
      "formatted_address": "7C42+V55, Unnamed Road, 733103, Kwalan, Nigeria",
      "google_map_url": "https://maps.google.com?q=12.257141,9.4004694",
      "google_place_id": "ChIJA-cd4NVHqRERpFK1cwk2yKU"
    }
  },
  {
    "id": "68604",
    "name": "KOFAR FADA/MATSANGU",
    "registration_area_id": "3763",
    "precise_location": null,
    "abbreviation": "012",
    "units": "012",
    "delimitation": "17/11/01/012",
    "remark": "EXISTING PU",
    "ward_id": "3763",
    "ward_name": "BASIRKA",
    "local_government_id": "330",
    "local_government_name": "GWARAM",
    "state_id": "17",
    "state_name": "JIGAWA",
    "location": {
      "latitude": 11.5804735,
      "longitude": 9.3388701,
      "viewport": {
        "northeast": {
          "lat": 11.5829801,
          "lng": 9.3418799
        },
        "southwest": {
          "lat": 11.5782579,
          "lng": 9.333404
        }
      },
      "formatted_address": "720101, Malamawa Kofar Fada, Nigeria",
      "google_map_url": "https://maps.google.com?q=11.5804735,9.3388701",
      "google_place_id": "ChIJYZEepenyqxERje7lLuhuTmU"
    }
  },
  {
    "id": "68605",
    "name": "KOFAR FADA/ MAJALA",
    "registration_area_id": "3763",
    "precise_location": null,
    "abbreviation": "013",
    "units": "013",
    "delimitation": "17/11/01/013",
    "remark": "EXISTING PU",
    "ward_id": "3763",
    "ward_name": "BASIRKA",
    "local_government_id": "330",
    "local_government_name": "GWARAM",
    "state_id": "17",
    "state_name": "JIGAWA",
    "location": {
      "latitude": 11.5804735,
      "longitude": 9.3388701,
      "viewport": {
        "northeast": {
          "lat": 11.5829801,
          "lng": 9.3418799
        },
        "southwest": {
          "lat": 11.5782579,
          "lng": 9.333404
        }
      },
      "formatted_address": "720101, Malamawa Kofar Fada, Nigeria",
      "google_map_url": "https://maps.google.com?q=11.5804735,9.3388701",
      "google_place_id": "ChIJYZEepenyqxERje7lLuhuTmU"
    }
  },
  {
    "id": "68606",
    "name": "KOFAR FADA/ DAKWARO REDO",
    "registration_area_id": "3763",
    "precise_location": null,
    "abbreviation": "014",
    "units": "014",
    "delimitation": "17/11/01/014",
    "remark": "EXISTING PU",
    "ward_id": "3763",
    "ward_name": "BASIRKA",
    "local_government_id": "330",
    "local_government_name": "GWARAM",
    "state_id": "17",
    "state_name": "JIGAWA",
    "location": {
      "latitude": 12.5652068,
      "longitude": 9.880963999999999,
      "viewport": {
        "northeast": {
          "lat": 12.56654072989272,
          "lng": 9.88232302989272
        },
        "southwest": {
          "lat": 12.56384107010728,
          "lng": 9.879623370107277
        }
      },
      "formatted_address": "730101, Dunari, Nigeria",
      "google_map_url": "https://maps.google.com?q=12.5652068,9.880963999999999",
      "google_place_id": "ChIJM0pWmT0BqRERA48R9LSEmSI"
    }
  },
  {
    "id": "68607",
    "name": "KOFAR FADA/ RUWAN KARI",
    "registration_area_id": "3763",
    "precise_location": null,
    "abbreviation": "015",
    "units": "015",
    "delimitation": "17/11/01/015",
    "remark": "EXISTING PU",
    "ward_id": "3763",
    "ward_name": "BASIRKA",
    "local_government_id": "330",
    "local_government_name": "GWARAM",
    "state_id": "17",
    "state_name": "JIGAWA",
    "location": {
      "latitude": 12.0253226,
      "longitude": 8.4924786,
      "viewport": {
        "northeast": {
          "lat": 12.0328731,
          "lng": 8.5094067
        },
        "southwest": {
          "lat": 12.0127421,
          "lng": 8.4787768
        }
      },
      "formatted_address": "Kofar Ruwa, 700252, Kano, Nigeria",
      "google_map_url": "https://maps.google.com?q=12.0253226,8.4924786",
      "google_place_id": "ChIJhTWK86-ArhERkX9IZ3yiwk4"
    }
  },
  {
    "id": "68608",
    "name": "KOFAR FADA/KIJIN",
    "registration_area_id": "3763",
    "precise_location": null,
    "abbreviation": "016",
    "units": "016",
    "delimitation": "17/11/01/016",
    "remark": "EXISTING PU",
    "ward_id": "3763",
    "ward_name": "BASIRKA",
    "local_government_id": "330",
    "local_government_name": "GWARAM",
    "state_id": "17",
    "state_name": "JIGAWA",
    "location": null
  },
  {
    "id": "68609",
    "name": "KOFAR FADA/TANGE",
    "registration_area_id": "3763",
    "precise_location": null,
    "abbreviation": "017",
    "units": "017",
    "delimitation": "17/11/01/017",
    "remark": "EXISTING PU",
    "ward_id": "3763",
    "ward_name": "BASIRKA",
    "local_government_id": "330",
    "local_government_name": "GWARAM",
    "state_id": "17",
    "state_name": "JIGAWA",
    "location": {
      "latitude": 11.5804735,
      "longitude": 9.3388701,
      "viewport": {
        "northeast": {
          "lat": 11.5829801,
          "lng": 9.3418799
        },
        "southwest": {
          "lat": 11.5782579,
          "lng": 9.333404
        }
      },
      "formatted_address": "720101, Malamawa Kofar Fada, Nigeria",
      "google_map_url": "https://maps.google.com?q=11.5804735,9.3388701",
      "google_place_id": "ChIJYZEepenyqxERje7lLuhuTmU"
    }
  },
  {
    "id": "68610",
    "name": "KOFAR FADA/ZUMBURIN",
    "registration_area_id": "3763",
    "precise_location": null,
    "abbreviation": "018",
    "units": "018",
    "delimitation": "17/11/01/018",
    "remark": "EXISTING PU",
    "ward_id": "3763",
    "ward_name": "BASIRKA",
    "local_government_id": "330",
    "local_government_name": "GWARAM",
    "state_id": "17",
    "state_name": "JIGAWA",
    "location": {
      "latitude": 12.5652068,
      "longitude": 9.880963999999999,
      "viewport": {
        "northeast": {
          "lat": 12.56654072989272,
          "lng": 9.88232302989272
        },
        "southwest": {
          "lat": 12.56384107010728,
          "lng": 9.879623370107277
        }
      },
      "formatted_address": "730101, Dunari, Nigeria",
      "google_map_url": "https://maps.google.com?q=12.5652068,9.880963999999999",
      "google_place_id": "ChIJM0pWmT0BqRERA48R9LSEmSI"
    }
  },
  {
    "id": "68611",
    "name": "KOFAR FADA/TUDUN WADA",
    "registration_area_id": "3763",
    "precise_location": null,
    "abbreviation": "019",
    "units": "019",
    "delimitation": "17/11/01/019",
    "remark": "EXISTING PU",
    "ward_id": "3763",
    "ward_name": "BASIRKA",
    "local_government_id": "330",
    "local_government_name": "GWARAM",
    "state_id": "17",
    "state_name": "JIGAWA",
    "location": {
      "latitude": 11.2254,
      "longitude": 9.6508,
      "viewport": {
        "northeast": {
          "lat": 11.22673142989272,
          "lng": 9.652134179892721
        },
        "southwest": {
          "lat": 11.22403177010728,
          "lng": 9.649434520107278
        }
      },
      "formatted_address": "6MG2+583, 742103, Shamaki, Nigeria",
      "google_map_url": "https://maps.google.com?q=11.2254,9.6508",
      "google_place_id": "ChIJ-TpmBySnqxERl3sXF0temP8"
    }
  },
  {
    "id": "68612",
    "name": "KOFAR FADA/REDO",
    "registration_area_id": "3763",
    "precise_location": null,
    "abbreviation": "020",
    "units": "020",
    "delimitation": "17/11/01/020",
    "remark": "EXISTING PU",
    "ward_id": "3763",
    "ward_name": "BASIRKA",
    "local_government_id": "330",
    "local_government_name": "GWARAM",
    "state_id": "17",
    "state_name": "JIGAWA",
    "location": {
      "latitude": 11.5804735,
      "longitude": 9.3388701,
      "viewport": {
        "northeast": {
          "lat": 11.5829801,
          "lng": 9.3418799
        },
        "southwest": {
          "lat": 11.5782579,
          "lng": 9.333404
        }
      },
      "formatted_address": "720101, Malamawa Kofar Fada, Nigeria",
      "google_map_url": "https://maps.google.com?q=11.5804735,9.3388701",
      "google_place_id": "ChIJYZEepenyqxERje7lLuhuTmU"
    }
  },
  {
    "id": "68613",
    "name": "KOFAR FADA/SABON GARI MATSANGU",
    "registration_area_id": "3763",
    "precise_location": null,
    "abbreviation": "021",
    "units": "021",
    "delimitation": "17/11/01/021",
    "remark": "EXISTING PU",
    "ward_id": "3763",
    "ward_name": "BASIRKA",
    "local_government_id": "330",
    "local_government_name": "GWARAM",
    "state_id": "17",
    "state_name": "JIGAWA",
    "location": {
      "latitude": 11.2777838,
      "longitude": 9.8836895,
      "viewport": {
        "northeast": {
          "lat": 11.27912932989272,
          "lng": 9.88504052989272
        },
        "southwest": {
          "lat": 11.27642967010728,
          "lng": 9.882340870107276
        }
      },
      "formatted_address": "1 maiduguri road gwaram sabowa gwaram sabowa, Gwaram, Nigeria",
      "google_map_url": "https://maps.google.com?q=11.2777838,9.8836895",
      "google_place_id": "ChIJs79Ai4KtqxERFVnPZWFGWEM"
    }
  },
  {
    "id": "68614",
    "name": "MAHAUTA KOFAR FADA",
    "registration_area_id": "3763",
    "precise_location": null,
    "abbreviation": "022",
    "units": "022",
    "delimitation": "17/11/01/022",
    "remark": "NEW PU",
    "ward_id": "3763",
    "ward_name": "BASIRKA",
    "local_government_id": "330",
    "local_government_name": "GWARAM",
    "state_id": "17",
    "state_name": "JIGAWA",
    "location": {
      "latitude": 11.5804735,
      "longitude": 9.3388701,
      "viewport": {
        "northeast": {
          "lat": 11.5829801,
          "lng": 9.3418799
        },
        "southwest": {
          "lat": 11.5782579,
          "lng": 9.333404
        }
      },
      "formatted_address": "720101, Malamawa Kofar Fada, Nigeria",
      "google_map_url": "https://maps.google.com?q=11.5804735,9.3388701",
      "google_place_id": "ChIJYZEepenyqxERje7lLuhuTmU"
    }
  },
  {
    "id": "68615",
    "name": "WUDILAWA GANGARE II",
    "registration_area_id": "3763",
    "precise_location": null,
    "abbreviation": "023",
    "units": "023",
    "delimitation": "17/11/01/023",
    "remark": "NEW PU",
    "ward_id": "3763",
    "ward_name": "BASIRKA",
    "local_government_id": "330",
    "local_government_name": "GWARAM",
    "state_id": "17",
    "state_name": "JIGAWA",
    "location": {
      "latitude": 11.2777838,
      "longitude": 9.8836895,
      "viewport": {
        "northeast": {
          "lat": 11.2841406,
          "lng": 9.8934195
        },
        "southwest": {
          "lat": 11.2718975,
          "lng": 9.8762513
        }
      },
      "formatted_address": "721102, Gwaram, Nigeria",
      "google_map_url": "https://maps.google.com?q=11.2777838,9.8836895",
      "google_place_id": "ChIJP22VrqSsqxERmZf56VY6LnU"
    }
  },
  {
    "id": "68616",
    "name": "BASIRKA PRI. SCHOOL II",
    "registration_area_id": "3763",
    "precise_location": null,
    "abbreviation": "024",
    "units": "024",
    "delimitation": "17/11/01/024",
    "remark": "NEW PU",
    "ward_id": "3763",
    "ward_name": "BASIRKA",
    "local_government_id": "330",
    "local_government_name": "GWARAM",
    "state_id": "17",
    "state_name": "JIGAWA",
    "location": {
      "latitude": 11.0594079,
      "longitude": 10.006602,
      "viewport": {
        "northeast": {
          "lat": 11.06078682989272,
          "lng": 10.00796412989272
        },
        "southwest": {
          "lat": 11.05808717010728,
          "lng": 10.00526447010728
        }
      },
      "formatted_address": "Gwaram-Sagi-Jalingo Road, 721102, Nigeria",
      "google_map_url": "https://maps.google.com?q=11.0594079,10.006602",
      "google_place_id": "ChIJvymIvZP7qhERivfQ7Vrpguk"
    }
  },
  {
    "id": "68617",
    "name": "BASIRKA CHAKWAMA PRI. SCH.",
    "registration_area_id": "3763",
    "precise_location": null,
    "abbreviation": "025",
    "units": "025",
    "delimitation": "17/11/01/025",
    "remark": "NEW PU",
    "ward_id": "3763",
    "ward_name": "BASIRKA",
    "local_government_id": "330",
    "local_government_name": "GWARAM",
    "state_id": "17",
    "state_name": "JIGAWA",
    "location": {
      "latitude": 11.3236267,
      "longitude": 9.8517718,
      "viewport": {
        "northeast": {
          "lat": 11.32492127989272,
          "lng": 9.853139579892721
        },
        "southwest": {
          "lat": 11.32222162010728,
          "lng": 9.850439920107277
        }
      },
      "formatted_address": "8VF2+CPR, Sabuwar, Gwaram, Nigeria",
      "google_map_url": "https://maps.google.com?q=11.3236267,9.8517718",
      "google_place_id": "ChIJmdMXXCytqxERSwvBAQGglwM"
    }
  },
  {
    "id": "68618",
    "name": "BASIRKA PRI. SCH. III",
    "registration_area_id": "3763",
    "precise_location": null,
    "abbreviation": "026",
    "units": "026",
    "delimitation": "17/11/01/026",
    "remark": "NEW PU",
    "ward_id": "3763",
    "ward_name": "BASIRKA",
    "local_government_id": "330",
    "local_government_name": "GWARAM",
    "state_id": "17",
    "state_name": "JIGAWA",
    "location": {
      "latitude": 11.1503174,
      "longitude": 10.3189185,
      "viewport": {
        "northeast": {
          "lat": 11.15181577989272,
          "lng": 10.32040077989272
        },
        "southwest": {
          "lat": 11.14911612010728,
          "lng": 10.31770112010728
        }
      },
      "formatted_address": "5829+4HF, 721102, Basirka, Nigeria",
      "google_map_url": "https://maps.google.com?q=11.1503174,10.3189185",
      "google_place_id": "ChIJ_____26KqhERjasXst7Lbf8"
    }
  }
]