[
  {
    "id": "344227",
    "name": "L.G. SCHOOL ODO  I",
    "registration_area_id": "17477",
    "precise_location": null,
    "abbreviation": "001",
    "units": "001",
    "delimitation": "27/19/04/001",
    "remark": "EXISTING PU",
    "ward_id": "17477",
    "ward_name": "ODOFIN/IMAGBO/PETEKUN/DAWARA",
    "local_government_id": "580",
    "local_government_name": "REMO NORTH",
    "state_id": "27",
    "state_name": "OGUN",
    "location": {
      "latitude": 7.001855,
      "longitude": 3.681645,
      "viewport": {
        "northeast": {
          "lat": 7.003221129892721,
          "lng": 3.683042629892722
        },
        "southwest": {
          "lat": 7.000521470107278,
          "lng": 3.680342970107279
        }
      },
      "formatted_address": "6FV52M2J+PMR, 110116, Ishara, Nigeria",
      "google_map_url": "https://maps.google.com?q=7.001855,3.681645",
      "google_place_id": "ChIJ94Q0FGXXOxAR-CChTNvxURc"
    }
  },
  {
    "id": "344228",
    "name": "L.G. SCHOOL ODO  II",
    "registration_area_id": "17477",
    "precise_location": null,
    "abbreviation": "002",
    "units": "002",
    "delimitation": "27/19/04/002",
    "remark": "EXISTING PU",
    "ward_id": "17477",
    "ward_name": "ODOFIN/IMAGBO/PETEKUN/DAWARA",
    "local_government_id": "580",
    "local_government_name": "REMO NORTH",
    "state_id": "27",
    "state_name": "OGUN",
    "location": {
      "latitude": 7.001855,
      "longitude": 3.681645,
      "viewport": {
        "northeast": {
          "lat": 7.003221129892721,
          "lng": 3.683042629892722
        },
        "southwest": {
          "lat": 7.000521470107278,
          "lng": 3.680342970107279
        }
      },
      "formatted_address": "6FV52M2J+PMR, 110116, Ishara, Nigeria",
      "google_map_url": "https://maps.google.com?q=7.001855,3.681645",
      "google_place_id": "ChIJ94Q0FGXXOxAR-CChTNvxURc"
    }
  },
  {
    "id": "344229",
    "name": "L.G. SCHOOL JOWOJE",
    "registration_area_id": "17477",
    "precise_location": null,
    "abbreviation": "003",
    "units": "003",
    "delimitation": "27/19/04/003",
    "remark": "EXISTING PU",
    "ward_id": "17477",
    "ward_name": "ODOFIN/IMAGBO/PETEKUN/DAWARA",
    "local_government_id": "580",
    "local_government_name": "REMO NORTH",
    "state_id": "27",
    "state_name": "OGUN",
    "location": {
      "latitude": 7.001855,
      "longitude": 3.681645,
      "viewport": {
        "northeast": {
          "lat": 7.003221129892721,
          "lng": 3.683042629892722
        },
        "southwest": {
          "lat": 7.000521470107278,
          "lng": 3.680342970107279
        }
      },
      "formatted_address": "6FV52M2J+PMR, 110116, Ishara, Nigeria",
      "google_map_url": "https://maps.google.com?q=7.001855,3.681645",
      "google_place_id": "ChIJ94Q0FGXXOxAR-CChTNvxURc"
    }
  },
  {
    "id": "344230",
    "name": "L.G. SCHOOL GBASEMO",
    "registration_area_id": "17477",
    "precise_location": null,
    "abbreviation": "004",
    "units": "004",
    "delimitation": "27/19/04/004",
    "remark": "EXISTING PU",
    "ward_id": "17477",
    "ward_name": "ODOFIN/IMAGBO/PETEKUN/DAWARA",
    "local_government_id": "580",
    "local_government_name": "REMO NORTH",
    "state_id": "27",
    "state_name": "OGUN",
    "location": {
      "latitude": 7.001855,
      "longitude": 3.681645,
      "viewport": {
        "northeast": {
          "lat": 7.003221129892721,
          "lng": 3.683042629892722
        },
        "southwest": {
          "lat": 7.000521470107278,
          "lng": 3.680342970107279
        }
      },
      "formatted_address": "6FV52M2J+PMR, 110116, Ishara, Nigeria",
      "google_map_url": "https://maps.google.com?q=7.001855,3.681645",
      "google_place_id": "ChIJ94Q0FGXXOxAR-CChTNvxURc"
    }
  },
  {
    "id": "344231",
    "name": "L.G. SCHOOL IMAGBON",
    "registration_area_id": "17477",
    "precise_location": null,
    "abbreviation": "005",
    "units": "005",
    "delimitation": "27/19/04/005",
    "remark": "EXISTING PU",
    "ward_id": "17477",
    "ward_name": "ODOFIN/IMAGBO/PETEKUN/DAWARA",
    "local_government_id": "580",
    "local_government_name": "REMO NORTH",
    "state_id": "27",
    "state_name": "OGUN",
    "location": {
      "latitude": 7.0011563,
      "longitude": 3.665295699999999,
      "viewport": {
        "northeast": {
          "lat": 7.002503879892722,
          "lng": 3.666709829892722
        },
        "southwest": {
          "lat": 6.999804220107278,
          "lng": 3.664010170107278
        }
      },
      "formatted_address": "2M28+F38, Old, Lagos - Ibadan Expy, Ishara, Nigeria",
      "google_map_url": "https://maps.google.com?q=7.0011563,3.665295699999999",
      "google_place_id": "ChIJyz9jmpLVOxARn1rotsJ0l5I"
    }
  },
  {
    "id": "344232",
    "name": "L.G. SCHOOL, ELUJU",
    "registration_area_id": "17477",
    "precise_location": null,
    "abbreviation": "006",
    "units": "006",
    "delimitation": "27/19/04/006",
    "remark": "EXISTING PU",
    "ward_id": "17477",
    "ward_name": "ODOFIN/IMAGBO/PETEKUN/DAWARA",
    "local_government_id": "580",
    "local_government_name": "REMO NORTH",
    "state_id": "27",
    "state_name": "OGUN",
    "location": {
      "latitude": 7.0011563,
      "longitude": 3.665295699999999,
      "viewport": {
        "northeast": {
          "lat": 7.002503879892722,
          "lng": 3.666709829892722
        },
        "southwest": {
          "lat": 6.999804220107278,
          "lng": 3.664010170107278
        }
      },
      "formatted_address": "2M28+F38, Old, Lagos - Ibadan Expy, Ishara, Nigeria",
      "google_map_url": "https://maps.google.com?q=7.0011563,3.665295699999999",
      "google_place_id": "ChIJyz9jmpLVOxARn1rotsJ0l5I"
    }
  },
  {
    "id": "344233",
    "name": "OLOPARUN VILLAGE SQUARE",
    "registration_area_id": "17477",
    "precise_location": null,
    "abbreviation": "007",
    "units": "007",
    "delimitation": "27/19/04/007",
    "remark": "EXISTING PU",
    "ward_id": "17477",
    "ward_name": "ODOFIN/IMAGBO/PETEKUN/DAWARA",
    "local_government_id": "580",
    "local_government_name": "REMO NORTH",
    "state_id": "27",
    "state_name": "OGUN",
    "location": {
      "latitude": 6.9836226,
      "longitude": 3.6768219,
      "viewport": {
        "northeast": {
          "lat": 6.986333999999998,
          "lng": 3.677862629892722
        },
        "southwest": {
          "lat": 6.982718800000002,
          "lng": 3.675162970107278
        }
      },
      "formatted_address": "Ipara Remo, Abeokuta, Nigeria",
      "google_map_url": "https://maps.google.com?q=6.9836226,3.6768219",
      "google_place_id": "ChIJaw1T2KvWOxARL5pCAqcGKog"
    }
  },
  {
    "id": "344234",
    "name": "EGUNFOYE VILLAGE SQUARE I",
    "registration_area_id": "17477",
    "precise_location": null,
    "abbreviation": "008",
    "units": "008",
    "delimitation": "27/19/04/008",
    "remark": "EXISTING PU",
    "ward_id": "17477",
    "ward_name": "ODOFIN/IMAGBO/PETEKUN/DAWARA",
    "local_government_id": "580",
    "local_government_name": "REMO NORTH",
    "state_id": "27",
    "state_name": "OGUN",
    "location": {
      "latitude": 6.971220799999999,
      "longitude": 3.6770355,
      "viewport": {
        "northeast": {
          "lat": 6.97252917989272,
          "lng": 3.678377029892722
        },
        "southwest": {
          "lat": 6.969829520107276,
          "lng": 3.675677370107278
        }
      },
      "formatted_address": "Local Government, Ode Remo TownHall, Remo, Nigeria",
      "google_map_url": "https://maps.google.com?q=6.971220799999999,3.6770355",
      "google_place_id": "ChIJhdOhZ1TXOxAREAxenBcRUgk"
    }
  },
  {
    "id": "344235",
    "name": "EGUNFOYE VILLAGE SQUARE II",
    "registration_area_id": "17477",
    "precise_location": null,
    "abbreviation": "009",
    "units": "009",
    "delimitation": "27/19/04/009",
    "remark": "EXISTING PU",
    "ward_id": "17477",
    "ward_name": "ODOFIN/IMAGBO/PETEKUN/DAWARA",
    "local_government_id": "580",
    "local_government_name": "REMO NORTH",
    "state_id": "27",
    "state_name": "OGUN",
    "location": {
      "latitude": 6.971220799999999,
      "longitude": 3.6770355,
      "viewport": {
        "northeast": {
          "lat": 6.97252917989272,
          "lng": 3.678377029892722
        },
        "southwest": {
          "lat": 6.969829520107276,
          "lng": 3.675677370107278
        }
      },
      "formatted_address": "Local Government, Ode Remo TownHall, Remo, Nigeria",
      "google_map_url": "https://maps.google.com?q=6.971220799999999,3.6770355",
      "google_place_id": "ChIJhdOhZ1TXOxAREAxenBcRUgk"
    }
  },
  {
    "id": "344236",
    "name": "LAGBAN PRY. SCHOOL",
    "registration_area_id": "17477",
    "precise_location": null,
    "abbreviation": "010",
    "units": "010",
    "delimitation": "27/19/04/010",
    "remark": "EXISTING PU",
    "ward_id": "17477",
    "ward_name": "ODOFIN/IMAGBO/PETEKUN/DAWARA",
    "local_government_id": "580",
    "local_government_name": "REMO NORTH",
    "state_id": "27",
    "state_name": "OGUN",
    "location": {
      "latitude": 7.001855,
      "longitude": 3.681645,
      "viewport": {
        "northeast": {
          "lat": 7.003221129892721,
          "lng": 3.683042629892722
        },
        "southwest": {
          "lat": 7.000521470107278,
          "lng": 3.680342970107279
        }
      },
      "formatted_address": "6FV52M2J+PMR, 110116, Ishara, Nigeria",
      "google_map_url": "https://maps.google.com?q=7.001855,3.681645",
      "google_place_id": "ChIJ94Q0FGXXOxAR-CChTNvxURc"
    }
  },
  {
    "id": "344237",
    "name": "OPEN SPACE AT IRESI VILLAGE",
    "registration_area_id": "17477",
    "precise_location": null,
    "abbreviation": "011",
    "units": "011",
    "delimitation": "27/19/04/011",
    "remark": "EXISTING PU",
    "ward_id": "17477",
    "ward_name": "ODOFIN/IMAGBO/PETEKUN/DAWARA",
    "local_government_id": "580",
    "local_government_name": "REMO NORTH",
    "state_id": "27",
    "state_name": "OGUN",
    "location": {
      "latitude": 6.9836226,
      "longitude": 3.6768219,
      "viewport": {
        "northeast": {
          "lat": 6.986333999999998,
          "lng": 3.677862629892722
        },
        "southwest": {
          "lat": 6.982718800000002,
          "lng": 3.675162970107278
        }
      },
      "formatted_address": "Ipara Remo, Abeokuta, Nigeria",
      "google_map_url": "https://maps.google.com?q=6.9836226,3.6768219",
      "google_place_id": "ChIJaw1T2KvWOxARL5pCAqcGKog"
    }
  },
  {
    "id": "344238",
    "name": "OPEN SPACE AT PETEKU LISA VILLAGE I",
    "registration_area_id": "17477",
    "precise_location": null,
    "abbreviation": "012",
    "units": "012",
    "delimitation": "27/19/04/012",
    "remark": "EXISTING PU",
    "ward_id": "17477",
    "ward_name": "ODOFIN/IMAGBO/PETEKUN/DAWARA",
    "local_government_id": "580",
    "local_government_name": "REMO NORTH",
    "state_id": "27",
    "state_name": "OGUN",
    "location": null
  },
  {
    "id": "344239",
    "name": "OPEN SPACE AT PETEKU LISA VILLAGE II",
    "registration_area_id": "17477",
    "precise_location": null,
    "abbreviation": "013",
    "units": "013",
    "delimitation": "27/19/04/013",
    "remark": "EXISTING PU",
    "ward_id": "17477",
    "ward_name": "ODOFIN/IMAGBO/PETEKUN/DAWARA",
    "local_government_id": "580",
    "local_government_name": "REMO NORTH",
    "state_id": "27",
    "state_name": "OGUN",
    "location": null
  },
  {
    "id": "344240",
    "name": "DEYORUWA",
    "registration_area_id": "17477",
    "precise_location": null,
    "abbreviation": "014",
    "units": "014",
    "delimitation": "27/19/04/014",
    "remark": "EXISTING PU",
    "ward_id": "17477",
    "ward_name": "ODOFIN/IMAGBO/PETEKUN/DAWARA",
    "local_government_id": "580",
    "local_government_name": "REMO NORTH",
    "state_id": "27",
    "state_name": "OGUN",
    "location": {
      "latitude": 7.024302,
      "longitude": 3.7333537,
      "viewport": {
        "northeast": {
          "lat": 7.0630165,
          "lng": 3.7912399
        },
        "southwest": {
          "lat": 6.9713322,
          "lng": 3.6766012
        }
      },
      "formatted_address": "Odofin/Imagbo/Petekun/Dawara, Nigeria",
      "google_map_url": "https://maps.google.com?q=7.024302,3.7333537",
      "google_place_id": "ChIJuYQVjo3VOxARZ_cZYp8_E1o"
    }
  },
  {
    "id": "344241",
    "name": "OPEN SPACE AT DAWARA",
    "registration_area_id": "17477",
    "precise_location": null,
    "abbreviation": "015",
    "units": "015",
    "delimitation": "27/19/04/015",
    "remark": "EXISTING PU",
    "ward_id": "17477",
    "ward_name": "ODOFIN/IMAGBO/PETEKUN/DAWARA",
    "local_government_id": "580",
    "local_government_name": "REMO NORTH",
    "state_id": "27",
    "state_name": "OGUN",
    "location": {
      "latitude": 6.9725987,
      "longitude": 3.6718601,
      "viewport": {
        "northeast": {
          "lat": 6.974083529892721,
          "lng": 3.673257679892722
        },
        "southwest": {
          "lat": 6.971383870107277,
          "lng": 3.670558020107278
        }
      },
      "formatted_address": "121116, Ishara, Nigeria",
      "google_map_url": "https://maps.google.com?q=6.9725987,3.6718601",
      "google_place_id": "ChIJgyiWjbfWOxARGgVbj5UtjD0"
    }
  },
  {
    "id": "344242",
    "name": "OPEN SPACE AT OPEKERE",
    "registration_area_id": "17477",
    "precise_location": null,
    "abbreviation": "016",
    "units": "016",
    "delimitation": "27/19/04/016",
    "remark": "EXISTING PU",
    "ward_id": "17477",
    "ward_name": "ODOFIN/IMAGBO/PETEKUN/DAWARA",
    "local_government_id": "580",
    "local_government_name": "REMO NORTH",
    "state_id": "27",
    "state_name": "OGUN",
    "location": {
      "latitude": 6.9725987,
      "longitude": 3.6718601,
      "viewport": {
        "northeast": {
          "lat": 6.974083529892721,
          "lng": 3.673257679892722
        },
        "southwest": {
          "lat": 6.971383870107277,
          "lng": 3.670558020107278
        }
      },
      "formatted_address": "121116, Ishara, Nigeria",
      "google_map_url": "https://maps.google.com?q=6.9725987,3.6718601",
      "google_place_id": "ChIJgyiWjbfWOxARGgVbj5UtjD0"
    }
  },
  {
    "id": "344243",
    "name": "OPEN SPACE AT ALAGBE",
    "registration_area_id": "17477",
    "precise_location": null,
    "abbreviation": "017",
    "units": "017",
    "delimitation": "27/19/04/017",
    "remark": "EXISTING PU",
    "ward_id": "17477",
    "ward_name": "ODOFIN/IMAGBO/PETEKUN/DAWARA",
    "local_government_id": "580",
    "local_government_name": "REMO NORTH",
    "state_id": "27",
    "state_name": "OGUN",
    "location": {
      "latitude": 6.9725987,
      "longitude": 3.6718601,
      "viewport": {
        "northeast": {
          "lat": 6.974083529892721,
          "lng": 3.673257679892722
        },
        "southwest": {
          "lat": 6.971383870107277,
          "lng": 3.670558020107278
        }
      },
      "formatted_address": "121116, Ishara, Nigeria",
      "google_map_url": "https://maps.google.com?q=6.9725987,3.6718601",
      "google_place_id": "ChIJgyiWjbfWOxARGgVbj5UtjD0"
    }
  },
  {
    "id": "344244",
    "name": "OPEN SPACE AT OLIWO",
    "registration_area_id": "17477",
    "precise_location": null,
    "abbreviation": "018",
    "units": "018",
    "delimitation": "27/19/04/018",
    "remark": "EXISTING PU",
    "ward_id": "17477",
    "ward_name": "ODOFIN/IMAGBO/PETEKUN/DAWARA",
    "local_government_id": "580",
    "local_government_name": "REMO NORTH",
    "state_id": "27",
    "state_name": "OGUN",
    "location": {
      "latitude": 6.9725987,
      "longitude": 3.6718601,
      "viewport": {
        "northeast": {
          "lat": 6.974083529892721,
          "lng": 3.673257679892722
        },
        "southwest": {
          "lat": 6.971383870107277,
          "lng": 3.670558020107278
        }
      },
      "formatted_address": "121116, Ishara, Nigeria",
      "google_map_url": "https://maps.google.com?q=6.9725987,3.6718601",
      "google_place_id": "ChIJgyiWjbfWOxARGgVbj5UtjD0"
    }
  }
]