[
  {
    "id": "333494",
    "name": "KUVO - PB",
    "registration_area_id": "16928",
    "precise_location": null,
    "abbreviation": "001",
    "units": "001",
    "delimitation": "25/09/01/001",
    "remark": "EXISTING PU",
    "ward_id": "16928",
    "ward_name": "UDENIN GIDA",
    "local_government_id": "771",
    "local_government_name": "NASARAWA",
    "state_id": "25",
    "state_name": "NASARAWA",
    "location": null
  },
  {
    "id": "333495",
    "name": "OKPAMU/ARI - OP",
    "registration_area_id": "16928",
    "precise_location": null,
    "abbreviation": "002",
    "units": "002",
    "delimitation": "25/09/01/002",
    "remark": "EXISTING PU",
    "ward_id": "16928",
    "ward_name": "UDENIN GIDA",
    "local_government_id": "771",
    "local_government_name": "NASARAWA",
    "state_id": "25",
    "state_name": "NASARAWA",
    "location": {
      "latitude": 8.8471213,
      "longitude": 7.8776023,
      "viewport": {
        "northeast": {
          "lat": 8.848300629892721,
          "lng": 7.879032079892722
        },
        "southwest": {
          "lat": 8.845600970107277,
          "lng": 7.876332420107278
        }
      },
      "formatted_address": "NASARAWA STATE UNIVERSITY, 911019, Keffi, Nigeria",
      "google_map_url": "https://maps.google.com?q=8.8471213,7.8776023",
      "google_place_id": "ChIJeyBwSijkURARPVbSxse_J90"
    }
  },
  {
    "id": "333496",
    "name": "AMBU - OP",
    "registration_area_id": "16928",
    "precise_location": null,
    "abbreviation": "003",
    "units": "003",
    "delimitation": "25/09/01/003",
    "remark": "EXISTING PU",
    "ward_id": "16928",
    "ward_name": "UDENIN GIDA",
    "local_government_id": "771",
    "local_government_name": "NASARAWA",
    "state_id": "25",
    "state_name": "NASARAWA",
    "location": {
      "latitude": 8.5474743,
      "longitude": 7.711825,
      "viewport": {
        "northeast": {
          "lat": 8.548916779892721,
          "lng": 7.713224329892722
        },
        "southwest": {
          "lat": 8.546217120107277,
          "lng": 7.710524670107278
        }
      },
      "formatted_address": "Odenin Gida, 962102, Nigeria",
      "google_map_url": "https://maps.google.com?q=8.5474743,7.711825",
      "google_place_id": "ChIJq6qqqtsoThARpP2GLTK05l8"
    }
  },
  {
    "id": "333497",
    "name": "UBBE - OP",
    "registration_area_id": "16928",
    "precise_location": null,
    "abbreviation": "004",
    "units": "004",
    "delimitation": "25/09/01/004",
    "remark": "EXISTING PU",
    "ward_id": "16928",
    "ward_name": "UDENIN GIDA",
    "local_government_id": "771",
    "local_government_name": "NASARAWA",
    "state_id": "25",
    "state_name": "NASARAWA",
    "location": {
      "latitude": 8.5474743,
      "longitude": 7.711825,
      "viewport": {
        "northeast": {
          "lat": 8.548916779892721,
          "lng": 7.713224329892722
        },
        "southwest": {
          "lat": 8.546217120107277,
          "lng": 7.710524670107278
        }
      },
      "formatted_address": "Odenin Gida, 962102, Nigeria",
      "google_map_url": "https://maps.google.com?q=8.5474743,7.711825",
      "google_place_id": "ChIJq6qqqtsoThARpP2GLTK05l8"
    }
  },
  {
    "id": "333498",
    "name": "ITTAH  I - OP",
    "registration_area_id": "16928",
    "precise_location": null,
    "abbreviation": "005",
    "units": "005",
    "delimitation": "25/09/01/005",
    "remark": "EXISTING PU",
    "ward_id": "16928",
    "ward_name": "UDENIN GIDA",
    "local_government_id": "771",
    "local_government_name": "NASARAWA",
    "state_id": "25",
    "state_name": "NASARAWA",
    "location": {
      "latitude": 8.8471213,
      "longitude": 7.8776023,
      "viewport": {
        "northeast": {
          "lat": 8.848300629892721,
          "lng": 7.879032079892722
        },
        "southwest": {
          "lat": 8.845600970107277,
          "lng": 7.876332420107278
        }
      },
      "formatted_address": "NASARAWA STATE UNIVERSITY, 911019, Keffi, Nigeria",
      "google_map_url": "https://maps.google.com?q=8.8471213,7.8776023",
      "google_place_id": "ChIJeyBwSijkURARPVbSxse_J90"
    }
  },
  {
    "id": "333499",
    "name": "ITTAH II - OP",
    "registration_area_id": "16928",
    "precise_location": null,
    "abbreviation": "006",
    "units": "006",
    "delimitation": "25/09/01/006",
    "remark": "EXISTING PU",
    "ward_id": "16928",
    "ward_name": "UDENIN GIDA",
    "local_government_id": "771",
    "local_government_name": "NASARAWA",
    "state_id": "25",
    "state_name": "NASARAWA",
    "location": null
  },
  {
    "id": "333500",
    "name": "UKESHI - OP",
    "registration_area_id": "16928",
    "precise_location": null,
    "abbreviation": "007",
    "units": "007",
    "delimitation": "25/09/01/007",
    "remark": "EXISTING PU",
    "ward_id": "16928",
    "ward_name": "UDENIN GIDA",
    "local_government_id": "771",
    "local_government_name": "NASARAWA",
    "state_id": "25",
    "state_name": "NASARAWA",
    "location": {
      "latitude": 8.8471213,
      "longitude": 7.8776023,
      "viewport": {
        "northeast": {
          "lat": 8.848300629892721,
          "lng": 7.879032079892722
        },
        "southwest": {
          "lat": 8.845600970107277,
          "lng": 7.876332420107278
        }
      },
      "formatted_address": "NASARAWA STATE UNIVERSITY, 911019, Keffi, Nigeria",
      "google_map_url": "https://maps.google.com?q=8.8471213,7.8776023",
      "google_place_id": "ChIJeyBwSijkURARPVbSxse_J90"
    }
  },
  {
    "id": "333501",
    "name": "UDEGEN KASA - OP",
    "registration_area_id": "16928",
    "precise_location": null,
    "abbreviation": "008",
    "units": "008",
    "delimitation": "25/09/01/008",
    "remark": "EXISTING PU",
    "ward_id": "16928",
    "ward_name": "UDENIN GIDA",
    "local_government_id": "771",
    "local_government_name": "NASARAWA",
    "state_id": "25",
    "state_name": "NASARAWA",
    "location": {
      "latitude": 8.8471213,
      "longitude": 7.8776023,
      "viewport": {
        "northeast": {
          "lat": 8.848300629892721,
          "lng": 7.879032079892722
        },
        "southwest": {
          "lat": 8.845600970107277,
          "lng": 7.876332420107278
        }
      },
      "formatted_address": "NASARAWA STATE UNIVERSITY, 911019, Keffi, Nigeria",
      "google_map_url": "https://maps.google.com?q=8.8471213,7.8776023",
      "google_place_id": "ChIJeyBwSijkURARPVbSxse_J90"
    }
  },
  {
    "id": "333502",
    "name": "USHA KADUN - PB",
    "registration_area_id": "16928",
    "precise_location": null,
    "abbreviation": "009",
    "units": "009",
    "delimitation": "25/09/01/009",
    "remark": "EXISTING PU",
    "ward_id": "16928",
    "ward_name": "UDENIN GIDA",
    "local_government_id": "771",
    "local_government_name": "NASARAWA",
    "state_id": "25",
    "state_name": "NASARAWA",
    "location": null
  },
  {
    "id": "333503",
    "name": "PRIMARY SCHOOL GADA-HUDU",
    "registration_area_id": "16928",
    "precise_location": null,
    "abbreviation": "010",
    "units": "010",
    "delimitation": "25/09/01/010",
    "remark": "NEW PU",
    "ward_id": "16928",
    "ward_name": "UDENIN GIDA",
    "local_government_id": "771",
    "local_government_name": "NASARAWA",
    "state_id": "25",
    "state_name": "NASARAWA",
    "location": {
      "latitude": 8.8444175,
      "longitude": 7.881084899999999,
      "viewport": {
        "northeast": {
          "lat": 8.845743829892722,
          "lng": 7.882426729892722
        },
        "southwest": {
          "lat": 8.843044170107278,
          "lng": 7.879727070107278
        }
      },
      "formatted_address": "RVVJ+QCW, 961101, Keffi, Nigeria",
      "google_map_url": "https://maps.google.com?q=8.8444175,7.881084899999999",
      "google_place_id": "ChIJU8u2n-jlURARivGdYP71rfA"
    }
  },
  {
    "id": "333504",
    "name": "OKPAMU/ARI II-OP",
    "registration_area_id": "16928",
    "precise_location": null,
    "abbreviation": "011",
    "units": "011",
    "delimitation": "25/09/01/011",
    "remark": "NEW PU",
    "ward_id": "16928",
    "ward_name": "UDENIN GIDA",
    "local_government_id": "771",
    "local_government_name": "NASARAWA",
    "state_id": "25",
    "state_name": "NASARAWA",
    "location": {
      "latitude": 8.8471213,
      "longitude": 7.8776023,
      "viewport": {
        "northeast": {
          "lat": 8.848300629892721,
          "lng": 7.879032079892722
        },
        "southwest": {
          "lat": 8.845600970107277,
          "lng": 7.876332420107278
        }
      },
      "formatted_address": "NASARAWA STATE UNIVERSITY, 911019, Keffi, Nigeria",
      "google_map_url": "https://maps.google.com?q=8.8471213,7.8776023",
      "google_place_id": "ChIJeyBwSijkURARPVbSxse_J90"
    }
  },
  {
    "id": "333505",
    "name": "AKEWA PLAYING GROUND-OP",
    "registration_area_id": "16928",
    "precise_location": null,
    "abbreviation": "012",
    "units": "012",
    "delimitation": "25/09/01/012",
    "remark": "NEW PU",
    "ward_id": "16928",
    "ward_name": "UDENIN GIDA",
    "local_government_id": "771",
    "local_government_name": "NASARAWA",
    "state_id": "25",
    "state_name": "NASARAWA",
    "location": {
      "latitude": 8.847086,
      "longitude": 7.877618399999999,
      "viewport": {
        "northeast": {
          "lat": 8.84830042989272,
          "lng": 7.879031729892722
        },
        "southwest": {
          "lat": 8.845600770107277,
          "lng": 7.876332070107278
        }
      },
      "formatted_address": "Behind High Court 1, Keffi, Nigeria",
      "google_map_url": "https://maps.google.com?q=8.847086,7.877618399999999",
      "google_place_id": "ChIJQVVVVQHkURARFtEh6a2KZPI"
    }
  },
  {
    "id": "333506",
    "name": "AMBU II-OP",
    "registration_area_id": "16928",
    "precise_location": null,
    "abbreviation": "013",
    "units": "013",
    "delimitation": "25/09/01/013",
    "remark": "NEW PU",
    "ward_id": "16928",
    "ward_name": "UDENIN GIDA",
    "local_government_id": "771",
    "local_government_name": "NASARAWA",
    "state_id": "25",
    "state_name": "NASARAWA",
    "location": null
  },
  {
    "id": "333507",
    "name": "EPO-EKA-OP",
    "registration_area_id": "16928",
    "precise_location": null,
    "abbreviation": "014",
    "units": "014",
    "delimitation": "25/09/01/014",
    "remark": "NEW PU",
    "ward_id": "16928",
    "ward_name": "UDENIN GIDA",
    "local_government_id": "771",
    "local_government_name": "NASARAWA",
    "state_id": "25",
    "state_name": "NASARAWA",
    "location": {
      "latitude": 8.8471213,
      "longitude": 7.8776023,
      "viewport": {
        "northeast": {
          "lat": 8.848300629892721,
          "lng": 7.879032079892722
        },
        "southwest": {
          "lat": 8.845600970107277,
          "lng": 7.876332420107278
        }
      },
      "formatted_address": "NASARAWA STATE UNIVERSITY, 911019, Keffi, Nigeria",
      "google_map_url": "https://maps.google.com?q=8.8471213,7.8776023",
      "google_place_id": "ChIJeyBwSijkURARPVbSxse_J90"
    }
  },
  {
    "id": "333508",
    "name": "UBBE II OPP. ALH. UDEGE FILLING STATION-OP",
    "registration_area_id": "16928",
    "precise_location": null,
    "abbreviation": "015",
    "units": "015",
    "delimitation": "25/09/01/015",
    "remark": "NEW PU",
    "ward_id": "16928",
    "ward_name": "UDENIN GIDA",
    "local_government_id": "771",
    "local_government_name": "NASARAWA",
    "state_id": "25",
    "state_name": "NASARAWA",
    "location": {
      "latitude": 8.856693199999999,
      "longitude": 7.874001699999999,
      "viewport": {
        "northeast": {
          "lat": 8.85794687989272,
          "lng": 7.875325229892724
        },
        "southwest": {
          "lat": 8.855247220107277,
          "lng": 7.87262557010728
        }
      },
      "formatted_address": "VV4F+PH5, Abuja-Keffi Rd, 961101, Ado, Nigeria",
      "google_map_url": "https://maps.google.com?q=8.856693199999999,7.874001699999999",
      "google_place_id": "ChIJ56PWvAnkURAR3qB78qAV8Go"
    }
  },
  {
    "id": "333509",
    "name": "ITTAH MARKET-SQUARE-OP",
    "registration_area_id": "16928",
    "precise_location": null,
    "abbreviation": "016",
    "units": "016",
    "delimitation": "25/09/01/016",
    "remark": "NEW PU",
    "ward_id": "16928",
    "ward_name": "UDENIN GIDA",
    "local_government_id": "771",
    "local_government_name": "NASARAWA",
    "state_id": "25",
    "state_name": "NASARAWA",
    "location": {
      "latitude": 9.0238262,
      "longitude": 7.6078619,
      "viewport": {
        "northeast": {
          "lat": 9.024968279892722,
          "lng": 7.60936842989272
        },
        "southwest": {
          "lat": 9.022268620107278,
          "lng": 7.606668770107277
        }
      },
      "formatted_address": "2JF5+G4Q, Mararaba 961105, New Karu, Nigeria",
      "google_map_url": "https://maps.google.com?q=9.0238262,7.6078619",
      "google_place_id": "ChIJ____v6sIThARj1pudjv1chE"
    }
  },
  {
    "id": "333510",
    "name": "OSHINI PRI. SCHOOL-PB",
    "registration_area_id": "16928",
    "precise_location": null,
    "abbreviation": "017",
    "units": "017",
    "delimitation": "25/09/01/017",
    "remark": "NEW PU",
    "ward_id": "16928",
    "ward_name": "UDENIN GIDA",
    "local_government_id": "771",
    "local_government_name": "NASARAWA",
    "state_id": "25",
    "state_name": "NASARAWA",
    "location": {
      "latitude": 8.9526677,
      "longitude": 7.6737883,
      "viewport": {
        "northeast": {
          "lat": 8.95395327989272,
          "lng": 7.675167129892721
        },
        "southwest": {
          "lat": 8.951253620107277,
          "lng": 7.672467470107277
        }
      },
      "formatted_address": "XM3F+3G7, 961105, New Nyanya, Nigeria",
      "google_map_url": "https://maps.google.com?q=8.9526677,7.6737883",
      "google_place_id": "ChIJV9ytbOwFThARsfO5zHTFgWI"
    }
  },
  {
    "id": "333511",
    "name": "AFURA ADAGBA PRIMARY SCHOOL-PB",
    "registration_area_id": "16928",
    "precise_location": null,
    "abbreviation": "018",
    "units": "018",
    "delimitation": "25/09/01/018",
    "remark": "NEW PU",
    "ward_id": "16928",
    "ward_name": "UDENIN GIDA",
    "local_government_id": "771",
    "local_government_name": "NASARAWA",
    "state_id": "25",
    "state_name": "NASARAWA",
    "location": {
      "latitude": 12.2828429,
      "longitude": 10.3445702,
      "viewport": {
        "northeast": {
          "lat": 12.28419502989272,
          "lng": 10.34592037989272
        },
        "southwest": {
          "lat": 12.28149537010728,
          "lng": 10.34322072010728
        }
      },
      "formatted_address": "78MV+4VR, Unguwar Nasarawa, LGA, Nigeria",
      "google_map_url": "https://maps.google.com?q=12.2828429,10.3445702",
      "google_place_id": "ChIJU4ScdR7BqRERgaW2Wi3EfOw"
    }
  },
  {
    "id": "333512",
    "name": "AKPATA-EKA-OP",
    "registration_area_id": "16928",
    "precise_location": null,
    "abbreviation": "019",
    "units": "019",
    "delimitation": "25/09/01/019",
    "remark": "NEW PU",
    "ward_id": "16928",
    "ward_name": "UDENIN GIDA",
    "local_government_id": "771",
    "local_government_name": "NASARAWA",
    "state_id": "25",
    "state_name": "NASARAWA",
    "location": {
      "latitude": 8.8471213,
      "longitude": 7.8776023,
      "viewport": {
        "northeast": {
          "lat": 8.848300629892721,
          "lng": 7.879032079892722
        },
        "southwest": {
          "lat": 8.845600970107277,
          "lng": 7.876332420107278
        }
      },
      "formatted_address": "NASARAWA STATE UNIVERSITY, 911019, Keffi, Nigeria",
      "google_map_url": "https://maps.google.com?q=8.8471213,7.8776023",
      "google_place_id": "ChIJeyBwSijkURARPVbSxse_J90"
    }
  },
  {
    "id": "333513",
    "name": "ABBA-UDEGE-OP",
    "registration_area_id": "16928",
    "precise_location": null,
    "abbreviation": "020",
    "units": "020",
    "delimitation": "25/09/01/020",
    "remark": "NEW PU",
    "ward_id": "16928",
    "ward_name": "UDENIN GIDA",
    "local_government_id": "771",
    "local_government_name": "NASARAWA",
    "state_id": "25",
    "state_name": "NASARAWA",
    "location": {
      "latitude": 8.8471213,
      "longitude": 7.8776023,
      "viewport": {
        "northeast": {
          "lat": 8.848300629892721,
          "lng": 7.879032079892722
        },
        "southwest": {
          "lat": 8.845600970107277,
          "lng": 7.876332420107278
        }
      },
      "formatted_address": "NASARAWA STATE UNIVERSITY, 911019, Keffi, Nigeria",
      "google_map_url": "https://maps.google.com?q=8.8471213,7.8776023",
      "google_place_id": "ChIJeyBwSijkURARPVbSxse_J90"
    }
  },
  {
    "id": "333514",
    "name": "KUGBOKU OP. PRIMARY SCHOOL",
    "registration_area_id": "16928",
    "precise_location": null,
    "abbreviation": "021",
    "units": "021",
    "delimitation": "25/09/01/021",
    "remark": "NEW PU",
    "ward_id": "16928",
    "ward_name": "UDENIN GIDA",
    "local_government_id": "771",
    "local_government_name": "NASARAWA",
    "state_id": "25",
    "state_name": "NASARAWA",
    "location": {
      "latitude": 8.8444175,
      "longitude": 7.881084899999999,
      "viewport": {
        "northeast": {
          "lat": 8.845743829892722,
          "lng": 7.882426729892722
        },
        "southwest": {
          "lat": 8.843044170107278,
          "lng": 7.879727070107278
        }
      },
      "formatted_address": "RVVJ+QCW, 961101, Keffi, Nigeria",
      "google_map_url": "https://maps.google.com?q=8.8444175,7.881084899999999",
      "google_place_id": "ChIJU8u2n-jlURARivGdYP71rfA"
    }
  },
  {
    "id": "333515",
    "name": "IGIRI BESIDE WATER SYSTEM-OP",
    "registration_area_id": "16928",
    "precise_location": null,
    "abbreviation": "022",
    "units": "022",
    "delimitation": "25/09/01/022",
    "remark": "NEW PU",
    "ward_id": "16928",
    "ward_name": "UDENIN GIDA",
    "local_government_id": "771",
    "local_government_name": "NASARAWA",
    "state_id": "25",
    "state_name": "NASARAWA",
    "location": null
  },
  {
    "id": "333516",
    "name": "RAPIN SHANIYA PRIMARY SCHOOL-PB",
    "registration_area_id": "16928",
    "precise_location": null,
    "abbreviation": "023",
    "units": "023",
    "delimitation": "25/09/01/023",
    "remark": "NEW PU",
    "ward_id": "16928",
    "ward_name": "UDENIN GIDA",
    "local_government_id": "771",
    "local_government_name": "NASARAWA",
    "state_id": "25",
    "state_name": "NASARAWA",
    "location": {
      "latitude": 8.7938714,
      "longitude": 6.611451100000001,
      "viewport": {
        "northeast": {
          "lat": 8.79521322989272,
          "lng": 6.612671079892722
        },
        "southwest": {
          "lat": 8.792513570107277,
          "lng": 6.609971420107278
        }
      },
      "formatted_address": "6FW8QJV6+FHP Duma Zago lapai Niger, 911101, Nasarawa, Nigeria",
      "google_map_url": "https://maps.google.com?q=8.7938714,6.611451100000001",
      "google_place_id": "ChIJW4QksNm5ThARRYXYAA_RkwI"
    }
  }
]