[
  {
    "id": "94908",
    "name": "DARKI HURUMI - PRIMARY I",
    "registration_area_id": "4822",
    "precise_location": null,
    "abbreviation": "001",
    "units": "001",
    "delimitation": "19/44/04/001",
    "remark": "EXISTING PU",
    "ward_id": "4822",
    "ward_name": "DARKI",
    "local_government_id": "413",
    "local_government_name": "WUDIL",
    "state_id": "19",
    "state_name": "KANO",
    "location": {
      "latitude": 11.9633044,
      "longitude": 8.5890624,
      "viewport": {
        "northeast": {
          "lat": 11.96462082989272,
          "lng": 8.590409679892721
        },
        "southwest": {
          "lat": 11.96192117010728,
          "lng": 8.587710020107277
        }
      },
      "formatted_address": "108 Maiduguri Road, Hotoro 700102, Kano, Nigeria",
      "google_map_url": "https://maps.google.com?q=11.9633044,8.5890624",
      "google_place_id": "ChIJ_-pLRgAUrBERkg85JZEg3co"
    }
  },
  {
    "id": "94909",
    "name": "DARKI HURUMI - PRIMARY II",
    "registration_area_id": "4822",
    "precise_location": null,
    "abbreviation": "002",
    "units": "002",
    "delimitation": "19/44/04/002",
    "remark": "EXISTING PU",
    "ward_id": "4822",
    "ward_name": "DARKI",
    "local_government_id": "413",
    "local_government_name": "WUDIL",
    "state_id": "19",
    "state_name": "KANO",
    "location": {
      "latitude": 11.9633044,
      "longitude": 8.5890624,
      "viewport": {
        "northeast": {
          "lat": 11.96462082989272,
          "lng": 8.590409679892721
        },
        "southwest": {
          "lat": 11.96192117010728,
          "lng": 8.587710020107277
        }
      },
      "formatted_address": "108 Maiduguri Road, Hotoro 700102, Kano, Nigeria",
      "google_map_url": "https://maps.google.com?q=11.9633044,8.5890624",
      "google_place_id": "ChIJ_-pLRgAUrBERkg85JZEg3co"
    }
  },
  {
    "id": "94910",
    "name": "DARKI HURUMI - T.V. CENTRE I",
    "registration_area_id": "4822",
    "precise_location": null,
    "abbreviation": "003",
    "units": "003",
    "delimitation": "19/44/04/003",
    "remark": "EXISTING PU",
    "ward_id": "4822",
    "ward_name": "DARKI",
    "local_government_id": "413",
    "local_government_name": "WUDIL",
    "state_id": "19",
    "state_name": "KANO",
    "location": null
  },
  {
    "id": "94911",
    "name": "DARKI HURUMI - T.V. CENTRE II",
    "registration_area_id": "4822",
    "precise_location": null,
    "abbreviation": "004",
    "units": "004",
    "delimitation": "19/44/04/004",
    "remark": "EXISTING PU",
    "ward_id": "4822",
    "ward_name": "DARKI",
    "local_government_id": "413",
    "local_government_name": "WUDIL",
    "state_id": "19",
    "state_name": "KANO",
    "location": null
  },
  {
    "id": "94912",
    "name": "DAREJI - PRIMARY SCHOOL I",
    "registration_area_id": "4822",
    "precise_location": null,
    "abbreviation": "005",
    "units": "005",
    "delimitation": "19/44/04/005",
    "remark": "EXISTING PU",
    "ward_id": "4822",
    "ward_name": "DARKI",
    "local_government_id": "413",
    "local_government_name": "WUDIL",
    "state_id": "19",
    "state_name": "KANO",
    "location": {
      "latitude": 11.6165529,
      "longitude": 8.8955804,
      "viewport": {
        "northeast": {
          "lat": 11.61785702989272,
          "lng": 8.896895929892722
        },
        "southwest": {
          "lat": 11.61515737010728,
          "lng": 8.894196270107278
        }
      },
      "formatted_address": "7F3CJV8W+J6G, DAREJI, 713101, Kano, Nigeria",
      "google_map_url": "https://maps.google.com?q=11.6165529,8.8955804",
      "google_place_id": "ChIJ57zdwVgUrBERp9hJQt7Il6c"
    }
  },
  {
    "id": "94913",
    "name": "DAREJI - PRIMARY SCHOOL II",
    "registration_area_id": "4822",
    "precise_location": null,
    "abbreviation": "006",
    "units": "006",
    "delimitation": "19/44/04/006",
    "remark": "EXISTING PU",
    "ward_id": "4822",
    "ward_name": "DARKI",
    "local_government_id": "413",
    "local_government_name": "WUDIL",
    "state_id": "19",
    "state_name": "KANO",
    "location": {
      "latitude": 11.6165529,
      "longitude": 8.8955804,
      "viewport": {
        "northeast": {
          "lat": 11.61785702989272,
          "lng": 8.896895929892722
        },
        "southwest": {
          "lat": 11.61515737010728,
          "lng": 8.894196270107278
        }
      },
      "formatted_address": "7F3CJV8W+J6G, DAREJI, 713101, Kano, Nigeria",
      "google_map_url": "https://maps.google.com?q=11.6165529,8.8955804",
      "google_place_id": "ChIJ57zdwVgUrBERp9hJQt7Il6c"
    }
  },
  {
    "id": "94914",
    "name": "ZOGON MARKE - PRIMARY SCHOOL I",
    "registration_area_id": "4822",
    "precise_location": null,
    "abbreviation": "007",
    "units": "007",
    "delimitation": "19/44/04/007",
    "remark": "EXISTING PU",
    "ward_id": "4822",
    "ward_name": "DARKI",
    "local_government_id": "413",
    "local_government_name": "WUDIL",
    "state_id": "19",
    "state_name": "KANO",
    "location": null
  },
  {
    "id": "94915",
    "name": "ZOGON MARKE - PRIMARY SCHOOL II",
    "registration_area_id": "4822",
    "precise_location": null,
    "abbreviation": "008",
    "units": "008",
    "delimitation": "19/44/04/008",
    "remark": "EXISTING PU",
    "ward_id": "4822",
    "ward_name": "DARKI",
    "local_government_id": "413",
    "local_government_name": "WUDIL",
    "state_id": "19",
    "state_name": "KANO",
    "location": null
  },
  {
    "id": "94916",
    "name": "D/TIKAWABANGE - PRIMARY SCHOOL I",
    "registration_area_id": "4822",
    "precise_location": null,
    "abbreviation": "009",
    "units": "009",
    "delimitation": "19/44/04/009",
    "remark": "EXISTING PU",
    "ward_id": "4822",
    "ward_name": "DARKI",
    "local_government_id": "413",
    "local_government_name": "WUDIL",
    "state_id": "19",
    "state_name": "KANO",
    "location": null
  },
  {
    "id": "94917",
    "name": "GANDA K.DARKI - PRIMARY SCHOOL",
    "registration_area_id": "4822",
    "precise_location": null,
    "abbreviation": "010",
    "units": "010",
    "delimitation": "19/44/04/010",
    "remark": "EXISTING PU",
    "ward_id": "4822",
    "ward_name": "DARKI",
    "local_government_id": "413",
    "local_government_name": "WUDIL",
    "state_id": "19",
    "state_name": "KANO",
    "location": null
  },
  {
    "id": "94918",
    "name": "ZANGO ISLAMIYYA - ISLAMIYYA PRIMARY SCHOOL I",
    "registration_area_id": "4822",
    "precise_location": null,
    "abbreviation": "011",
    "units": "011",
    "delimitation": "19/44/04/011",
    "remark": "EXISTING PU",
    "ward_id": "4822",
    "ward_name": "DARKI",
    "local_government_id": "413",
    "local_government_name": "WUDIL",
    "state_id": "19",
    "state_name": "KANO",
    "location": {
      "latitude": 12.095351,
      "longitude": 8.6828947,
      "viewport": {
        "northeast": {
          "lat": 12.09668917989272,
          "lng": 8.684201929892723
        },
        "southwest": {
          "lat": 12.09398952010728,
          "lng": 8.681502270107279
        }
      },
      "formatted_address": "7F4C3MWM+44Q Zango cikin gari Zango Kano, Karo, Nigeria",
      "google_map_url": "https://maps.google.com?q=12.095351,8.6828947",
      "google_place_id": "ChIJAVR70fWbrhER5Lwc2rRy0tg"
    }
  },
  {
    "id": "94919",
    "name": "ZANGO ISLAMIYYA - ISLAMIYYA PRIMARY SCHOOL II",
    "registration_area_id": "4822",
    "precise_location": null,
    "abbreviation": "012",
    "units": "012",
    "delimitation": "19/44/04/012",
    "remark": "EXISTING PU",
    "ward_id": "4822",
    "ward_name": "DARKI",
    "local_government_id": "413",
    "local_government_name": "WUDIL",
    "state_id": "19",
    "state_name": "KANO",
    "location": null
  },
  {
    "id": "94920",
    "name": "ZANGO ISLAMIYYA - ISLAMIYYA PRIMARY SCHOOL III",
    "registration_area_id": "4822",
    "precise_location": null,
    "abbreviation": "013",
    "units": "013",
    "delimitation": "19/44/04/013",
    "remark": "EXISTING PU",
    "ward_id": "4822",
    "ward_name": "DARKI",
    "local_government_id": "413",
    "local_government_name": "WUDIL",
    "state_id": "19",
    "state_name": "KANO",
    "location": null
  },
  {
    "id": "94921",
    "name": "ZANGO MAKERA - UNDER TREE",
    "registration_area_id": "4822",
    "precise_location": null,
    "abbreviation": "014",
    "units": "014",
    "delimitation": "19/44/04/014",
    "remark": "EXISTING PU",
    "ward_id": "4822",
    "ward_name": "DARKI",
    "local_government_id": "413",
    "local_government_name": "WUDIL",
    "state_id": "19",
    "state_name": "KANO",
    "location": null
  },
  {
    "id": "94922",
    "name": "ZANGO MAKERA - OPEN SPACE",
    "registration_area_id": "4822",
    "precise_location": null,
    "abbreviation": "015",
    "units": "015",
    "delimitation": "19/44/04/015",
    "remark": "EXISTING PU",
    "ward_id": "4822",
    "ward_name": "DARKI",
    "local_government_id": "413",
    "local_government_name": "WUDIL",
    "state_id": "19",
    "state_name": "KANO",
    "location": {
      "latitude": 11.9920002,
      "longitude": 8.518967,
      "viewport": {
        "northeast": {
          "lat": 11.99299487989272,
          "lng": 8.520340579892723
        },
        "southwest": {
          "lat": 11.99029522010728,
          "lng": 8.51764092010728
        }
      },
      "formatted_address": "XGR9+RH4, Emir Palace Rd, Kano City 700103, Kano, Nigeria",
      "google_map_url": "https://maps.google.com?q=11.9920002,8.518967",
      "google_place_id": "ChIJ0048lfmArhERMeC6h3THBDk"
    }
  },
  {
    "id": "94923",
    "name": "DARKI HURUMI PRIMARY SCHOOL III",
    "registration_area_id": "4822",
    "precise_location": null,
    "abbreviation": "016",
    "units": "016",
    "delimitation": "19/44/04/016",
    "remark": "NEW PU",
    "ward_id": "4822",
    "ward_name": "DARKI",
    "local_government_id": "413",
    "local_government_name": "WUDIL",
    "state_id": "19",
    "state_name": "KANO",
    "location": {
      "latitude": 11.9633044,
      "longitude": 8.5890624,
      "viewport": {
        "northeast": {
          "lat": 11.96462082989272,
          "lng": 8.590409679892721
        },
        "southwest": {
          "lat": 11.96192117010728,
          "lng": 8.587710020107277
        }
      },
      "formatted_address": "108 Maiduguri Road, Hotoro 700102, Kano, Nigeria",
      "google_map_url": "https://maps.google.com?q=11.9633044,8.5890624",
      "google_place_id": "ChIJ_-pLRgAUrBERkg85JZEg3co"
    }
  },
  {
    "id": "94924",
    "name": "DARKI HURUMI PRIMARY SCHOOL IV",
    "registration_area_id": "4822",
    "precise_location": null,
    "abbreviation": "017",
    "units": "017",
    "delimitation": "19/44/04/017",
    "remark": "NEW PU",
    "ward_id": "4822",
    "ward_name": "DARKI",
    "local_government_id": "413",
    "local_government_name": "WUDIL",
    "state_id": "19",
    "state_name": "KANO",
    "location": {
      "latitude": 11.9633044,
      "longitude": 8.5890624,
      "viewport": {
        "northeast": {
          "lat": 11.96462082989272,
          "lng": 8.590409679892721
        },
        "southwest": {
          "lat": 11.96192117010728,
          "lng": 8.587710020107277
        }
      },
      "formatted_address": "108 Maiduguri Road, Hotoro 700102, Kano, Nigeria",
      "google_map_url": "https://maps.google.com?q=11.9633044,8.5890624",
      "google_place_id": "ChIJ_-pLRgAUrBERkg85JZEg3co"
    }
  },
  {
    "id": "94925",
    "name": "DARKI HURUMI T.V CENTRE II",
    "registration_area_id": "4822",
    "precise_location": null,
    "abbreviation": "018",
    "units": "018",
    "delimitation": "19/44/04/018",
    "remark": "NEW PU",
    "ward_id": "4822",
    "ward_name": "DARKI",
    "local_government_id": "413",
    "local_government_name": "WUDIL",
    "state_id": "19",
    "state_name": "KANO",
    "location": null
  },
  {
    "id": "94926",
    "name": "ZANGO ISLAMIYYA PRIMARY SCHOOL III",
    "registration_area_id": "4822",
    "precise_location": null,
    "abbreviation": "019",
    "units": "019",
    "delimitation": "19/44/04/019",
    "remark": "NEW PU",
    "ward_id": "4822",
    "ward_name": "DARKI",
    "local_government_id": "413",
    "local_government_name": "WUDIL",
    "state_id": "19",
    "state_name": "KANO",
    "location": null
  },
  {
    "id": "94927",
    "name": "ZANGO ISLAMIYYA PRIMARY SCHOOL IV",
    "registration_area_id": "4822",
    "precise_location": null,
    "abbreviation": "020",
    "units": "020",
    "delimitation": "19/44/04/020",
    "remark": "NEW PU",
    "ward_id": "4822",
    "ward_name": "DARKI",
    "local_government_id": "413",
    "local_government_name": "WUDIL",
    "state_id": "19",
    "state_name": "KANO",
    "location": {
      "latitude": 11.9980552,
      "longitude": 8.512567599999999,
      "viewport": {
        "northeast": {
          "lat": 11.99946767989272,
          "lng": 8.513911529892722
        },
        "southwest": {
          "lat": 11.99676802010728,
          "lng": 8.511211870107278
        }
      },
      "formatted_address": "XGX7+62W, Kano City 700224, Kano, Nigeria",
      "google_map_url": "https://maps.google.com?q=11.9980552,8.512567599999999",
      "google_place_id": "ChIJ1-vG7fGArhERzXFpwu_uT2k"
    }
  }
]