[
  {
    "id": "109053",
    "name": "LADUBA  L.G.E.A.SCH",
    "registration_area_id": "5664",
    "precise_location": null,
    "abbreviation": "001",
    "units": "001",
    "delimitation": "23/01/11/001",
    "remark": "EXISTING PU",
    "ward_id": "5664",
    "ward_name": "AGO-OJA/OSHIN/SAPATI/LADUBA",
    "local_government_id": "490",
    "local_government_name": "ASA",
    "state_id": "23",
    "state_name": "KWARA",
    "location": {
      "latitude": 8.381076199999999,
      "longitude": 4.572759800000001,
      "viewport": {
        "northeast": {
          "lat": 8.4228157,
          "lng": 4.599329099999999
        },
        "southwest": {
          "lat": 8.3348017,
          "lng": 4.5233104
        }
      },
      "formatted_address": "Ago/Oja/Oshin/Sapati/Laduba, Nigeria",
      "google_map_url": "https://maps.google.com?q=8.381076199999999,4.572759800000001",
      "google_place_id": "ChIJn_IqYfitNxAR5tZHKOVE5_Y"
    }
  },
  {
    "id": "109054",
    "name": "LADUBA  AREA COURT I",
    "registration_area_id": "5664",
    "precise_location": null,
    "abbreviation": "002",
    "units": "002",
    "delimitation": "23/01/11/002",
    "remark": "EXISTING PU",
    "ward_id": "5664",
    "ward_name": "AGO-OJA/OSHIN/SAPATI/LADUBA",
    "local_government_id": "490",
    "local_government_name": "ASA",
    "state_id": "23",
    "state_name": "KWARA",
    "location": null
  },
  {
    "id": "109055",
    "name": "LADUBA  AREA COURT II",
    "registration_area_id": "5664",
    "precise_location": null,
    "abbreviation": "003",
    "units": "003",
    "delimitation": "23/01/11/003",
    "remark": "EXISTING PU",
    "ward_id": "5664",
    "ward_name": "AGO-OJA/OSHIN/SAPATI/LADUBA",
    "local_government_id": "490",
    "local_government_name": "ASA",
    "state_id": "23",
    "state_name": "KWARA",
    "location": {
      "latitude": 8.381076199999999,
      "longitude": 4.572759800000001,
      "viewport": {
        "northeast": {
          "lat": 8.4228157,
          "lng": 4.599329099999999
        },
        "southwest": {
          "lat": 8.3348017,
          "lng": 4.5233104
        }
      },
      "formatted_address": "Ago/Oja/Oshin/Sapati/Laduba, Nigeria",
      "google_map_url": "https://maps.google.com?q=8.381076199999999,4.572759800000001",
      "google_place_id": "ChIJn_IqYfitNxAR5tZHKOVE5_Y"
    }
  },
  {
    "id": "109056",
    "name": "ABAYAWO  L.G.E.A.SCH",
    "registration_area_id": "5664",
    "precise_location": null,
    "abbreviation": "004",
    "units": "004",
    "delimitation": "23/01/11/004",
    "remark": "EXISTING PU",
    "ward_id": "5664",
    "ward_name": "AGO-OJA/OSHIN/SAPATI/LADUBA",
    "local_government_id": "490",
    "local_government_name": "ASA",
    "state_id": "23",
    "state_name": "KWARA",
    "location": {
      "latitude": 8.381076199999999,
      "longitude": 4.572759800000001,
      "viewport": {
        "northeast": {
          "lat": 8.4228157,
          "lng": 4.599329099999999
        },
        "southwest": {
          "lat": 8.3348017,
          "lng": 4.5233104
        }
      },
      "formatted_address": "Ago/Oja/Oshin/Sapati/Laduba, Nigeria",
      "google_map_url": "https://maps.google.com?q=8.381076199999999,4.572759800000001",
      "google_place_id": "ChIJn_IqYfitNxAR5tZHKOVE5_Y"
    }
  },
  {
    "id": "109057",
    "name": "SAPATI-ILE  L.G.E.A.SCH",
    "registration_area_id": "5664",
    "precise_location": null,
    "abbreviation": "005",
    "units": "005",
    "delimitation": "23/01/11/005",
    "remark": "EXISTING PU",
    "ward_id": "5664",
    "ward_name": "AGO-OJA/OSHIN/SAPATI/LADUBA",
    "local_government_id": "490",
    "local_government_name": "ASA",
    "state_id": "23",
    "state_name": "KWARA",
    "location": {
      "latitude": 8.381076199999999,
      "longitude": 4.572759800000001,
      "viewport": {
        "northeast": {
          "lat": 8.4228157,
          "lng": 4.599329099999999
        },
        "southwest": {
          "lat": 8.3348017,
          "lng": 4.5233104
        }
      },
      "formatted_address": "Ago/Oja/Oshin/Sapati/Laduba, Nigeria",
      "google_map_url": "https://maps.google.com?q=8.381076199999999,4.572759800000001",
      "google_place_id": "ChIJn_IqYfitNxAR5tZHKOVE5_Y"
    }
  },
  {
    "id": "109058",
    "name": "AGO-OJA DISPENSARY",
    "registration_area_id": "5664",
    "precise_location": null,
    "abbreviation": "006",
    "units": "006",
    "delimitation": "23/01/11/006",
    "remark": "EXISTING PU",
    "ward_id": "5664",
    "ward_name": "AGO-OJA/OSHIN/SAPATI/LADUBA",
    "local_government_id": "490",
    "local_government_name": "ASA",
    "state_id": "23",
    "state_name": "KWARA",
    "location": {
      "latitude": 8.3873256,
      "longitude": 4.5823288,
      "viewport": {
        "northeast": {
          "lat": 8.388691079892721,
          "lng": 4.583687529892721
        },
        "southwest": {
          "lat": 8.385991420107278,
          "lng": 4.580987870107277
        }
      },
      "formatted_address": "9HPJ+WWP, 240104, Ago, Nigeria",
      "google_map_url": "https://maps.google.com?q=8.3873256,4.5823288",
      "google_place_id": "ChIJ4Q-37xWyNxARBCz-rw0HfQo"
    }
  },
  {
    "id": "109059",
    "name": "BUDO AGUN OPEN SPACE",
    "registration_area_id": "5664",
    "precise_location": null,
    "abbreviation": "007",
    "units": "007",
    "delimitation": "23/01/11/007",
    "remark": "EXISTING PU",
    "ward_id": "5664",
    "ward_name": "AGO-OJA/OSHIN/SAPATI/LADUBA",
    "local_government_id": "490",
    "local_government_name": "ASA",
    "state_id": "23",
    "state_name": "KWARA",
    "location": {
      "latitude": 8.3873256,
      "longitude": 4.5823288,
      "viewport": {
        "northeast": {
          "lat": 8.388691079892721,
          "lng": 4.583687529892721
        },
        "southwest": {
          "lat": 8.385991420107278,
          "lng": 4.580987870107277
        }
      },
      "formatted_address": "9HPJ+WWP, 240104, Ago, Nigeria",
      "google_map_url": "https://maps.google.com?q=8.3873256,4.5823288",
      "google_place_id": "ChIJ4Q-37xWyNxARBCz-rw0HfQo"
    }
  },
  {
    "id": "109060",
    "name": "TERU OPEN SPACE",
    "registration_area_id": "5664",
    "precise_location": null,
    "abbreviation": "008",
    "units": "008",
    "delimitation": "23/01/11/008",
    "remark": "EXISTING PU",
    "ward_id": "5664",
    "ward_name": "AGO-OJA/OSHIN/SAPATI/LADUBA",
    "local_government_id": "490",
    "local_government_name": "ASA",
    "state_id": "23",
    "state_name": "KWARA",
    "location": {
      "latitude": 8.3873256,
      "longitude": 4.5823288,
      "viewport": {
        "northeast": {
          "lat": 8.388691079892721,
          "lng": 4.583687529892721
        },
        "southwest": {
          "lat": 8.385991420107278,
          "lng": 4.580987870107277
        }
      },
      "formatted_address": "9HPJ+WWP, 240104, Ago, Nigeria",
      "google_map_url": "https://maps.google.com?q=8.3873256,4.5823288",
      "google_place_id": "ChIJ4Q-37xWyNxARBCz-rw0HfQo"
    }
  },
  {
    "id": "109061",
    "name": "LADUBA LGEA SCH II",
    "registration_area_id": "5664",
    "precise_location": null,
    "abbreviation": "009",
    "units": "009",
    "delimitation": "23/01/11/009",
    "remark": "NEW PU",
    "ward_id": "5664",
    "ward_name": "AGO-OJA/OSHIN/SAPATI/LADUBA",
    "local_government_id": "490",
    "local_government_name": "ASA",
    "state_id": "23",
    "state_name": "KWARA",
    "location": {
      "latitude": 8.381076199999999,
      "longitude": 4.572759800000001,
      "viewport": {
        "northeast": {
          "lat": 8.4228157,
          "lng": 4.599329099999999
        },
        "southwest": {
          "lat": 8.3348017,
          "lng": 4.5233104
        }
      },
      "formatted_address": "Ago/Oja/Oshin/Sapati/Laduba, Nigeria",
      "google_map_url": "https://maps.google.com?q=8.381076199999999,4.572759800000001",
      "google_place_id": "ChIJn_IqYfitNxAR5tZHKOVE5_Y"
    }
  },
  {
    "id": "109062",
    "name": "SAPATI-ILE LGEA SCH II",
    "registration_area_id": "5664",
    "precise_location": null,
    "abbreviation": "010",
    "units": "010",
    "delimitation": "23/01/11/010",
    "remark": "NEW PU",
    "ward_id": "5664",
    "ward_name": "AGO-OJA/OSHIN/SAPATI/LADUBA",
    "local_government_id": "490",
    "local_government_name": "ASA",
    "state_id": "23",
    "state_name": "KWARA",
    "location": {
      "latitude": 8.381076199999999,
      "longitude": 4.572759800000001,
      "viewport": {
        "northeast": {
          "lat": 8.4228157,
          "lng": 4.599329099999999
        },
        "southwest": {
          "lat": 8.3348017,
          "lng": 4.5233104
        }
      },
      "formatted_address": "Ago/Oja/Oshin/Sapati/Laduba, Nigeria",
      "google_map_url": "https://maps.google.com?q=8.381076199999999,4.572759800000001",
      "google_place_id": "ChIJn_IqYfitNxAR5tZHKOVE5_Y"
    }
  },
  {
    "id": "109063",
    "name": "SAPATI COMMUNITY SEC SCHOOL",
    "registration_area_id": "5664",
    "precise_location": null,
    "abbreviation": "011",
    "units": "011",
    "delimitation": "23/01/11/011",
    "remark": "NEW PU",
    "ward_id": "5664",
    "ward_name": "AGO-OJA/OSHIN/SAPATI/LADUBA",
    "local_government_id": "490",
    "local_government_name": "ASA",
    "state_id": "23",
    "state_name": "KWARA",
    "location": {
      "latitude": 8.4180615,
      "longitude": 4.5913523,
      "viewport": {
        "northeast": {
          "lat": 8.419393529892723,
          "lng": 4.592737679892722
        },
        "southwest": {
          "lat": 8.416693870107279,
          "lng": 4.590038020107278
        }
      },
      "formatted_address": "CH9R+6GH, SapatiIle Rd, 240102, Ilorin, Nigeria",
      "google_map_url": "https://maps.google.com?q=8.4180615,4.5913523",
      "google_place_id": "ChIJeVzdAIqzNxARnMM-dyZgZ1E"
    }
  },
  {
    "id": "109064",
    "name": "BUDO AGUN LGEA SCHOOL",
    "registration_area_id": "5664",
    "precise_location": null,
    "abbreviation": "012",
    "units": "012",
    "delimitation": "23/01/11/012",
    "remark": "NEW PU",
    "ward_id": "5664",
    "ward_name": "AGO-OJA/OSHIN/SAPATI/LADUBA",
    "local_government_id": "490",
    "local_government_name": "ASA",
    "state_id": "23",
    "state_name": "KWARA",
    "location": {
      "latitude": 8.382959699999999,
      "longitude": 4.571858499999999,
      "viewport": {
        "northeast": {
          "lat": 8.384290529892722,
          "lng": 4.573264829892723
        },
        "southwest": {
          "lat": 8.381590870107278,
          "lng": 4.570565170107279
        }
      },
      "formatted_address": "9HMC+5PQ, 240104, Ago, Nigeria",
      "google_map_url": "https://maps.google.com?q=8.382959699999999,4.571858499999999",
      "google_place_id": "ChIJUZU0xA-yNxARhvrn1fIcSbo"
    }
  }
]