[
  {
    "id": "63154",
    "name": "CENTRAL SCH. OGBOKO",
    "registration_area_id": "3420",
    "precise_location": null,
    "abbreviation": "001",
    "units": "001",
    "delimitation": "16/06/08/001",
    "remark": "EXISTING PU",
    "ward_id": "3420",
    "ward_name": "OGBOKO I",
    "local_government_id": "298",
    "local_government_name": "IDEATO SOUTH",
    "state_id": "16",
    "state_name": "IMO",
    "location": {
      "latitude": 5.838714299999999,
      "longitude": 7.079219999999999,
      "viewport": {
        "northeast": {
          "lat": 5.83986747989272,
          "lng": 7.080564879892722
        },
        "southwest": {
          "lat": 5.837167820107276,
          "lng": 7.077865220107278
        }
      },
      "formatted_address": "R3QH+FMQ, Umuchima Town, Ntueke, Nigeria",
      "google_map_url": "https://maps.google.com?q=5.838714299999999,7.079219999999999",
      "google_place_id": "ChIJ3TtwKRGoQxARoaQlJAmXscM"
    }
  },
  {
    "id": "63155",
    "name": "UMUDURUIHEARUKWA HALL",
    "registration_area_id": "3420",
    "precise_location": null,
    "abbreviation": "002",
    "units": "002",
    "delimitation": "16/06/08/002",
    "remark": "EXISTING PU",
    "ward_id": "3420",
    "ward_name": "OGBOKO I",
    "local_government_id": "298",
    "local_government_name": "IDEATO SOUTH",
    "state_id": "16",
    "state_name": "IMO",
    "location": {
      "latitude": 5.838714299999999,
      "longitude": 7.079219999999999,
      "viewport": {
        "northeast": {
          "lat": 5.83986747989272,
          "lng": 7.080564879892722
        },
        "southwest": {
          "lat": 5.837167820107276,
          "lng": 7.077865220107278
        }
      },
      "formatted_address": "R3QH+FMQ, Umuchima Town, Ntueke, Nigeria",
      "google_map_url": "https://maps.google.com?q=5.838714299999999,7.079219999999999",
      "google_place_id": "ChIJ3TtwKRGoQxARoaQlJAmXscM"
    }
  },
  {
    "id": "63156",
    "name": "AMA-AGUSIEGBE SQ.",
    "registration_area_id": "3420",
    "precise_location": null,
    "abbreviation": "003",
    "units": "003",
    "delimitation": "16/06/08/003",
    "remark": "EXISTING PU",
    "ward_id": "3420",
    "ward_name": "OGBOKO I",
    "local_government_id": "298",
    "local_government_name": "IDEATO SOUTH",
    "state_id": "16",
    "state_name": "IMO",
    "location": {
      "latitude": 5.838714299999999,
      "longitude": 7.079219999999999,
      "viewport": {
        "northeast": {
          "lat": 5.83986747989272,
          "lng": 7.080564879892722
        },
        "southwest": {
          "lat": 5.837167820107276,
          "lng": 7.077865220107278
        }
      },
      "formatted_address": "R3QH+FMQ, Umuchima Town, Ntueke, Nigeria",
      "google_map_url": "https://maps.google.com?q=5.838714299999999,7.079219999999999",
      "google_place_id": "ChIJ3TtwKRGoQxARoaQlJAmXscM"
    }
  },
  {
    "id": "63157",
    "name": "AFOR OGBOKO SQ.",
    "registration_area_id": "3420",
    "precise_location": null,
    "abbreviation": "004",
    "units": "004",
    "delimitation": "16/06/08/004",
    "remark": "EXISTING PU",
    "ward_id": "3420",
    "ward_name": "OGBOKO I",
    "local_government_id": "298",
    "local_government_name": "IDEATO SOUTH",
    "state_id": "16",
    "state_name": "IMO",
    "location": {
      "latitude": 5.8168286,
      "longitude": 7.0899243,
      "viewport": {
        "northeast": {
          "lat": 5.818172529892721,
          "lng": 7.091249029892722
        },
        "southwest": {
          "lat": 5.815472870107278,
          "lng": 7.088549370107278
        }
      },
      "formatted_address": "R38Q+PXM, 473102, Umueshi, Nigeria",
      "google_map_url": "https://maps.google.com?q=5.8168286,7.0899243",
      "google_place_id": "ChIJM0He7CupQxARnbttsnWxKD8"
    }
  },
  {
    "id": "63158",
    "name": "MEDICAL SCEINCE SCHOOL GATE UMUDURUELUGWU",
    "registration_area_id": "3420",
    "precise_location": null,
    "abbreviation": "005",
    "units": "005",
    "delimitation": "16/06/08/005",
    "remark": "NEW PU",
    "ward_id": "3420",
    "ward_name": "OGBOKO I",
    "local_government_id": "298",
    "local_government_name": "IDEATO SOUTH",
    "state_id": "16",
    "state_name": "IMO",
    "location": {
      "latitude": 5.838714299999999,
      "longitude": 7.079219999999999,
      "viewport": {
        "northeast": {
          "lat": 5.83986747989272,
          "lng": 7.080564879892722
        },
        "southwest": {
          "lat": 5.837167820107276,
          "lng": 7.077865220107278
        }
      },
      "formatted_address": "R3QH+FMQ, Umuchima Town, Ntueke, Nigeria",
      "google_map_url": "https://maps.google.com?q=5.838714299999999,7.079219999999999",
      "google_place_id": "ChIJ3TtwKRGoQxARoaQlJAmXscM"
    }
  },
  {
    "id": "63159",
    "name": "COLLEGE OF NURSING, UKABI",
    "registration_area_id": "3420",
    "precise_location": null,
    "abbreviation": "006",
    "units": "006",
    "delimitation": "16/06/08/006",
    "remark": "NEW PU",
    "ward_id": "3420",
    "ward_name": "OGBOKO I",
    "local_government_id": "298",
    "local_government_name": "IDEATO SOUTH",
    "state_id": "16",
    "state_name": "IMO",
    "location": {
      "latitude": 5.7748878,
      "longitude": 7.0133353,
      "viewport": {
        "northeast": {
          "lat": 5.776273179892723,
          "lng": 7.014598179892721
        },
        "southwest": {
          "lat": 5.773573520107279,
          "lng": 7.011898520107278
        }
      },
      "formatted_address": "Owerri - Orlu Road, LGA, Orlu, Nigeria",
      "google_map_url": "https://maps.google.com?q=5.7748878,7.0133353",
      "google_place_id": "ChIJj6DO0uupQxARpbcM7oU4Rss"
    }
  },
  {
    "id": "63160",
    "name": "HIGH COURT COMPLEX OGBOKO",
    "registration_area_id": "3420",
    "precise_location": null,
    "abbreviation": "007",
    "units": "007",
    "delimitation": "16/06/08/007",
    "remark": "NEW PU",
    "ward_id": "3420",
    "ward_name": "OGBOKO I",
    "local_government_id": "298",
    "local_government_name": "IDEATO SOUTH",
    "state_id": "16",
    "state_name": "IMO",
    "location": {
      "latitude": 5.8191144,
      "longitude": 7.089611499999999,
      "viewport": {
        "northeast": {
          "lat": 5.820374529892722,
          "lng": 7.090733929892721
        },
        "southwest": {
          "lat": 5.817674870107278,
          "lng": 7.088034270107277
        }
      },
      "formatted_address": "Okporo Rd, 475102, Nigeria",
      "google_map_url": "https://maps.google.com?q=5.8191144,7.089611499999999",
      "google_place_id": "ChIJm2D_9Y-pQxARFF0jBiqFcDI"
    }
  },
  {
    "id": "63161",
    "name": "OCHIEDIKE SQ.",
    "registration_area_id": "3420",
    "precise_location": null,
    "abbreviation": "008",
    "units": "008",
    "delimitation": "16/06/08/008",
    "remark": "NEW PU",
    "ward_id": "3420",
    "ward_name": "OGBOKO I",
    "local_government_id": "298",
    "local_government_name": "IDEATO SOUTH",
    "state_id": "16",
    "state_name": "IMO",
    "location": {
      "latitude": 5.838714299999999,
      "longitude": 7.079219999999999,
      "viewport": {
        "northeast": {
          "lat": 5.83986747989272,
          "lng": 7.080564879892722
        },
        "southwest": {
          "lat": 5.837167820107276,
          "lng": 7.077865220107278
        }
      },
      "formatted_address": "R3QH+FMQ, Umuchima Town, Ntueke, Nigeria",
      "google_map_url": "https://maps.google.com?q=5.838714299999999,7.079219999999999",
      "google_place_id": "ChIJ3TtwKRGoQxARoaQlJAmXscM"
    }
  },
  {
    "id": "63162",
    "name": "UNICEF HALL",
    "registration_area_id": "3420",
    "precise_location": null,
    "abbreviation": "009",
    "units": "009",
    "delimitation": "16/06/08/009",
    "remark": "NEW PU",
    "ward_id": "3420",
    "ward_name": "OGBOKO I",
    "local_government_id": "298",
    "local_government_name": "IDEATO SOUTH",
    "state_id": "16",
    "state_name": "IMO",
    "location": null
  }
]