[
  {
    "id": "356724",
    "name": "I.D.C. PRIMARY SCHOOL, ELESU",
    "registration_area_id": "18250",
    "precise_location": null,
    "abbreviation": "001",
    "units": "001",
    "delimitation": "30/20/13/001",
    "remark": "EXISTING PU",
    "ward_id": "18250",
    "ward_name": "OYEDEJI/OLODE/KUTAYI",
    "local_government_id": "647",
    "local_government_name": "LAGELU",
    "state_id": "30",
    "state_name": "OYO",
    "location": {
      "latitude": 7.4528668,
      "longitude": 3.9726367,
      "viewport": {
        "northeast": {
          "lat": 7.454260379892721,
          "lng": 3.973955129892722
        },
        "southwest": {
          "lat": 7.451560720107278,
          "lng": 3.971255470107278
        }
      },
      "formatted_address": "6FV5FX3F+528 1 Otun, Olode Street, Ibadan, Nigeria",
      "google_map_url": "https://maps.google.com?q=7.4528668,3.9726367",
      "google_place_id": "ChIJoRevAj7tORAR0G7DBkX4Spg"
    }
  },
  {
    "id": "356725",
    "name": "OLODE VILLAGE",
    "registration_area_id": "18250",
    "precise_location": null,
    "abbreviation": "002",
    "units": "002",
    "delimitation": "30/20/13/002",
    "remark": "EXISTING PU",
    "ward_id": "18250",
    "ward_name": "OYEDEJI/OLODE/KUTAYI",
    "local_government_id": "647",
    "local_government_name": "LAGELU",
    "state_id": "30",
    "state_name": "OYO",
    "location": {
      "latitude": 7.527080499999999,
      "longitude": 4.0320292,
      "viewport": {
        "northeast": {
          "lat": 7.528609829892722,
          "lng": 4.033315329892722
        },
        "southwest": {
          "lat": 7.525910170107278,
          "lng": 4.030615670107278
        }
      },
      "formatted_address": "200103, Olode, Nigeria",
      "google_map_url": "https://maps.google.com?q=7.527080499999999,4.0320292",
      "google_place_id": "ChIJeZ5hZZ_pORARm2hdv4_s-R4"
    }
  },
  {
    "id": "356726",
    "name": "ALAPE VILLAGE",
    "registration_area_id": "18250",
    "precise_location": null,
    "abbreviation": "003",
    "units": "003",
    "delimitation": "30/20/13/003",
    "remark": "EXISTING PU",
    "ward_id": "18250",
    "ward_name": "OYEDEJI/OLODE/KUTAYI",
    "local_government_id": "647",
    "local_government_name": "LAGELU",
    "state_id": "30",
    "state_name": "OYO",
    "location": {
      "latitude": 7.5717626,
      "longitude": 4.077531,
      "viewport": {
        "northeast": {
          "lat": 7.572703829892722,
          "lng": 4.078749779892722
        },
        "southwest": {
          "lat": 7.570004170107278,
          "lng": 4.076050120107278
        }
      },
      "formatted_address": "200103, Alape, Nigeria",
      "google_map_url": "https://maps.google.com?q=7.5717626,4.077531",
      "google_place_id": "ChIJffs2hqLCORARPxpqdaILIVE"
    }
  },
  {
    "id": "356727",
    "name": "OPEN SPACE, OYEDEJI MARKET",
    "registration_area_id": "18250",
    "precise_location": null,
    "abbreviation": "004",
    "units": "004",
    "delimitation": "30/20/13/004",
    "remark": "EXISTING PU",
    "ward_id": "18250",
    "ward_name": "OYEDEJI/OLODE/KUTAYI",
    "local_government_id": "647",
    "local_government_name": "LAGELU",
    "state_id": "30",
    "state_name": "OYO",
    "location": {
      "latitude": 7.542133599999999,
      "longitude": 4.0500546,
      "viewport": {
        "northeast": {
          "lat": 7.543446479892723,
          "lng": 4.051386629892722
        },
        "southwest": {
          "lat": 7.540746820107279,
          "lng": 4.048686970107278
        }
      },
      "formatted_address": "G3R2+V28, 200103, Elesu, Nigeria",
      "google_map_url": "https://maps.google.com?q=7.542133599999999,4.0500546",
      "google_place_id": "ChIJmTWBxsnpORARN9nctPJ8yaE"
    }
  },
  {
    "id": "356728",
    "name": "KUTAYI VILLAGE",
    "registration_area_id": "18250",
    "precise_location": null,
    "abbreviation": "005",
    "units": "005",
    "delimitation": "30/20/13/005",
    "remark": "EXISTING PU",
    "ward_id": "18250",
    "ward_name": "OYEDEJI/OLODE/KUTAYI",
    "local_government_id": "647",
    "local_government_name": "LAGELU",
    "state_id": "30",
    "state_name": "OYO",
    "location": {
      "latitude": 7.560104399999999,
      "longitude": 4.0593255,
      "viewport": {
        "northeast": {
          "lat": 7.5958863,
          "lng": 4.087674799999999
        },
        "southwest": {
          "lat": 7.5210228,
          "lng": 4.025494
        }
      },
      "formatted_address": "Oyedeji/Olode/Kutayi, Nigeria",
      "google_map_url": "https://maps.google.com?q=7.560104399999999,4.0593255",
      "google_place_id": "ChIJJxEp9DDoORARZK-fu4zrWro"
    }
  },
  {
    "id": "356729",
    "name": "R.C.M. SCHOOL, FAWOLE",
    "registration_area_id": "18250",
    "precise_location": null,
    "abbreviation": "006",
    "units": "006",
    "delimitation": "30/20/13/006",
    "remark": "EXISTING PU",
    "ward_id": "18250",
    "ward_name": "OYEDEJI/OLODE/KUTAYI",
    "local_government_id": "647",
    "local_government_name": "LAGELU",
    "state_id": "30",
    "state_name": "OYO",
    "location": {
      "latitude": 7.559596999999999,
      "longitude": 4.056857,
      "viewport": {
        "northeast": {
          "lat": 7.560989779892722,
          "lng": 4.058139179892723
        },
        "southwest": {
          "lat": 7.558290120107278,
          "lng": 4.055439520107279
        }
      },
      "formatted_address": "6FV6H354+RPQ ward 13 fawole lagelu Oyo, Elesu, Nigeria",
      "google_map_url": "https://maps.google.com?q=7.559596999999999,4.056857",
      "google_place_id": "ChIJt-w_0dPpORAR-8QEU5axCPA"
    }
  },
  {
    "id": "356730",
    "name": "KUFFI II",
    "registration_area_id": "18250",
    "precise_location": null,
    "abbreviation": "007",
    "units": "007",
    "delimitation": "30/20/13/007",
    "remark": "EXISTING PU",
    "ward_id": "18250",
    "ward_name": "OYEDEJI/OLODE/KUTAYI",
    "local_government_id": "647",
    "local_government_name": "LAGELU",
    "state_id": "30",
    "state_name": "OYO",
    "location": {
      "latitude": 7.522598499999999,
      "longitude": 4.0235718,
      "viewport": {
        "northeast": {
          "lat": 7.553251599999999,
          "lng": 4.1047423
        },
        "southwest": {
          "lat": 7.511913499999999,
          "lng": 4.0114547
        }
      },
      "formatted_address": "Apatere/Kuffi/Ogunbode/Ogo, Nigeria",
      "google_map_url": "https://maps.google.com?q=7.522598499999999,4.0235718",
      "google_place_id": "ChIJkSp2XcPpORAR-KvvAR0g7ZU"
    }
  },
  {
    "id": "356731",
    "name": "OPEN SPACE INFRONT OF ST. JOHN ANG CHURCH ELESU",
    "registration_area_id": "18250",
    "precise_location": null,
    "abbreviation": "008",
    "units": "008",
    "delimitation": "30/20/13/008",
    "remark": "NEW PU",
    "ward_id": "18250",
    "ward_name": "OYEDEJI/OLODE/KUTAYI",
    "local_government_id": "647",
    "local_government_name": "LAGELU",
    "state_id": "30",
    "state_name": "OYO",
    "location": null
  },
  {
    "id": "356732",
    "name": "OPEN SPACE INFRONT ST. LUKE ANG CHURCH AJIPA",
    "registration_area_id": "18250",
    "precise_location": null,
    "abbreviation": "009",
    "units": "009",
    "delimitation": "30/20/13/009",
    "remark": "NEW PU",
    "ward_id": "18250",
    "ward_name": "OYEDEJI/OLODE/KUTAYI",
    "local_government_id": "647",
    "local_government_name": "LAGELU",
    "state_id": "30",
    "state_name": "OYO",
    "location": {
      "latitude": 7.2390639,
      "longitude": 5.2036893,
      "viewport": {
        "northeast": {
          "lat": 7.240259379892722,
          "lng": 5.204655629892722
        },
        "southwest": {
          "lat": 7.237559720107278,
          "lng": 5.201955970107278
        }
      },
      "formatted_address": "66Q3+JFG, 340283, Akure, Nigeria",
      "google_map_url": "https://maps.google.com?q=7.2390639,5.2036893",
      "google_place_id": "ChIJUSNUlYuPRxARqLxlXhyNdho"
    }
  },
  {
    "id": "356733",
    "name": "OPEN SPACE INFRONT PADI CATHOLIC CHURCH ALAPE",
    "registration_area_id": "18250",
    "precise_location": null,
    "abbreviation": "010",
    "units": "010",
    "delimitation": "30/20/13/010",
    "remark": "NEW PU",
    "ward_id": "18250",
    "ward_name": "OYEDEJI/OLODE/KUTAYI",
    "local_government_id": "647",
    "local_government_name": "LAGELU",
    "state_id": "30",
    "state_name": "OYO",
    "location": {
      "latitude": 7.462590099999999,
      "longitude": 4.0870958,
      "viewport": {
        "northeast": {
          "lat": 7.464088329892722,
          "lng": 4.088373329892722
        },
        "southwest": {
          "lat": 7.461388670107278,
          "lng": 4.085673670107278
        }
      },
      "formatted_address": "F37P+2RQ, Prayer Palace, Gbanla Area, Ejioku, Lagelu Local Government, Lalupon, Nigeria",
      "google_map_url": "https://maps.google.com?q=7.462590099999999,4.0870958",
      "google_place_id": "ChIJSaWkOR_BORARSCDnGW32h8c"
    }
  },
  {
    "id": "356734",
    "name": "OPEN SPACE OPP ST. PAUL ANG CHURCH OYEDEJI JUNCTION",
    "registration_area_id": "18250",
    "precise_location": null,
    "abbreviation": "011",
    "units": "011",
    "delimitation": "30/20/13/011",
    "remark": "NEW PU",
    "ward_id": "18250",
    "ward_name": "OYEDEJI/OLODE/KUTAYI",
    "local_government_id": "647",
    "local_government_name": "LAGELU",
    "state_id": "30",
    "state_name": "OYO",
    "location": null
  }
]