[
  {
    "id": "79079",
    "name": "ZARIA ROAD I/ K.GIDAN KAURA",
    "registration_area_id": "4189",
    "precise_location": null,
    "abbreviation": "001",
    "units": "001",
    "delimitation": "18/09/10/001",
    "remark": "EXISTING PU",
    "ward_id": "4189",
    "ward_name": "KAWO",
    "local_government_id": "355",
    "local_government_name": "KADUNA NORTH",
    "state_id": "18",
    "state_name": "KADUNA",
    "location": {
      "latitude": 10.5125959,
      "longitude": 7.432012599999999,
      "viewport": {
        "northeast": {
          "lat": 10.51399342989272,
          "lng": 7.433359229892722
        },
        "southwest": {
          "lat": 10.51129377010728,
          "lng": 7.430659570107278
        }
      },
      "formatted_address": "No 13 Katsina road, shagari low cost, opp. psychiatric hospital, Barnawa, Kaduna, Nigeria",
      "google_map_url": "https://maps.google.com?q=10.5125959,7.432012599999999",
      "google_place_id": "ChIJMc9A0Kc1TRAR2EHHGw4d-7Q"
    }
  },
  {
    "id": "79080",
    "name": "ZARIA ROAD II/ KAWO CLINIC GATE",
    "registration_area_id": "4189",
    "precise_location": null,
    "abbreviation": "002",
    "units": "002",
    "delimitation": "18/09/10/002",
    "remark": "EXISTING PU",
    "ward_id": "4189",
    "ward_name": "KAWO",
    "local_government_id": "355",
    "local_government_name": "KADUNA NORTH",
    "state_id": "18",
    "state_name": "KADUNA",
    "location": {
      "latitude": 10.5775169,
      "longitude": 7.449150800000001,
      "viewport": {
        "northeast": {
          "lat": 10.57885852989272,
          "lng": 7.450495679892721
        },
        "southwest": {
          "lat": 10.57615887010728,
          "lng": 7.447796020107277
        }
      },
      "formatted_address": "HCHX+2MF, Delma Rd, Kawo 800283, Kaduna, Nigeria",
      "google_map_url": "https://maps.google.com?q=10.5775169,7.449150800000001",
      "google_place_id": "ChIJJ3xx0--1shERC3AKlioBMmY"
    }
  },
  {
    "id": "79081",
    "name": "KANKARAN ROAD I/ K.GIDAN SHUAIBU Y.",
    "registration_area_id": "4189",
    "precise_location": null,
    "abbreviation": "003",
    "units": "003",
    "delimitation": "18/09/10/003",
    "remark": "EXISTING PU",
    "ward_id": "4189",
    "ward_name": "KAWO",
    "local_government_id": "355",
    "local_government_name": "KADUNA NORTH",
    "state_id": "18",
    "state_name": "KADUNA",
    "location": {
      "latitude": 10.5104795,
      "longitude": 7.416459199999999,
      "viewport": {
        "northeast": {
          "lat": 10.51181817989272,
          "lng": 7.41784342989272
        },
        "southwest": {
          "lat": 10.50911852010728,
          "lng": 7.415143770107276
        }
      },
      "formatted_address": "GC68+5HW, Tudun Wada 800282, Kaduna, Nigeria",
      "google_map_url": "https://maps.google.com?q=10.5104795,7.416459199999999",
      "google_place_id": "ChIJH4PqTOU1TRAR1ZqpYVlWVJY"
    }
  },
  {
    "id": "79082",
    "name": "KANKARAN ROAD II/ NEAR ARGUNGU HOUSE",
    "registration_area_id": "4189",
    "precise_location": null,
    "abbreviation": "004",
    "units": "004",
    "delimitation": "18/09/10/004",
    "remark": "EXISTING PU",
    "ward_id": "4189",
    "ward_name": "KAWO",
    "local_government_id": "355",
    "local_government_name": "KADUNA NORTH",
    "state_id": "18",
    "state_name": "KADUNA",
    "location": {
      "latitude": 10.8129132,
      "longitude": 7.5599054,
      "viewport": {
        "northeast": {
          "lat": 10.81427862989272,
          "lng": 7.561227379892722
        },
        "southwest": {
          "lat": 10.81157897010728,
          "lng": 7.558527720107278
        }
      },
      "formatted_address": "AX4, Zaria Rd, Kaduna, Nigeria",
      "google_map_url": "https://maps.google.com?q=10.8129132,7.5599054",
      "google_place_id": "ChIJe9elchm9shERBSqAwrJDNXs"
    }
  },
  {
    "id": "79083",
    "name": "YAMUSA ROAD/ NEAR ISLAMIYA SCHOOL",
    "registration_area_id": "4189",
    "precise_location": null,
    "abbreviation": "005",
    "units": "005",
    "delimitation": "18/09/10/005",
    "remark": "EXISTING PU",
    "ward_id": "4189",
    "ward_name": "KAWO",
    "local_government_id": "355",
    "local_government_name": "KADUNA NORTH",
    "state_id": "18",
    "state_name": "KADUNA",
    "location": {
      "latitude": 10.599959,
      "longitude": 7.478288,
      "viewport": {
        "northeast": {
          "lat": 10.60134027989272,
          "lng": 7.47963447989272
        },
        "southwest": {
          "lat": 10.59864062010728,
          "lng": 7.476934820107276
        }
      },
      "formatted_address": "36 Makarfi Rd, Kawo 800102, Kaduna, Nigeria",
      "google_map_url": "https://maps.google.com?q=10.599959,7.478288",
      "google_place_id": "ChIJEYd_Vc-1shERurqrZleI7-0"
    }
  },
  {
    "id": "79084",
    "name": "ZANGON AYA ROAD I/ D.1 K.GIDAN LABBO",
    "registration_area_id": "4189",
    "precise_location": null,
    "abbreviation": "006",
    "units": "006",
    "delimitation": "18/09/10/006",
    "remark": "EXISTING PU",
    "ward_id": "4189",
    "ward_name": "KAWO",
    "local_government_id": "355",
    "local_government_name": "KADUNA NORTH",
    "state_id": "18",
    "state_name": "KADUNA",
    "location": {
      "latitude": 10.5801343,
      "longitude": 7.4464981,
      "viewport": {
        "northeast": {
          "lat": 10.58148412989272,
          "lng": 7.447847929892722
        },
        "southwest": {
          "lat": 10.57878447010728,
          "lng": 7.445148270107278
        }
      },
      "formatted_address": "Zangon Aya Rd, Kawo 800283, Ungwan Liman, Nigeria",
      "google_map_url": "https://maps.google.com?q=10.5801343,7.4464981",
      "google_place_id": "ChIJkx9hwIS1shERmChvn_H22zo"
    }
  },
  {
    "id": "79085",
    "name": "ZANGON AYA ROAD II/ NO. 5 ZANGON AYA ROAD",
    "registration_area_id": "4189",
    "precise_location": null,
    "abbreviation": "007",
    "units": "007",
    "delimitation": "18/09/10/007",
    "remark": "EXISTING PU",
    "ward_id": "4189",
    "ward_name": "KAWO",
    "local_government_id": "355",
    "local_government_name": "KADUNA NORTH",
    "state_id": "18",
    "state_name": "KADUNA",
    "location": null
  },
  {
    "id": "79086",
    "name": "KAFIN SOLE RAD I/ K.GIDAN PANEL BEATER",
    "registration_area_id": "4189",
    "precise_location": null,
    "abbreviation": "008",
    "units": "008",
    "delimitation": "18/09/10/008",
    "remark": "EXISTING PU",
    "ward_id": "4189",
    "ward_name": "KAWO",
    "local_government_id": "355",
    "local_government_name": "KADUNA NORTH",
    "state_id": "18",
    "state_name": "KADUNA",
    "location": {
      "latitude": 11.0855364,
      "longitude": 7.7199587,
      "viewport": {
        "northeast": {
          "lat": 11.08689902989272,
          "lng": 7.721273579892721
        },
        "southwest": {
          "lat": 11.08419937010728,
          "lng": 7.718573920107278
        }
      },
      "formatted_address": "Dan Magaji, NEW GANUWA GARAGE DANMAGAJI ZARIA Zaria, Kaduna, Nigeria",
      "google_map_url": "https://maps.google.com?q=11.0855364,7.7199587",
      "google_place_id": "ChIJzw_r7raDshERpWOo0eKZTDI"
    }
  },
  {
    "id": "79087",
    "name": "KAFIN SOLE RAD II/ K.GIDAN MAIDOKI",
    "registration_area_id": "4189",
    "precise_location": null,
    "abbreviation": "009",
    "units": "009",
    "delimitation": "18/09/10/009",
    "remark": "EXISTING PU",
    "ward_id": "4189",
    "ward_name": "KAWO",
    "local_government_id": "355",
    "local_government_name": "KADUNA NORTH",
    "state_id": "18",
    "state_name": "KADUNA",
    "location": {
      "latitude": 10.6124983,
      "longitude": 7.3847484,
      "viewport": {
        "northeast": {
          "lat": 10.61548,
          "lng": 7.3874349
        },
        "southwest": {
          "lat": 10.608813,
          "lng": 7.381602000000001
        }
      },
      "formatted_address": "802151, Kaduna, Nigeria",
      "google_map_url": "https://maps.google.com?q=10.6124983,7.3847484",
      "google_place_id": "ChIJx4-JA9DLshERiwAS7-YevgM"
    }
  },
  {
    "id": "79088",
    "name": "DAUDAWA ROAD BY K/G ALH. TSALHA",
    "registration_area_id": "4189",
    "precise_location": null,
    "abbreviation": "010",
    "units": "010",
    "delimitation": "18/09/10/010",
    "remark": "EXISTING PU",
    "ward_id": "4189",
    "ward_name": "KAWO",
    "local_government_id": "355",
    "local_government_name": "KADUNA NORTH",
    "state_id": "18",
    "state_name": "KADUNA",
    "location": {
      "latitude": 10.513559,
      "longitude": 7.4098089,
      "viewport": {
        "northeast": {
          "lat": 10.51494862989272,
          "lng": 7.411173379892722
        },
        "southwest": {
          "lat": 10.51224897010728,
          "lng": 7.408473720107278
        }
      },
      "formatted_address": "GC75+CWP, Tudun Wada 800282, Kaduna, Nigeria",
      "google_map_url": "https://maps.google.com?q=10.513559,7.4098089",
      "google_place_id": "ChIJ34mlv681TRARt7OjInesyhI"
    }
  },
  {
    "id": "79089",
    "name": "KAWO ROAD I/ BY HALLIRU USMAN SHOP",
    "registration_area_id": "4189",
    "precise_location": null,
    "abbreviation": "011",
    "units": "011",
    "delimitation": "18/09/10/011",
    "remark": "EXISTING PU",
    "ward_id": "4189",
    "ward_name": "KAWO",
    "local_government_id": "355",
    "local_government_name": "KADUNA NORTH",
    "state_id": "18",
    "state_name": "KADUNA",
    "location": null
  },
  {
    "id": "79090",
    "name": "KAWO ROAD II/ OPPOSITE AREA COURT",
    "registration_area_id": "4189",
    "precise_location": null,
    "abbreviation": "012",
    "units": "012",
    "delimitation": "18/09/10/012",
    "remark": "EXISTING PU",
    "ward_id": "4189",
    "ward_name": "KAWO",
    "local_government_id": "355",
    "local_government_name": "KADUNA NORTH",
    "state_id": "18",
    "state_name": "KADUNA",
    "location": {
      "latitude": 10.5851838,
      "longitude": 7.4467406,
      "viewport": {
        "northeast": {
          "lat": 10.58654117989272,
          "lng": 7.448068029892723
        },
        "southwest": {
          "lat": 10.58384152010728,
          "lng": 7.445368370107279
        }
      },
      "formatted_address": "3 Zaria Rd, Kawo 800283, Kaduna, Nigeria",
      "google_map_url": "https://maps.google.com?q=10.5851838,7.4467406",
      "google_place_id": "ChIJ78QgbwC1shERB5EI7IAoRT4"
    }
  },
  {
    "id": "79091",
    "name": "DARMA ROAD/ OPPOSITE HARUNA HOUSE",
    "registration_area_id": "4189",
    "precise_location": null,
    "abbreviation": "013",
    "units": "013",
    "delimitation": "18/09/10/013",
    "remark": "EXISTING PU",
    "ward_id": "4189",
    "ward_name": "KAWO",
    "local_government_id": "355",
    "local_government_name": "KADUNA NORTH",
    "state_id": "18",
    "state_name": "KADUNA",
    "location": {
      "latitude": 10.5779882,
      "longitude": 7.446905699999999,
      "viewport": {
        "northeast": {
          "lat": 10.57931117989272,
          "lng": 7.448332529892722
        },
        "southwest": {
          "lat": 10.57661152010728,
          "lng": 7.445632870107278
        }
      },
      "formatted_address": "U1 Darma Rd, Kawo 800283, Kaduna, Nigeria",
      "google_map_url": "https://maps.google.com?q=10.5779882,7.446905699999999",
      "google_place_id": "ChIJyexAUrW1shERd-r4sOO-C1g"
    }
  },
  {
    "id": "79092",
    "name": "MARWA ROAD F/ NO. 1 MARWA ROAD",
    "registration_area_id": "4189",
    "precise_location": null,
    "abbreviation": "014",
    "units": "014",
    "delimitation": "18/09/10/014",
    "remark": "EXISTING PU",
    "ward_id": "4189",
    "ward_name": "KAWO",
    "local_government_id": "355",
    "local_government_name": "KADUNA NORTH",
    "state_id": "18",
    "state_name": "KADUNA",
    "location": {
      "latitude": 10.5142085,
      "longitude": 7.431271199999999,
      "viewport": {
        "northeast": {
          "lat": 10.51556187989272,
          "lng": 7.432668429892723
        },
        "southwest": {
          "lat": 10.51286222010728,
          "lng": 7.429968770107279
        }
      },
      "formatted_address": "1, Sasa Marke, Ibadan St, Kaduna, Nigeria",
      "google_map_url": "https://maps.google.com?q=10.5142085,7.431271199999999",
      "google_place_id": "ChIJa-sLzIo1TRARjb4ETdEkjJ0"
    }
  },
  {
    "id": "79093",
    "name": "GDSS KAWO I",
    "registration_area_id": "4189",
    "precise_location": null,
    "abbreviation": "015",
    "units": "015",
    "delimitation": "18/09/10/015",
    "remark": "EXISTING PU",
    "ward_id": "4189",
    "ward_name": "KAWO",
    "local_government_id": "355",
    "local_government_name": "KADUNA NORTH",
    "state_id": "18",
    "state_name": "KADUNA",
    "location": {
      "latitude": 10.5854453,
      "longitude": 7.474316699999999,
      "viewport": {
        "northeast": {
          "lat": 10.58679332989272,
          "lng": 7.475686079892722
        },
        "southwest": {
          "lat": 10.58409367010728,
          "lng": 7.472986420107278
        }
      },
      "formatted_address": "7F29HFPF+5Q2, Rafin Guza Rd, Kawo 800102, Kaduna, Nigeria",
      "google_map_url": "https://maps.google.com?q=10.5854453,7.474316699999999",
      "google_place_id": "ChIJk0RAO421shERkKurri89zhM"
    }
  },
  {
    "id": "79094",
    "name": "GDSS KAWO II",
    "registration_area_id": "4189",
    "precise_location": null,
    "abbreviation": "016",
    "units": "016",
    "delimitation": "18/09/10/016",
    "remark": "EXISTING PU",
    "ward_id": "4189",
    "ward_name": "KAWO",
    "local_government_id": "355",
    "local_government_name": "KADUNA NORTH",
    "state_id": "18",
    "state_name": "KADUNA",
    "location": {
      "latitude": 10.572765,
      "longitude": 7.4508152,
      "viewport": {
        "northeast": {
          "lat": 10.57410837989272,
          "lng": 7.452166829892722
        },
        "southwest": {
          "lat": 10.57140872010728,
          "lng": 7.449467170107278
        }
      },
      "formatted_address": "HFF2+484, G.G.S.S. Kawo Rd, Ungwan Dosa 800283, Kaduna, Nigeria",
      "google_map_url": "https://maps.google.com?q=10.572765,7.4508152",
      "google_place_id": "ChIJ6fiGdM21shERUdPzQKffv5w"
    }
  },
  {
    "id": "79095",
    "name": "GWARI CLOSE/ NO. 133 GWARI CRESCENT",
    "registration_area_id": "4189",
    "precise_location": null,
    "abbreviation": "017",
    "units": "017",
    "delimitation": "18/09/10/017",
    "remark": "EXISTING PU",
    "ward_id": "4189",
    "ward_name": "KAWO",
    "local_government_id": "355",
    "local_government_name": "KADUNA NORTH",
    "state_id": "18",
    "state_name": "KADUNA",
    "location": {
      "latitude": 10.5228484,
      "longitude": 7.455720400000001,
      "viewport": {
        "northeast": {
          "lat": 10.52419822989272,
          "lng": 7.457070229892723
        },
        "southwest": {
          "lat": 10.52149857010728,
          "lng": 7.454370570107279
        }
      },
      "formatted_address": "Gwari Cres, Ungwan Rimi 802125, Nasarawa, Nigeria",
      "google_map_url": "https://maps.google.com?q=10.5228484,7.455720400000001",
      "google_place_id": "ChIJ88tBJ7dKTRAR-2kRnlXmrTM"
    }
  },
  {
    "id": "79096",
    "name": "LIKO GWARI I/ K/GIDAN MAI UNGUWA",
    "registration_area_id": "4189",
    "precise_location": null,
    "abbreviation": "018",
    "units": "018",
    "delimitation": "18/09/10/018",
    "remark": "EXISTING PU",
    "ward_id": "4189",
    "ward_name": "KAWO",
    "local_government_id": "355",
    "local_government_name": "KADUNA NORTH",
    "state_id": "18",
    "state_name": "KADUNA",
    "location": null
  },
  {
    "id": "79097",
    "name": "LIKO GWARI II/ L.E.A. UNG. GWARI",
    "registration_area_id": "4189",
    "precise_location": null,
    "abbreviation": "019",
    "units": "019",
    "delimitation": "18/09/10/019",
    "remark": "EXISTING PU",
    "ward_id": "4189",
    "ward_name": "KAWO",
    "local_government_id": "355",
    "local_government_name": "KADUNA NORTH",
    "state_id": "18",
    "state_name": "KADUNA",
    "location": {
      "latitude": 10.58364,
      "longitude": 7.44837,
      "viewport": {
        "northeast": {
          "lat": 10.58500402989272,
          "lng": 7.449724629892722
        },
        "southwest": {
          "lat": 10.58230437010728,
          "lng": 7.447024970107278
        }
      },
      "formatted_address": "HCMX+F85, Birnin Gwari Road, Kaduna North, Kaduna North, Ungwan Liman, Nigeria",
      "google_map_url": "https://maps.google.com?q=10.58364,7.44837",
      "google_place_id": "ChIJU3q-t4S1shERqQaVrIOQksk"
    }
  },
  {
    "id": "79098",
    "name": "UNG. DOGO/ L.E.A. UNG. GWARI",
    "registration_area_id": "4189",
    "precise_location": null,
    "abbreviation": "020",
    "units": "020",
    "delimitation": "18/09/10/020",
    "remark": "EXISTING PU",
    "ward_id": "4189",
    "ward_name": "KAWO",
    "local_government_id": "355",
    "local_government_name": "KADUNA NORTH",
    "state_id": "18",
    "state_name": "KADUNA",
    "location": {
      "latitude": 10.5723321,
      "longitude": 7.458419999999999,
      "viewport": {
        "northeast": {
          "lat": 10.5761274,
          "lng": 7.473287600000001
        },
        "southwest": {
          "lat": 10.5659429,
          "lng": 7.442688299999999
        }
      },
      "formatted_address": "Ungwan Dosa, Kaduna, Nigeria",
      "google_map_url": "https://maps.google.com?q=10.5723321,7.458419999999999",
      "google_place_id": "ChIJB9K_nXS1shERXRKZZsVeOUA"
    }
  },
  {
    "id": "79099",
    "name": "MAI TURMI STREET/ ROAD/ K/GIDAN MAITURMI",
    "registration_area_id": "4189",
    "precise_location": null,
    "abbreviation": "021",
    "units": "021",
    "delimitation": "18/09/10/021",
    "remark": "EXISTING PU",
    "ward_id": "4189",
    "ward_name": "KAWO",
    "local_government_id": "355",
    "local_government_name": "KADUNA NORTH",
    "state_id": "18",
    "state_name": "KADUNA",
    "location": {
      "latitude": 10.4754966,
      "longitude": 7.383045,
      "viewport": {
        "northeast": {
          "lat": 10.47681472989272,
          "lng": 7.384389829892721
        },
        "southwest": {
          "lat": 10.47411507010728,
          "lng": 7.381690170107277
        }
      },
      "formatted_address": "F9GM+56V, Turaki Street, Kudenda 800104, Kaduna, Nigeria",
      "google_map_url": "https://maps.google.com?q=10.4754966,7.383045",
      "google_place_id": "ChIJ6_bTc0U0TRARZshbOXK0Law"
    }
  },
  {
    "id": "79100",
    "name": "AIRPORT UMAR STREET/ L.E.A. KAWO",
    "registration_area_id": "4189",
    "precise_location": null,
    "abbreviation": "022",
    "units": "022",
    "delimitation": "18/09/10/022",
    "remark": "EXISTING PU",
    "ward_id": "4189",
    "ward_name": "KAWO",
    "local_government_id": "355",
    "local_government_name": "KADUNA NORTH",
    "state_id": "18",
    "state_name": "KADUNA",
    "location": {
      "latitude": 10.5177431,
      "longitude": 7.435068999999999,
      "viewport": {
        "northeast": {
          "lat": 10.51912437989272,
          "lng": 7.436417579892723
        },
        "southwest": {
          "lat": 10.51642472010728,
          "lng": 7.433717920107279
        }
      },
      "formatted_address": "BLBN4, Ibrahim Taiwo Road Saye Plaza, beside AA Rano Filling Station, Kaduna, Nigeria",
      "google_map_url": "https://maps.google.com?q=10.5177431,7.435068999999999",
      "google_place_id": "ChIJTYuM7JU1TRAR8s8gCN_k3j0"
    }
  },
  {
    "id": "79101",
    "name": "L.E.A. KAWO",
    "registration_area_id": "4189",
    "precise_location": null,
    "abbreviation": "023",
    "units": "023",
    "delimitation": "18/09/10/023",
    "remark": "EXISTING PU",
    "ward_id": "4189",
    "ward_name": "KAWO",
    "local_government_id": "355",
    "local_government_name": "KADUNA NORTH",
    "state_id": "18",
    "state_name": "KADUNA",
    "location": {
      "latitude": 10.5781565,
      "longitude": 7.443420499999999,
      "viewport": {
        "northeast": {
          "lat": 10.57950547989272,
          "lng": 7.44479042989272
        },
        "southwest": {
          "lat": 10.57680582010728,
          "lng": 7.442090770107276
        }
      },
      "formatted_address": "HCHV+797, Hayan Banki 800283, Kaduna, Nigeria",
      "google_map_url": "https://maps.google.com?q=10.5781565,7.443420499999999",
      "google_place_id": "ChIJKQ9KsL21shERtqi2jYebwzE"
    }
  },
  {
    "id": "79102",
    "name": "NAF QUARTERS I/ K/GIDAN UMARU MURTALA",
    "registration_area_id": "4189",
    "precise_location": null,
    "abbreviation": "024",
    "units": "024",
    "delimitation": "18/09/10/024",
    "remark": "EXISTING PU",
    "ward_id": "4189",
    "ward_name": "KAWO",
    "local_government_id": "355",
    "local_government_name": "KADUNA NORTH",
    "state_id": "18",
    "state_name": "KADUNA",
    "location": {
      "latitude": 10.5550294,
      "longitude": 7.4745798,
      "viewport": {
        "northeast": {
          "lat": 10.55637437989272,
          "lng": 7.475912579892722
        },
        "southwest": {
          "lat": 10.55367472010728,
          "lng": 7.473212920107277
        }
      },
      "formatted_address": "HF4F+2R8, Malali 800283, Kaduna, Nigeria",
      "google_map_url": "https://maps.google.com?q=10.5550294,7.4745798",
      "google_place_id": "ChIJBU_4yO61shERZeKWAXmT5Mc"
    }
  },
  {
    "id": "79103",
    "name": "KUDANSA ROAD I/ K/GIDAN ALKALI BEHIND",
    "registration_area_id": "4189",
    "precise_location": null,
    "abbreviation": "025",
    "units": "025",
    "delimitation": "18/09/10/025",
    "remark": "EXISTING PU",
    "ward_id": "4189",
    "ward_name": "KAWO",
    "local_government_id": "355",
    "local_government_name": "KADUNA NORTH",
    "state_id": "18",
    "state_name": "KADUNA",
    "location": {
      "latitude": 10.521189,
      "longitude": 7.3968217,
      "viewport": {
        "northeast": {
          "lat": 10.52236627989272,
          "lng": 7.398135929892722
        },
        "southwest": {
          "lat": 10.51966662010728,
          "lng": 7.395436270107278
        }
      },
      "formatted_address": "Ms A1, Queen Amina Road, Kaduna, Nigeria",
      "google_map_url": "https://maps.google.com?q=10.521189,7.3968217",
      "google_place_id": "ChIJ2Vd274E1TRAR30Cudj6WVEM"
    }
  },
  {
    "id": "79104",
    "name": "KUDANSA ROAD II/ BY CARPENTER KAWO MARKET",
    "registration_area_id": "4189",
    "precise_location": null,
    "abbreviation": "026",
    "units": "026",
    "delimitation": "18/09/10/026",
    "remark": "EXISTING PU",
    "ward_id": "4189",
    "ward_name": "KAWO",
    "local_government_id": "355",
    "local_government_name": "KADUNA NORTH",
    "state_id": "18",
    "state_name": "KADUNA",
    "location": {
      "latitude": 10.57661,
      "longitude": 7.45101,
      "viewport": {
        "northeast": {
          "lat": 10.5988354,
          "lng": 7.476399799999998
        },
        "southwest": {
          "lat": 10.573642,
          "lng": 7.443774299999999
        }
      },
      "formatted_address": "Kawo, Kaduna, Nigeria",
      "google_map_url": "https://maps.google.com?q=10.57661,7.45101",
      "google_place_id": "ChIJLcyM13e1shER_sF5hPPyQlM"
    }
  },
  {
    "id": "79105",
    "name": "NASARAWA ROAD/ NASARAWA BY ROAD TO KAWO",
    "registration_area_id": "4189",
    "precise_location": null,
    "abbreviation": "027",
    "units": "027",
    "delimitation": "18/09/10/027",
    "remark": "EXISTING PU",
    "ward_id": "4189",
    "ward_name": "KAWO",
    "local_government_id": "355",
    "local_government_name": "KADUNA NORTH",
    "state_id": "18",
    "state_name": "KADUNA",
    "location": {
      "latitude": 10.5511836,
      "longitude": 7.4520981,
      "viewport": {
        "northeast": {
          "lat": 10.55255012989272,
          "lng": 7.453445779892721
        },
        "southwest": {
          "lat": 10.54985047010728,
          "lng": 7.450746120107278
        }
      },
      "formatted_address": "18, Katuru Road, U/Sariki, Kawo, Nigeria",
      "google_map_url": "https://maps.google.com?q=10.5511836,7.4520981",
      "google_place_id": "ChIJsbDkakK1shERz9-nXt6Y0qA"
    }
  },
  {
    "id": "79106",
    "name": "KAKURI ROAD/ K/GIDAN SABO MAI JAKI",
    "registration_area_id": "4189",
    "precise_location": null,
    "abbreviation": "028",
    "units": "028",
    "delimitation": "18/09/10/028",
    "remark": "EXISTING PU",
    "ward_id": "4189",
    "ward_name": "KAWO",
    "local_government_id": "355",
    "local_government_name": "KADUNA NORTH",
    "state_id": "18",
    "state_name": "KADUNA",
    "location": {
      "latitude": 10.5848598,
      "longitude": 7.4479268,
      "viewport": {
        "northeast": {
          "lat": 10.58621282989272,
          "lng": 7.449262629892721
        },
        "southwest": {
          "lat": 10.58351317010728,
          "lng": 7.446562970107277
        }
      },
      "formatted_address": "Motor Park, Kawo, Kaduna, Nigeria",
      "google_map_url": "https://maps.google.com?q=10.5848598,7.4479268",
      "google_place_id": "ChIJ0casX4W1shER9wxCJ9PC4TM"
    }
  },
  {
    "id": "79107",
    "name": "MAKARFI ROAD/ K/GIDAN HAJIYA BEBI",
    "registration_area_id": "4189",
    "precise_location": null,
    "abbreviation": "029",
    "units": "029",
    "delimitation": "18/09/10/029",
    "remark": "EXISTING PU",
    "ward_id": "4189",
    "ward_name": "KAWO",
    "local_government_id": "355",
    "local_government_name": "KADUNA NORTH",
    "state_id": "18",
    "state_name": "KADUNA",
    "location": {
      "latitude": 10.5159153,
      "longitude": 7.431948399999999,
      "viewport": {
        "northeast": {
          "lat": 10.51730492989272,
          "lng": 7.433296079892721
        },
        "southwest": {
          "lat": 10.51460527010728,
          "lng": 7.430596420107277
        }
      },
      "formatted_address": "Tudun Wada Old Kano Road Makarfi Makarfi, Tudun Wada, Kaduna, Nigeria",
      "google_map_url": "https://maps.google.com?q=10.5159153,7.431948399999999",
      "google_place_id": "ChIJ_UPqryA1TRAR4CisGn6wSCA"
    }
  },
  {
    "id": "79108",
    "name": "AHMED AMINU STREET/ OPPOSITE IBEWA CLINIC",
    "registration_area_id": "4189",
    "precise_location": null,
    "abbreviation": "030",
    "units": "030",
    "delimitation": "18/09/10/030",
    "remark": "EXISTING PU",
    "ward_id": "4189",
    "ward_name": "KAWO",
    "local_government_id": "355",
    "local_government_name": "KADUNA NORTH",
    "state_id": "18",
    "state_name": "KADUNA",
    "location": {
      "latitude": 10.5833812,
      "longitude": 7.447666600000001,
      "viewport": {
        "northeast": {
          "lat": 10.58474312989272,
          "lng": 7.448978479892722
        },
        "southwest": {
          "lat": 10.58204347010728,
          "lng": 7.446278820107278
        }
      },
      "formatted_address": "No. C5, Zangon Aya Rd, Kawo, Kaduna, Nigeria",
      "google_map_url": "https://maps.google.com?q=10.5833812,7.447666600000001",
      "google_place_id": "ChIJi_GicpS1shERfSEb37b2y7I"
    }
  },
  {
    "id": "79109",
    "name": "BAJJU STREET/ FOUNDATION N/PRI. SCH.",
    "registration_area_id": "4189",
    "precise_location": null,
    "abbreviation": "031",
    "units": "031",
    "delimitation": "18/09/10/031",
    "remark": "EXISTING PU",
    "ward_id": "4189",
    "ward_name": "KAWO",
    "local_government_id": "355",
    "local_government_name": "KADUNA NORTH",
    "state_id": "18",
    "state_name": "KADUNA",
    "location": {
      "latitude": 10.5810915,
      "longitude": 7.4601199,
      "viewport": {
        "northeast": {
          "lat": 10.58245442989272,
          "lng": 7.46139692989272
        },
        "southwest": {
          "lat": 10.57975477010728,
          "lng": 7.458697270107276
        }
      },
      "formatted_address": "Bajju Street, New Extension, Kawo 800211, Kaduna, Nigeria",
      "google_map_url": "https://maps.google.com?q=10.5810915,7.4601199",
      "google_place_id": "ChIJ4S8fZp-1shER4ENK2TuUUwM"
    }
  },
  {
    "id": "79110",
    "name": "KUBAU ROAD/ RAFIN GUZA JUNCTION",
    "registration_area_id": "4189",
    "precise_location": null,
    "abbreviation": "032",
    "units": "032",
    "delimitation": "18/09/10/032",
    "remark": "EXISTING PU",
    "ward_id": "4189",
    "ward_name": "KAWO",
    "local_government_id": "355",
    "local_government_name": "KADUNA NORTH",
    "state_id": "18",
    "state_name": "KADUNA",
    "location": null
  },
  {
    "id": "79111",
    "name": "SABON BIRNIN STREET/ NEW EXTENSION JUNCTION",
    "registration_area_id": "4189",
    "precise_location": null,
    "abbreviation": "033",
    "units": "033",
    "delimitation": "18/09/10/033",
    "remark": "EXISTING PU",
    "ward_id": "4189",
    "ward_name": "KAWO",
    "local_government_id": "355",
    "local_government_name": "KADUNA NORTH",
    "state_id": "18",
    "state_name": "KADUNA",
    "location": {
      "latitude": 10.5923488,
      "longitude": 7.466602099999999,
      "viewport": {
        "northeast": {
          "lat": 10.59366082989272,
          "lng": 7.467988679892721
        },
        "southwest": {
          "lat": 10.59096117010728,
          "lng": 7.465289020107277
        }
      },
      "formatted_address": "HFR8+WJQ, Kawo 800102, Kaduna, Nigeria",
      "google_map_url": "https://maps.google.com?q=10.5923488,7.466602099999999",
      "google_place_id": "ChIJ_1-KkaC1shERkLi3suW6Gws"
    }
  },
  {
    "id": "79112",
    "name": "YANTUKWANE/ K/GIDAN BUKAR MALLAM",
    "registration_area_id": "4189",
    "precise_location": null,
    "abbreviation": "034",
    "units": "034",
    "delimitation": "18/09/10/034",
    "remark": "EXISTING PU",
    "ward_id": "4189",
    "ward_name": "KAWO",
    "local_government_id": "355",
    "local_government_name": "KADUNA NORTH",
    "state_id": "18",
    "state_name": "KADUNA",
    "location": {
      "latitude": 10.5107067,
      "longitude": 7.4260761,
      "viewport": {
        "northeast": {
          "lat": 10.51205652989272,
          "lng": 7.427425929892721
        },
        "southwest": {
          "lat": 10.50935687010728,
          "lng": 7.424726270107278
        }
      },
      "formatted_address": "1A, Benin Street, Zaria Rd, Kaduna, Nigeria",
      "google_map_url": "https://maps.google.com?q=10.5107067,7.4260761",
      "google_place_id": "ChIJ6W9EokI1TRARXYkzA20c3E8"
    }
  },
  {
    "id": "79113",
    "name": "TSOHUWAR KWATA I/ K/GIDAN MAI UNGUWA",
    "registration_area_id": "4189",
    "precise_location": null,
    "abbreviation": "035",
    "units": "035",
    "delimitation": "18/09/10/035",
    "remark": "EXISTING PU",
    "ward_id": "4189",
    "ward_name": "KAWO",
    "local_government_id": "355",
    "local_government_name": "KADUNA NORTH",
    "state_id": "18",
    "state_name": "KADUNA",
    "location": {
      "latitude": 10.5289938,
      "longitude": 7.4364751,
      "viewport": {
        "northeast": {
          "lat": 10.53057352989272,
          "lng": 7.437815829892722
        },
        "southwest": {
          "lat": 10.52787387010728,
          "lng": 7.435116170107278
        }
      },
      "formatted_address": "No. 16 Muhammadu Buhari Way, adjacent to Bank of Industry, City Centre 802125, Kaduna, Nigeria",
      "google_map_url": "https://maps.google.com?q=10.5289938,7.4364751",
      "google_place_id": "ChIJwdoUgkg1TRARi4ogX94X9Fo"
    }
  },
  {
    "id": "79114",
    "name": "TSOHUWAR KWATA II/ T.V. VIEWING CENTRE",
    "registration_area_id": "4189",
    "precise_location": null,
    "abbreviation": "036",
    "units": "036",
    "delimitation": "18/09/10/036",
    "remark": "EXISTING PU",
    "ward_id": "4189",
    "ward_name": "KAWO",
    "local_government_id": "355",
    "local_government_name": "KADUNA NORTH",
    "state_id": "18",
    "state_name": "KADUNA",
    "location": {
      "latitude": 10.5037591,
      "longitude": 7.411044899999999,
      "viewport": {
        "northeast": {
          "lat": 10.50509267989272,
          "lng": 7.41240967989272
        },
        "southwest": {
          "lat": 10.50239302010728,
          "lng": 7.409710020107276
        }
      },
      "formatted_address": "GC36+FCQ, Tudun Wada 800282, Kaduna, Nigeria",
      "google_map_url": "https://maps.google.com?q=10.5037591,7.411044899999999",
      "google_place_id": "ChIJk4JO5io1TRAR4jA8zVqdkUk"
    }
  },
  {
    "id": "79115",
    "name": "RAFIN GUZA I/ K/GIDAN USMAN",
    "registration_area_id": "4189",
    "precise_location": null,
    "abbreviation": "037",
    "units": "037",
    "delimitation": "18/09/10/037",
    "remark": "EXISTING PU",
    "ward_id": "4189",
    "ward_name": "KAWO",
    "local_government_id": "355",
    "local_government_name": "KADUNA NORTH",
    "state_id": "18",
    "state_name": "KADUNA",
    "location": {
      "latitude": 10.5836391,
      "longitude": 7.464648099999999,
      "viewport": {
        "northeast": {
          "lat": 10.58498892989272,
          "lng": 7.465997929892721
        },
        "southwest": {
          "lat": 10.58228927010728,
          "lng": 7.463298270107277
        }
      },
      "formatted_address": "Rafin Guza Rd, Kawo 800102, Nigeria",
      "google_map_url": "https://maps.google.com?q=10.5836391,7.464648099999999",
      "google_place_id": "ChIJayzljqO1shER--qK0PnmRmc"
    }
  },
  {
    "id": "79116",
    "name": "RAFIN GUZA II/ BY BUS STOP",
    "registration_area_id": "4189",
    "precise_location": null,
    "abbreviation": "038",
    "units": "038",
    "delimitation": "18/09/10/038",
    "remark": "EXISTING PU",
    "ward_id": "4189",
    "ward_name": "KAWO",
    "local_government_id": "355",
    "local_government_name": "KADUNA NORTH",
    "state_id": "18",
    "state_name": "KADUNA",
    "location": {
      "latitude": 10.5916788,
      "longitude": 7.4664817,
      "viewport": {
        "northeast": {
          "lat": 10.59307022989272,
          "lng": 7.467827829892721
        },
        "southwest": {
          "lat": 10.59037057010728,
          "lng": 7.465128170107278
        }
      },
      "formatted_address": "Rafin guza, Sabon malalin Gabas, Kawo, Nigeria",
      "google_map_url": "https://maps.google.com?q=10.5916788,7.4664817",
      "google_place_id": "ChIJRSxMlbu1shER2D73hykbpx0"
    }
  },
  {
    "id": "79117",
    "name": "RAFIN GUZA III/ K/GIDAN MAI UNGUWA",
    "registration_area_id": "4189",
    "precise_location": null,
    "abbreviation": "039",
    "units": "039",
    "delimitation": "18/09/10/039",
    "remark": "EXISTING PU",
    "ward_id": "4189",
    "ward_name": "KAWO",
    "local_government_id": "355",
    "local_government_name": "KADUNA NORTH",
    "state_id": "18",
    "state_name": "KADUNA",
    "location": null
  },
  {
    "id": "79118",
    "name": "RAFIN GUZA III",
    "registration_area_id": "4189",
    "precise_location": null,
    "abbreviation": "040",
    "units": "040",
    "delimitation": "18/09/10/040",
    "remark": "EXISTING PU",
    "ward_id": "4189",
    "ward_name": "KAWO",
    "local_government_id": "355",
    "local_government_name": "KADUNA NORTH",
    "state_id": "18",
    "state_name": "KADUNA",
    "location": {
      "latitude": 10.5916788,
      "longitude": 7.4664817,
      "viewport": {
        "northeast": {
          "lat": 10.59307022989272,
          "lng": 7.467827829892721
        },
        "southwest": {
          "lat": 10.59037057010728,
          "lng": 7.465128170107278
        }
      },
      "formatted_address": "Rafin guza, Sabon malalin Gabas, Kawo, Nigeria",
      "google_map_url": "https://maps.google.com?q=10.5916788,7.4664817",
      "google_place_id": "ChIJRSxMlbu1shER2D73hykbpx0"
    }
  },
  {
    "id": "79119",
    "name": "AIRPORT/ L.E.A. KAWO",
    "registration_area_id": "4189",
    "precise_location": null,
    "abbreviation": "041",
    "units": "041",
    "delimitation": "18/09/10/041",
    "remark": "EXISTING PU",
    "ward_id": "4189",
    "ward_name": "KAWO",
    "local_government_id": "355",
    "local_government_name": "KADUNA NORTH",
    "state_id": "18",
    "state_name": "KADUNA",
    "location": {
      "latitude": 10.5935337,
      "longitude": 7.443145400000001,
      "viewport": {
        "northeast": {
          "lat": 10.59439172989272,
          "lng": 7.447342549999997
        },
        "southwest": {
          "lat": 10.59169207010728,
          "lng": 7.441746350000003
        }
      },
      "formatted_address": "HCVV+C76, Rafin Kura 800283, Kaduna, Nigeria",
      "google_map_url": "https://maps.google.com?q=10.5935337,7.443145400000001",
      "google_place_id": "ChIJK-zvrDi1shERhJ_57seweVo"
    }
  },
  {
    "id": "79120",
    "name": "ZARIA RD. BY FIRST BANK",
    "registration_area_id": "4189",
    "precise_location": null,
    "abbreviation": "042",
    "units": "042",
    "delimitation": "18/09/10/042",
    "remark": "NEW PU",
    "ward_id": "4189",
    "ward_name": "KAWO",
    "local_government_id": "355",
    "local_government_name": "KADUNA NORTH",
    "state_id": "18",
    "state_name": "KADUNA",
    "location": {
      "latitude": 10.5348874,
      "longitude": 7.4274617,
      "viewport": {
        "northeast": {
          "lat": 10.53623362989272,
          "lng": 7.428628979892722
        },
        "southwest": {
          "lat": 10.53353397010728,
          "lng": 7.425929320107278
        }
      },
      "formatted_address": "14 Bank Rd, City Centre 800283, Kaduna, Nigeria",
      "google_map_url": "https://maps.google.com?q=10.5348874,7.4274617",
      "google_place_id": "ChIJqU6Ci63KshERsVvXaCk0kKw"
    }
  },
  {
    "id": "79121",
    "name": "KOFAR GIDAN MAIANGUWA",
    "registration_area_id": "4189",
    "precise_location": null,
    "abbreviation": "043",
    "units": "043",
    "delimitation": "18/09/10/043",
    "remark": "NEW PU",
    "ward_id": "4189",
    "ward_name": "KAWO",
    "local_government_id": "355",
    "local_government_name": "KADUNA NORTH",
    "state_id": "18",
    "state_name": "KADUNA",
    "location": {
      "latitude": 10.5104795,
      "longitude": 7.416459199999999,
      "viewport": {
        "northeast": {
          "lat": 10.51181817989272,
          "lng": 7.41784342989272
        },
        "southwest": {
          "lat": 10.50911852010728,
          "lng": 7.415143770107276
        }
      },
      "formatted_address": "GC68+5HW, Tudun Wada 800282, Kaduna, Nigeria",
      "google_map_url": "https://maps.google.com?q=10.5104795,7.416459199999999",
      "google_place_id": "ChIJH4PqTOU1TRAR1ZqpYVlWVJY"
    }
  },
  {
    "id": "79122",
    "name": "106, JABA RD. GIDAN NABAYI",
    "registration_area_id": "4189",
    "precise_location": null,
    "abbreviation": "044",
    "units": "044",
    "delimitation": "18/09/10/044",
    "remark": "NEW PU",
    "ward_id": "4189",
    "ward_name": "KAWO",
    "local_government_id": "355",
    "local_government_name": "KADUNA NORTH",
    "state_id": "18",
    "state_name": "KADUNA",
    "location": null
  },
  {
    "id": "79123",
    "name": "KK3 ZARIA ROAD",
    "registration_area_id": "4189",
    "precise_location": null,
    "abbreviation": "045",
    "units": "045",
    "delimitation": "18/09/10/045",
    "remark": "NEW PU",
    "ward_id": "4189",
    "ward_name": "KAWO",
    "local_government_id": "355",
    "local_government_name": "KADUNA NORTH",
    "state_id": "18",
    "state_name": "KADUNA",
    "location": {
      "latitude": 10.57776,
      "longitude": 7.44457,
      "viewport": {
        "northeast": {
          "lat": 10.57911192989272,
          "lng": 7.445920329892722
        },
        "southwest": {
          "lat": 10.57641227010728,
          "lng": 7.443220670107278
        }
      },
      "formatted_address": "KK3, Zaria Road, Kaduna North, Nigeria",
      "google_map_url": "https://maps.google.com?q=10.57776,7.44457",
      "google_place_id": "ChIJLwnXE4K1shERR7iG1-VljNg"
    }
  },
  {
    "id": "79124",
    "name": "BAYAN GIDAN GARBA KARO",
    "registration_area_id": "4189",
    "precise_location": null,
    "abbreviation": "046",
    "units": "046",
    "delimitation": "18/09/10/046",
    "remark": "NEW PU",
    "ward_id": "4189",
    "ward_name": "KAWO",
    "local_government_id": "355",
    "local_government_name": "KADUNA NORTH",
    "state_id": "18",
    "state_name": "KADUNA",
    "location": {
      "latitude": 10.5119282,
      "longitude": 7.4305221,
      "viewport": {
        "northeast": {
          "lat": 10.51321607989272,
          "lng": 7.431876329892723
        },
        "southwest": {
          "lat": 10.51051642010728,
          "lng": 7.429176670107279
        }
      },
      "formatted_address": "No. 15, WARF Road, Kaduna, Kaduna, Nigeria",
      "google_map_url": "https://maps.google.com?q=10.5119282,7.4305221",
      "google_place_id": "ChIJq1GCpF01TRAR1-A38DZ8HAY"
    }
  },
  {
    "id": "79125",
    "name": "BK 15 TURUNKU ROAD.",
    "registration_area_id": "4189",
    "precise_location": null,
    "abbreviation": "047",
    "units": "047",
    "delimitation": "18/09/10/047",
    "remark": "NEW PU",
    "ward_id": "4189",
    "ward_name": "KAWO",
    "local_government_id": "355",
    "local_government_name": "KADUNA NORTH",
    "state_id": "18",
    "state_name": "KADUNA",
    "location": {
      "latitude": 10.5820937,
      "longitude": 7.447541900000001,
      "viewport": {
        "northeast": {
          "lat": 10.58343972989272,
          "lng": 7.448898829892721
        },
        "southwest": {
          "lat": 10.58074007010728,
          "lng": 7.446199170107278
        }
      },
      "formatted_address": "Bk15, Turunku Rd, Kawo, Kaduna, Nigeria",
      "google_map_url": "https://maps.google.com?q=10.5820937,7.447541900000001",
      "google_place_id": "ChIJu6_gzmK1shEREGb98hqK-UA"
    }
  },
  {
    "id": "79126",
    "name": "BEHIND ECO BANK GIDAN MAJOR",
    "registration_area_id": "4189",
    "precise_location": null,
    "abbreviation": "048",
    "units": "048",
    "delimitation": "18/09/10/048",
    "remark": "NEW PU",
    "ward_id": "4189",
    "ward_name": "KAWO",
    "local_government_id": "355",
    "local_government_name": "KADUNA NORTH",
    "state_id": "18",
    "state_name": "KADUNA",
    "location": {
      "latitude": 10.5165941,
      "longitude": 7.4333399,
      "viewport": {
        "northeast": {
          "lat": 10.51810647989272,
          "lng": 7.434678779892722
        },
        "southwest": {
          "lat": 10.51540682010728,
          "lng": 7.431979120107278
        }
      },
      "formatted_address": "AR 11, Ali Akilu Road, Kawo 800273, Nigeria",
      "google_map_url": "https://maps.google.com?q=10.5165941,7.4333399",
      "google_place_id": "ChIJ-9z1367KshER7AZLbxa9-XE"
    }
  },
  {
    "id": "79127",
    "name": "LISUWA B15 TURUKU RD",
    "registration_area_id": "4189",
    "precise_location": null,
    "abbreviation": "049",
    "units": "049",
    "delimitation": "18/09/10/049",
    "remark": "NEW PU",
    "ward_id": "4189",
    "ward_name": "KAWO",
    "local_government_id": "355",
    "local_government_name": "KADUNA NORTH",
    "state_id": "18",
    "state_name": "KADUNA",
    "location": null
  },
  {
    "id": "79128",
    "name": "U1 DARMA RD. BESIDE SUHURA",
    "registration_area_id": "4189",
    "precise_location": null,
    "abbreviation": "050",
    "units": "050",
    "delimitation": "18/09/10/050",
    "remark": "NEW PU",
    "ward_id": "4189",
    "ward_name": "KAWO",
    "local_government_id": "355",
    "local_government_name": "KADUNA NORTH",
    "state_id": "18",
    "state_name": "KADUNA",
    "location": {
      "latitude": 10.5779882,
      "longitude": 7.446905699999999,
      "viewport": {
        "northeast": {
          "lat": 10.57931117989272,
          "lng": 7.448332529892722
        },
        "southwest": {
          "lat": 10.57661152010728,
          "lng": 7.445632870107278
        }
      },
      "formatted_address": "U1 Darma Rd, Kawo 800283, Kaduna, Nigeria",
      "google_map_url": "https://maps.google.com?q=10.5779882,7.446905699999999",
      "google_place_id": "ChIJyexAUrW1shERd-r4sOO-C1g"
    }
  },
  {
    "id": "79129",
    "name": "MADARASATAL TAZKARIIYYATU SCHOOL",
    "registration_area_id": "4189",
    "precise_location": null,
    "abbreviation": "051",
    "units": "051",
    "delimitation": "18/09/10/051",
    "remark": "NEW PU",
    "ward_id": "4189",
    "ward_name": "KAWO",
    "local_government_id": "355",
    "local_government_name": "KADUNA NORTH",
    "state_id": "18",
    "state_name": "KADUNA",
    "location": {
      "latitude": 10.5810915,
      "longitude": 7.4601199,
      "viewport": {
        "northeast": {
          "lat": 10.58245442989272,
          "lng": 7.46139692989272
        },
        "southwest": {
          "lat": 10.57975477010728,
          "lng": 7.458697270107276
        }
      },
      "formatted_address": "Bajju Street, New Extension, Kawo 800211, Kaduna, Nigeria",
      "google_map_url": "https://maps.google.com?q=10.5810915,7.4601199",
      "google_place_id": "ChIJ4S8fZp-1shER4ENK2TuUUwM"
    }
  },
  {
    "id": "79130",
    "name": "1/BY HALIRU USMAN SHOP",
    "registration_area_id": "4189",
    "precise_location": null,
    "abbreviation": "052",
    "units": "052",
    "delimitation": "18/09/10/052",
    "remark": "NEW PU",
    "ward_id": "4189",
    "ward_name": "KAWO",
    "local_government_id": "355",
    "local_government_name": "KADUNA NORTH",
    "state_id": "18",
    "state_name": "KADUNA",
    "location": {
      "latitude": 10.580688,
      "longitude": 7.4489426,
      "viewport": {
        "northeast": {
          "lat": 10.58199427989272,
          "lng": 7.45027687989272
        },
        "southwest": {
          "lat": 10.57929462010728,
          "lng": 7.447577220107276
        }
      },
      "formatted_address": "HCJX+7HG, Kawo 800283, Kaduna, Nigeria",
      "google_map_url": "https://maps.google.com?q=10.580688,7.4489426",
      "google_place_id": "ChIJSdC1NIO1shERoXU1RXJ3NQU"
    }
  },
  {
    "id": "79131",
    "name": "OPP. GIDAN YAHAYA HAMZA",
    "registration_area_id": "4189",
    "precise_location": null,
    "abbreviation": "053",
    "units": "053",
    "delimitation": "18/09/10/053",
    "remark": "NEW PU",
    "ward_id": "4189",
    "ward_name": "KAWO",
    "local_government_id": "355",
    "local_government_name": "KADUNA NORTH",
    "state_id": "18",
    "state_name": "KADUNA",
    "location": {
      "latitude": 10.5939892,
      "longitude": 7.4070994,
      "viewport": {
        "northeast": {
          "lat": 10.59544017989272,
          "lng": 7.408521629892722
        },
        "southwest": {
          "lat": 10.59274052010728,
          "lng": 7.405821970107278
        }
      },
      "formatted_address": "HCV4+HRX, Yahaya Hamaza Institute of technology, Mando, Nigeria",
      "google_map_url": "https://maps.google.com?q=10.5939892,7.4070994",
      "google_place_id": "ChIJwRCq3UXKshERZtAF7DJyDyU"
    }
  },
  {
    "id": "79132",
    "name": "K/G HAKIMI AREA COURT",
    "registration_area_id": "4189",
    "precise_location": null,
    "abbreviation": "054",
    "units": "054",
    "delimitation": "18/09/10/054",
    "remark": "NEW PU",
    "ward_id": "4189",
    "ward_name": "KAWO",
    "local_government_id": "355",
    "local_government_name": "KADUNA NORTH",
    "state_id": "18",
    "state_name": "KADUNA",
    "location": {
      "latitude": 10.5254474,
      "longitude": 7.4298082,
      "viewport": {
        "northeast": {
          "lat": 10.52679472989272,
          "lng": 7.431126079892722
        },
        "southwest": {
          "lat": 10.52409507010728,
          "lng": 7.428426420107278
        }
      },
      "formatted_address": "Imam House, Ahmadu Bello Way, Sabon Gari 800283, Kaduna, Nigeria",
      "google_map_url": "https://maps.google.com?q=10.5254474,7.4298082",
      "google_place_id": "ChIJhwnGoVE1TRAR7hbPzJlSLzI"
    }
  },
  {
    "id": "79133",
    "name": "DARMA RD. BY ISLAMIC CLINIC",
    "registration_area_id": "4189",
    "precise_location": null,
    "abbreviation": "055",
    "units": "055",
    "delimitation": "18/09/10/055",
    "remark": "NEW PU",
    "ward_id": "4189",
    "ward_name": "KAWO",
    "local_government_id": "355",
    "local_government_name": "KADUNA NORTH",
    "state_id": "18",
    "state_name": "KADUNA",
    "location": {
      "latitude": 10.5775169,
      "longitude": 7.449150800000001,
      "viewport": {
        "northeast": {
          "lat": 10.57885852989272,
          "lng": 7.450495679892721
        },
        "southwest": {
          "lat": 10.57615887010728,
          "lng": 7.447796020107277
        }
      },
      "formatted_address": "HCHX+2MF, Delma Rd, Kawo 800283, Kaduna, Nigeria",
      "google_map_url": "https://maps.google.com?q=10.5775169,7.449150800000001",
      "google_place_id": "ChIJJ3xx0--1shERC3AKlioBMmY"
    }
  },
  {
    "id": "79134",
    "name": "NO. 6 MASSALLACI STREET",
    "registration_area_id": "4189",
    "precise_location": null,
    "abbreviation": "056",
    "units": "056",
    "delimitation": "18/09/10/056",
    "remark": "NEW PU",
    "ward_id": "4189",
    "ward_name": "KAWO",
    "local_government_id": "355",
    "local_government_name": "KADUNA NORTH",
    "state_id": "18",
    "state_name": "KADUNA",
    "location": null
  },
  {
    "id": "79135",
    "name": "NO. 46 BAJJU STR. KAWO",
    "registration_area_id": "4189",
    "precise_location": null,
    "abbreviation": "057",
    "units": "057",
    "delimitation": "18/09/10/057",
    "remark": "NEW PU",
    "ward_id": "4189",
    "ward_name": "KAWO",
    "local_government_id": "355",
    "local_government_name": "KADUNA NORTH",
    "state_id": "18",
    "state_name": "KADUNA",
    "location": {
      "latitude": 10.5790855,
      "longitude": 7.4482868,
      "viewport": {
        "northeast": {
          "lat": 10.58043532989272,
          "lng": 7.449636629892722
        },
        "southwest": {
          "lat": 10.57773567010728,
          "lng": 7.446936970107278
        }
      },
      "formatted_address": "Kawo Street, 800283, Ungwan Liman, Nigeria",
      "google_map_url": "https://maps.google.com?q=10.5790855,7.4482868",
      "google_place_id": "ChIJid4DJ4O1shER2W5QaZcNGIc"
    }
  },
  {
    "id": "79136",
    "name": "BAJJU STR./METROPOLITAN SCH.",
    "registration_area_id": "4189",
    "precise_location": null,
    "abbreviation": "058",
    "units": "058",
    "delimitation": "18/09/10/058",
    "remark": "NEW PU",
    "ward_id": "4189",
    "ward_name": "KAWO",
    "local_government_id": "355",
    "local_government_name": "KADUNA NORTH",
    "state_id": "18",
    "state_name": "KADUNA",
    "location": {
      "latitude": 10.5810915,
      "longitude": 7.4601199,
      "viewport": {
        "northeast": {
          "lat": 10.58245442989272,
          "lng": 7.46139692989272
        },
        "southwest": {
          "lat": 10.57975477010728,
          "lng": 7.458697270107276
        }
      },
      "formatted_address": "Bajju Street, New Extension, Kawo 800211, Kaduna, Nigeria",
      "google_map_url": "https://maps.google.com?q=10.5810915,7.4601199",
      "google_place_id": "ChIJ4S8fZp-1shER4ENK2TuUUwM"
    }
  },
  {
    "id": "79137",
    "name": "NO. 5/7 KING OF GLORY RD.",
    "registration_area_id": "4189",
    "precise_location": null,
    "abbreviation": "059",
    "units": "059",
    "delimitation": "18/09/10/059",
    "remark": "NEW PU",
    "ward_id": "4189",
    "ward_name": "KAWO",
    "local_government_id": "355",
    "local_government_name": "KADUNA NORTH",
    "state_id": "18",
    "state_name": "KADUNA",
    "location": {
      "latitude": 10.5958953,
      "longitude": 7.453624800000001,
      "viewport": {
        "northeast": {
          "lat": 10.59724487989272,
          "lng": 7.454979929892722
        },
        "southwest": {
          "lat": 10.59454522010728,
          "lng": 7.452280270107278
        }
      },
      "formatted_address": "HFW3+9C5, Vahanah Crescent U/Gwari off Zaria Expressway Kaduna, Kaduna, Nigeria",
      "google_map_url": "https://maps.google.com?q=10.5958953,7.453624800000001",
      "google_place_id": "ChIJo5-inpO1shER4BIMa3EPnzg"
    }
  },
  {
    "id": "79138",
    "name": "MKT RD. UNG. GWARI",
    "registration_area_id": "4189",
    "precise_location": null,
    "abbreviation": "060",
    "units": "060",
    "delimitation": "18/09/10/060",
    "remark": "NEW PU",
    "ward_id": "4189",
    "ward_name": "KAWO",
    "local_government_id": "355",
    "local_government_name": "KADUNA NORTH",
    "state_id": "18",
    "state_name": "KADUNA",
    "location": {
      "latitude": 10.58364,
      "longitude": 7.44837,
      "viewport": {
        "northeast": {
          "lat": 10.58500402989272,
          "lng": 7.449724629892722
        },
        "southwest": {
          "lat": 10.58230437010728,
          "lng": 7.447024970107278
        }
      },
      "formatted_address": "HCMX+F85, Birnin Gwari Road, Kaduna North, Kaduna North, Ungwan Liman, Nigeria",
      "google_map_url": "https://maps.google.com?q=10.58364,7.44837",
      "google_place_id": "ChIJU3q-t4S1shERqQaVrIOQksk"
    }
  },
  {
    "id": "79139",
    "name": "NO. 18 SALEEM CRESCENT",
    "registration_area_id": "4189",
    "precise_location": null,
    "abbreviation": "061",
    "units": "061",
    "delimitation": "18/09/10/061",
    "remark": "NEW PU",
    "ward_id": "4189",
    "ward_name": "KAWO",
    "local_government_id": "355",
    "local_government_name": "KADUNA NORTH",
    "state_id": "18",
    "state_name": "KADUNA",
    "location": {
      "latitude": 10.5805262,
      "longitude": 7.4601717,
      "viewport": {
        "northeast": {
          "lat": 10.58187412989272,
          "lng": 7.461484029892722
        },
        "southwest": {
          "lat": 10.57917447010728,
          "lng": 7.458784370107278
        }
      },
      "formatted_address": "HFJ6+638, Kagarko Rd, Kawo 800001, Kaduna, Nigeria",
      "google_map_url": "https://maps.google.com?q=10.5805262,7.4601717",
      "google_place_id": "ChIJK4izIzO1shERNBleMGp9Y6Q"
    }
  },
  {
    "id": "79140",
    "name": "YAHAYA CRESCENT ECKANKAR",
    "registration_area_id": "4189",
    "precise_location": null,
    "abbreviation": "062",
    "units": "062",
    "delimitation": "18/09/10/062",
    "remark": "NEW PU",
    "ward_id": "4189",
    "ward_name": "KAWO",
    "local_government_id": "355",
    "local_government_name": "KADUNA NORTH",
    "state_id": "18",
    "state_name": "KADUNA",
    "location": {
      "latitude": 10.5175512,
      "longitude": 7.4319069,
      "viewport": {
        "northeast": {
          "lat": 10.51893682989272,
          "lng": 7.433254279892722
        },
        "southwest": {
          "lat": 10.51623717010728,
          "lng": 7.430554620107278
        }
      },
      "formatted_address": "13 Rigachukwa Rd, Kakuri 800283, Kaduna, Nigeria",
      "google_map_url": "https://maps.google.com?q=10.5175512,7.4319069",
      "google_place_id": "ChIJF0yzHAg1TRARP-0Aj_qvlbA"
    }
  },
  {
    "id": "79141",
    "name": "FULANI RD/UNG. SHANU",
    "registration_area_id": "4189",
    "precise_location": null,
    "abbreviation": "063",
    "units": "063",
    "delimitation": "18/09/10/063",
    "remark": "NEW PU",
    "ward_id": "4189",
    "ward_name": "KAWO",
    "local_government_id": "355",
    "local_government_name": "KADUNA NORTH",
    "state_id": "18",
    "state_name": "KADUNA",
    "location": {
      "latitude": 10.5836016,
      "longitude": 7.4652985,
      "viewport": {
        "northeast": {
          "lat": 10.58491397989272,
          "lng": 7.466658779892722
        },
        "southwest": {
          "lat": 10.58221432010728,
          "lng": 7.463959120107278
        }
      },
      "formatted_address": "HFM8+C4M, Salim Crescent, Kawo 800102, Kaduna, Nigeria",
      "google_map_url": "https://maps.google.com?q=10.5836016,7.4652985",
      "google_place_id": "ChIJYbQVuxG1shERi0Ofa7YRjWU"
    }
  },
  {
    "id": "79142",
    "name": "K8 KAKURI RD/ABACHA HOUSE",
    "registration_area_id": "4189",
    "precise_location": null,
    "abbreviation": "064",
    "units": "064",
    "delimitation": "18/09/10/064",
    "remark": "NEW PU",
    "ward_id": "4189",
    "ward_name": "KAWO",
    "local_government_id": "355",
    "local_government_name": "KADUNA NORTH",
    "state_id": "18",
    "state_name": "KADUNA",
    "location": {
      "latitude": 10.5777892,
      "longitude": 7.449390200000001,
      "viewport": {
        "northeast": {
          "lat": 10.58768185000005,
          "lng": 7.452233150000002
        },
        "southwest": {
          "lat": 10.56758044999995,
          "lng": 7.44785695
        }
      },
      "formatted_address": "Kakuri Rd, 800283, Ungwan Liman, Nigeria",
      "google_map_url": "https://maps.google.com?q=10.5777892,7.449390200000001",
      "google_place_id": "EihLYWt1cmkgUmQsIDgwMDI4MywgVW5nd2FuIExpbWFuLCBOaWdlcmlhIi4qLAoUChIJk1Fgane1shERnHKpwTrdi9ISFAoSCXea4VuYtbIREXsBPPdyZfEE"
    }
  },
  {
    "id": "79143",
    "name": "BY DANLAMI DANAZUMI RD.",
    "registration_area_id": "4189",
    "precise_location": null,
    "abbreviation": "065",
    "units": "065",
    "delimitation": "18/09/10/065",
    "remark": "NEW PU",
    "ward_id": "4189",
    "ward_name": "KAWO",
    "local_government_id": "355",
    "local_government_name": "KADUNA NORTH",
    "state_id": "18",
    "state_name": "KADUNA",
    "location": {
      "latitude": 10.5849391,
      "longitude": 7.4570675,
      "viewport": {
        "northeast": {
          "lat": 10.58630462989272,
          "lng": 7.458318579892723
        },
        "southwest": {
          "lat": 10.58360497010728,
          "lng": 7.455618920107279
        }
      },
      "formatted_address": "No. 40 Danlami Dan'azumi Road kawo new extension kaduna, Kaduna, Nigeria",
      "google_map_url": "https://maps.google.com?q=10.5849391,7.4570675",
      "google_place_id": "ChIJM8Rnnvy1shERp7MVXTdso2s"
    }
  },
  {
    "id": "79144",
    "name": "GSS RAFIN GUZA KAWO",
    "registration_area_id": "4189",
    "precise_location": null,
    "abbreviation": "066",
    "units": "066",
    "delimitation": "18/09/10/066",
    "remark": "NEW PU",
    "ward_id": "4189",
    "ward_name": "KAWO",
    "local_government_id": "355",
    "local_government_name": "KADUNA NORTH",
    "state_id": "18",
    "state_name": "KADUNA",
    "location": {
      "latitude": 10.5766305,
      "longitude": 7.4509965,
      "viewport": {
        "northeast": {
          "lat": 10.57798527989272,
          "lng": 7.452351929892721
        },
        "southwest": {
          "lat": 10.57528562010728,
          "lng": 7.449652270107277
        }
      },
      "formatted_address": "HFG2+J9X Rafin Guza, Kawo 800283, Kawo, Nigeria",
      "google_map_url": "https://maps.google.com?q=10.5766305,7.4509965",
      "google_place_id": "ChIJKcyM13e1shER2Kezko8wfl0"
    }
  },
  {
    "id": "79145",
    "name": "NAF QYRS UMARU MURTALA",
    "registration_area_id": "4189",
    "precise_location": null,
    "abbreviation": "067",
    "units": "067",
    "delimitation": "18/09/10/067",
    "remark": "NEW PU",
    "ward_id": "4189",
    "ward_name": "KAWO",
    "local_government_id": "355",
    "local_government_name": "KADUNA NORTH",
    "state_id": "18",
    "state_name": "KADUNA",
    "location": {
      "latitude": 10.5336425,
      "longitude": 7.4417719,
      "viewport": {
        "northeast": {
          "lat": 10.53493112989272,
          "lng": 7.442944129892724
        },
        "southwest": {
          "lat": 10.53223147010728,
          "lng": 7.44024447010728
        }
      },
      "formatted_address": "Garu multi purpose mutala muhad way, Bauchi, Nigeria",
      "google_map_url": "https://maps.google.com?q=10.5336425,7.4417719",
      "google_place_id": "ChIJ0RnA_si1shERwXrep0YFSXU"
    }
  },
  {
    "id": "79146",
    "name": "NANET BY MUAZU MOSQUE 1/KA ALKALI",
    "registration_area_id": "4189",
    "precise_location": null,
    "abbreviation": "068",
    "units": "068",
    "delimitation": "18/09/10/068",
    "remark": "NEW PU",
    "ward_id": "4189",
    "ward_name": "KAWO",
    "local_government_id": "355",
    "local_government_name": "KADUNA NORTH",
    "state_id": "18",
    "state_name": "KADUNA",
    "location": {
      "latitude": 10.4956489,
      "longitude": 7.396156999999999,
      "viewport": {
        "northeast": {
          "lat": 10.49696817989272,
          "lng": 7.39756167989272
        },
        "southwest": {
          "lat": 10.49426852010728,
          "lng": 7.394862020107277
        }
      },
      "formatted_address": "F9WW+7C4, Abuja - Kaduna - Zaria Express Way, Ungawn Mu'azu 800282, Kaduna, Nigeria",
      "google_map_url": "https://maps.google.com?q=10.4956489,7.396156999999999",
      "google_place_id": "ChIJwa-CZe41TRARFMrJWfGFEmA"
    }
  },
  {
    "id": "79147",
    "name": "NO. 25 AFAKA RD",
    "registration_area_id": "4189",
    "precise_location": null,
    "abbreviation": "069",
    "units": "069",
    "delimitation": "18/09/10/069",
    "remark": "NEW PU",
    "ward_id": "4189",
    "ward_name": "KAWO",
    "local_government_id": "355",
    "local_government_name": "KADUNA NORTH",
    "state_id": "18",
    "state_name": "KADUNA",
    "location": {
      "latitude": 10.5877489,
      "longitude": 7.4641291,
      "viewport": {
        "northeast": {
          "lat": 10.58915037989272,
          "lng": 7.465475229892722
        },
        "southwest": {
          "lat": 10.58645072010728,
          "lng": 7.462775570107278
        }
      },
      "formatted_address": "No25 afaka road rafin guza kawo kaduna state Kaduna north local government area, Kaduna, Nigeria",
      "google_map_url": "https://maps.google.com?q=10.5877489,7.4641291",
      "google_place_id": "ChIJubxH3DG1shERog23wu98Eqc"
    }
  },
  {
    "id": "79148",
    "name": "KW7 ABUBAKAR ADAMA CLOSE",
    "registration_area_id": "4189",
    "precise_location": null,
    "abbreviation": "070",
    "units": "070",
    "delimitation": "18/09/10/070",
    "remark": "NEW PU",
    "ward_id": "4189",
    "ward_name": "KAWO",
    "local_government_id": "355",
    "local_government_name": "KADUNA NORTH",
    "state_id": "18",
    "state_name": "KADUNA",
    "location": {
      "latitude": 10.5849391,
      "longitude": 7.4570675,
      "viewport": {
        "northeast": {
          "lat": 10.58630462989272,
          "lng": 7.458318579892723
        },
        "southwest": {
          "lat": 10.58360497010728,
          "lng": 7.455618920107279
        }
      },
      "formatted_address": "No20 Makama Street Kawo New Extension Kaduna, Kaduna, Nigeria",
      "google_map_url": "https://maps.google.com?q=10.5849391,7.4570675",
      "google_place_id": "ChIJmWyO-ba1shERuDP3gVEi0Os"
    }
  },
  {
    "id": "79149",
    "name": "NO. 14 ABUJA STR.",
    "registration_area_id": "4189",
    "precise_location": null,
    "abbreviation": "071",
    "units": "071",
    "delimitation": "18/09/10/071",
    "remark": "NEW PU",
    "ward_id": "4189",
    "ward_name": "KAWO",
    "local_government_id": "355",
    "local_government_name": "KADUNA NORTH",
    "state_id": "18",
    "state_name": "KADUNA",
    "location": null
  },
  {
    "id": "79150",
    "name": "A9 ABUJA STR. KAWO",
    "registration_area_id": "4189",
    "precise_location": null,
    "abbreviation": "072",
    "units": "072",
    "delimitation": "18/09/10/072",
    "remark": "NEW PU",
    "ward_id": "4189",
    "ward_name": "KAWO",
    "local_government_id": "355",
    "local_government_name": "KADUNA NORTH",
    "state_id": "18",
    "state_name": "KADUNA",
    "location": null
  },
  {
    "id": "79151",
    "name": "NO. 5 LERE STR. KAWO",
    "registration_area_id": "4189",
    "precise_location": null,
    "abbreviation": "073",
    "units": "073",
    "delimitation": "18/09/10/073",
    "remark": "NEW PU",
    "ward_id": "4189",
    "ward_name": "KAWO",
    "local_government_id": "355",
    "local_government_name": "KADUNA NORTH",
    "state_id": "18",
    "state_name": "KADUNA",
    "location": {
      "latitude": 10.5793801,
      "longitude": 7.4581108,
      "viewport": {
        "northeast": {
          "lat": 10.58072992989272,
          "lng": 7.459460629892724
        },
        "southwest": {
          "lat": 10.57803027010728,
          "lng": 7.45676097010728
        }
      },
      "formatted_address": "5 Lere St, Kawo 800283, Kaduna, Nigeria",
      "google_map_url": "https://maps.google.com?q=10.5793801,7.4581108",
      "google_place_id": "Eic1IExlcmUgU3QsIEthd28gODAwMjgzLCBLYWR1bmEsIE5pZ2VyaWEiMBIuChQKEgnv-H8Jn7WyERHgyQnyXcek4xAFKhQKEgm7Po4Rn7WyEREnvH8H-Cp0UA"
    }
  },
  {
    "id": "79152",
    "name": "BX 18, MUSTAPHA SAHALIWA RD.",
    "registration_area_id": "4189",
    "precise_location": null,
    "abbreviation": "074",
    "units": "074",
    "delimitation": "18/09/10/074",
    "remark": "NEW PU",
    "ward_id": "4189",
    "ward_name": "KAWO",
    "local_government_id": "355",
    "local_government_name": "KADUNA NORTH",
    "state_id": "18",
    "state_name": "KADUNA",
    "location": {
      "latitude": 10.5254382,
      "longitude": 7.4293909,
      "viewport": {
        "northeast": {
          "lat": 10.52680067989272,
          "lng": 7.43090532989272
        },
        "southwest": {
          "lat": 10.52410102010728,
          "lng": 7.428205670107277
        }
      },
      "formatted_address": "Y. A. Ahmed House, FY6, Ahmadu Bello Way, Kaduna, Nigeria",
      "google_map_url": "https://maps.google.com?q=10.5254382,7.4293909",
      "google_place_id": "ChIJJ58diKQ1TRAR71PxtYuXSzQ"
    }
  },
  {
    "id": "79153",
    "name": "NO. 17 MUSA MANLLE  RD.",
    "registration_area_id": "4189",
    "precise_location": null,
    "abbreviation": "075",
    "units": "075",
    "delimitation": "18/09/10/075",
    "remark": "NEW PU",
    "ward_id": "4189",
    "ward_name": "KAWO",
    "local_government_id": "355",
    "local_government_name": "KADUNA NORTH",
    "state_id": "18",
    "state_name": "KADUNA",
    "location": null
  },
  {
    "id": "79154",
    "name": "GIDAN DANO WANZAM",
    "registration_area_id": "4189",
    "precise_location": null,
    "abbreviation": "076",
    "units": "076",
    "delimitation": "18/09/10/076",
    "remark": "NEW PU",
    "ward_id": "4189",
    "ward_name": "KAWO",
    "local_government_id": "355",
    "local_government_name": "KADUNA NORTH",
    "state_id": "18",
    "state_name": "KADUNA",
    "location": {
      "latitude": 10.5426734,
      "longitude": 7.4333368,
      "viewport": {
        "northeast": {
          "lat": 10.54405072989272,
          "lng": 7.434671029892722
        },
        "southwest": {
          "lat": 10.54135107010728,
          "lng": 7.431971370107278
        }
      },
      "formatted_address": "Mando, No 6 Ahmadu Bello Way, City Centre 800283, Kaduna, Nigeria",
      "google_map_url": "https://maps.google.com?q=10.5426734,7.4333368",
      "google_place_id": "ChIJBdp4bZzLshERfmVTAvivVrM"
    }
  },
  {
    "id": "79155",
    "name": "CLARA RD/ DAM RAFIN GUZA",
    "registration_area_id": "4189",
    "precise_location": null,
    "abbreviation": "077",
    "units": "077",
    "delimitation": "18/09/10/077",
    "remark": "NEW PU",
    "ward_id": "4189",
    "ward_name": "KAWO",
    "local_government_id": "355",
    "local_government_name": "KADUNA NORTH",
    "state_id": "18",
    "state_name": "KADUNA",
    "location": {
      "latitude": 10.5923268,
      "longitude": 7.4691484,
      "viewport": {
        "northeast": {
          "lat": 10.59366047989272,
          "lng": 7.470456679892723
        },
        "southwest": {
          "lat": 10.59096082010728,
          "lng": 7.467757020107279
        }
      },
      "formatted_address": "No 16, Mansur Street, Waziri, Kaduna, Nigeria",
      "google_map_url": "https://maps.google.com?q=10.5923268,7.4691484",
      "google_place_id": "ChIJgxs1Pbq1shERC0xfNta1KAg"
    }
  },
  {
    "id": "79156",
    "name": "ZUBAIRU RD",
    "registration_area_id": "4189",
    "precise_location": null,
    "abbreviation": "078",
    "units": "078",
    "delimitation": "18/09/10/078",
    "remark": "NEW PU",
    "ward_id": "4189",
    "ward_name": "KAWO",
    "local_government_id": "355",
    "local_government_name": "KADUNA NORTH",
    "state_id": "18",
    "state_name": "KADUNA",
    "location": {
      "latitude": 10.5123835,
      "longitude": 7.448558800000001,
      "viewport": {
        "northeast": {
          "lat": 10.51373332989272,
          "lng": 7.449908629892724
        },
        "southwest": {
          "lat": 10.51103367010728,
          "lng": 7.447208970107281
        }
      },
      "formatted_address": "Zubairu Sambo Aliyu Rd, Kabala Coastain 800283, Nasarawa, Nigeria",
      "google_map_url": "https://maps.google.com?q=10.5123835,7.448558800000001",
      "google_place_id": "ChIJVzqs1LxKTRAR-rVH1BpSpJE"
    }
  },
  {
    "id": "79157",
    "name": "NO. 22 SHEHU IDRIS CRESCENT",
    "registration_area_id": "4189",
    "precise_location": null,
    "abbreviation": "079",
    "units": "079",
    "delimitation": "18/09/10/079",
    "remark": "NEW PU",
    "ward_id": "4189",
    "ward_name": "KAWO",
    "local_government_id": "355",
    "local_government_name": "KADUNA NORTH",
    "state_id": "18",
    "state_name": "KADUNA",
    "location": null
  },
  {
    "id": "79158",
    "name": "LAMBU CLOSE",
    "registration_area_id": "4189",
    "precise_location": null,
    "abbreviation": "080",
    "units": "080",
    "delimitation": "18/09/10/080",
    "remark": "NEW PU",
    "ward_id": "4189",
    "ward_name": "KAWO",
    "local_government_id": "355",
    "local_government_name": "KADUNA NORTH",
    "state_id": "18",
    "state_name": "KADUNA",
    "location": null
  },
  {
    "id": "79159",
    "name": "AQ10 LAFIA RD KAWO",
    "registration_area_id": "4189",
    "precise_location": null,
    "abbreviation": "081",
    "units": "081",
    "delimitation": "18/09/10/081",
    "remark": "NEW PU",
    "ward_id": "4189",
    "ward_name": "KAWO",
    "local_government_id": "355",
    "local_government_name": "KADUNA NORTH",
    "state_id": "18",
    "state_name": "KADUNA",
    "location": {
      "latitude": 10.5261847,
      "longitude": 7.440819299999998,
      "viewport": {
        "northeast": {
          "lat": 10.52749487989272,
          "lng": 7.442182829892722
        },
        "southwest": {
          "lat": 10.52479522010728,
          "lng": 7.439483170107279
        }
      },
      "formatted_address": "Q10 Lafia Road, KAWO 800283, Kaduna, Nigeria",
      "google_map_url": "https://maps.google.com?q=10.5261847,7.440819299999998",
      "google_place_id": "ChIJhQnAZ7tLTRARKhQ3MKvW9w8"
    }
  },
  {
    "id": "79160",
    "name": "AS ZARIA RD. CLARA RD.",
    "registration_area_id": "4189",
    "precise_location": null,
    "abbreviation": "082",
    "units": "082",
    "delimitation": "18/09/10/082",
    "remark": "NEW PU",
    "ward_id": "4189",
    "ward_name": "KAWO",
    "local_government_id": "355",
    "local_government_name": "KADUNA NORTH",
    "state_id": "18",
    "state_name": "KADUNA",
    "location": {
      "latitude": 10.8129132,
      "longitude": 7.5599054,
      "viewport": {
        "northeast": {
          "lat": 10.81427862989272,
          "lng": 7.561227379892722
        },
        "southwest": {
          "lat": 10.81157897010728,
          "lng": 7.558527720107278
        }
      },
      "formatted_address": "J3 Zaria Rd, Kawo 800102, Kaduna, Nigeria",
      "google_map_url": "https://maps.google.com?q=10.8129132,7.5599054",
      "google_place_id": "ChIJfz4Ez529shERA5Tz5r77y2E"
    }
  },
  {
    "id": "79161",
    "name": "NO. 8 HOSPITAL RD.",
    "registration_area_id": "4189",
    "precise_location": null,
    "abbreviation": "083",
    "units": "083",
    "delimitation": "18/09/10/083",
    "remark": "NEW PU",
    "ward_id": "4189",
    "ward_name": "KAWO",
    "local_government_id": "355",
    "local_government_name": "KADUNA NORTH",
    "state_id": "18",
    "state_name": "KADUNA",
    "location": {
      "latitude": 10.5830363,
      "longitude": 7.446753299999999,
      "viewport": {
        "northeast": {
          "lat": 10.58435237989272,
          "lng": 7.448234429892722
        },
        "southwest": {
          "lat": 10.58165272010728,
          "lng": 7.445534770107278
        }
      },
      "formatted_address": "Yamusa Rd, Kawo 800283, Kaduna, Nigeria",
      "google_map_url": "https://maps.google.com?q=10.5830363,7.446753299999999",
      "google_place_id": "ChIJ3dQXKay1shERxJbW_HP9BNE"
    }
  },
  {
    "id": "79162",
    "name": "NO. 1, HOSPITAL RD.",
    "registration_area_id": "4189",
    "precise_location": null,
    "abbreviation": "084",
    "units": "084",
    "delimitation": "18/09/10/084",
    "remark": "NEW PU",
    "ward_id": "4189",
    "ward_name": "KAWO",
    "local_government_id": "355",
    "local_government_name": "KADUNA NORTH",
    "state_id": "18",
    "state_name": "KADUNA",
    "location": {
      "latitude": 10.5830363,
      "longitude": 7.446753299999999,
      "viewport": {
        "northeast": {
          "lat": 10.58435237989272,
          "lng": 7.448234429892722
        },
        "southwest": {
          "lat": 10.58165272010728,
          "lng": 7.445534770107278
        }
      },
      "formatted_address": "Yamusa Rd, Kawo 800283, Kaduna, Nigeria",
      "google_map_url": "https://maps.google.com?q=10.5830363,7.446753299999999",
      "google_place_id": "ChIJ3dQXKay1shERxJbW_HP9BNE"
    }
  },
  {
    "id": "79163",
    "name": "LEA NORMADIC PRI. SCH",
    "registration_area_id": "4189",
    "precise_location": null,
    "abbreviation": "085",
    "units": "085",
    "delimitation": "18/09/10/085",
    "remark": "NEW PU",
    "ward_id": "4189",
    "ward_name": "KAWO",
    "local_government_id": "355",
    "local_government_name": "KADUNA NORTH",
    "state_id": "18",
    "state_name": "KADUNA",
    "location": {
      "latitude": 10.583629,
      "longitude": 7.4488717,
      "viewport": {
        "northeast": {
          "lat": 10.58493932989272,
          "lng": 7.450187729892722
        },
        "southwest": {
          "lat": 10.58223967010728,
          "lng": 7.447488070107278
        }
      },
      "formatted_address": "7F29HCMX+FGV, Kawo 800283, Kaduna, Nigeria",
      "google_map_url": "https://maps.google.com?q=10.583629,7.4488717",
      "google_place_id": "ChIJk28-N0a1shERsu2Rbo_puIc"
    }
  },
  {
    "id": "79164",
    "name": "LAYIN SARKIN BAKA",
    "registration_area_id": "4189",
    "precise_location": null,
    "abbreviation": "086",
    "units": "086",
    "delimitation": "18/09/10/086",
    "remark": "NEW PU",
    "ward_id": "4189",
    "ward_name": "KAWO",
    "local_government_id": "355",
    "local_government_name": "KADUNA NORTH",
    "state_id": "18",
    "state_name": "KADUNA",
    "location": {
      "latitude": 10.5495172,
      "longitude": 7.444142899999999,
      "viewport": {
        "northeast": {
          "lat": 10.55084247989272,
          "lng": 7.445523729892721
        },
        "southwest": {
          "lat": 10.54814282010728,
          "lng": 7.442824070107277
        }
      },
      "formatted_address": "1, Yahaya Imam Way, GRA Kaduna North, Ungwan Sarki Muslimi, Kaduna, Nigeria",
      "google_map_url": "https://maps.google.com?q=10.5495172,7.444142899999999",
      "google_place_id": "ChIJVzaGTsm1shER03rv2irlYF0"
    }
  },
  {
    "id": "79165",
    "name": "BY CLARA RD. RAFIN GUZA",
    "registration_area_id": "4189",
    "precise_location": null,
    "abbreviation": "087",
    "units": "087",
    "delimitation": "18/09/10/087",
    "remark": "NEW PU",
    "ward_id": "4189",
    "ward_name": "KAWO",
    "local_government_id": "355",
    "local_government_name": "KADUNA NORTH",
    "state_id": "18",
    "state_name": "KADUNA",
    "location": {
      "latitude": 10.5838322,
      "longitude": 7.4666379,
      "viewport": {
        "northeast": {
          "lat": 10.58516602989272,
          "lng": 7.467948029892723
        },
        "southwest": {
          "lat": 10.58246637010728,
          "lng": 7.465248370107279
        }
      },
      "formatted_address": "No 10 opp clara road Rafin guza, Kawo 800213, Kaduna, Nigeria",
      "google_map_url": "https://maps.google.com?q=10.5838322,7.4666379",
      "google_place_id": "ChIJu7CzMpK1shERLWhrITftlpM"
    }
  }
]