[
  {
    "id": "36805",
    "name": "PLAYGROUND,  EBAM",
    "registration_area_id": "2032",
    "precise_location": null,
    "abbreviation": "001",
    "units": "001",
    "delimitation": "09/07/01/001",
    "remark": "EXISTING PU",
    "ward_id": "2032",
    "ward_name": "ABO",
    "local_government_id": "175",
    "local_government_name": "BOKI",
    "state_id": "9",
    "state_name": "CROSS RIVER",
    "location": {
      "latitude": 5.5805318,
      "longitude": 8.748116699999999,
      "viewport": {
        "northeast": {
          "lat": 5.581881629892723,
          "lng": 8.74946652989272
        },
        "southwest": {
          "lat": 5.579181970107279,
          "lng": 8.746766870107276
        }
      },
      "formatted_address": "HPJX+669, Ikom - Abanliko Rd, Basua, Nigeria",
      "google_map_url": "https://maps.google.com?q=5.5805318,8.748116699999999",
      "google_place_id": "ChIJRaD05NymXRAR07InCVZA_rg"
    }
  },
  {
    "id": "36806",
    "name": "PLAYGROUND,  EMEH",
    "registration_area_id": "2032",
    "precise_location": null,
    "abbreviation": "002",
    "units": "002",
    "delimitation": "09/07/01/002",
    "remark": "EXISTING PU",
    "ward_id": "2032",
    "ward_name": "ABO",
    "local_government_id": "175",
    "local_government_name": "BOKI",
    "state_id": "9",
    "state_name": "CROSS RIVER",
    "location": {
      "latitude": 5.5805318,
      "longitude": 8.748116699999999,
      "viewport": {
        "northeast": {
          "lat": 5.581881629892723,
          "lng": 8.74946652989272
        },
        "southwest": {
          "lat": 5.579181970107279,
          "lng": 8.746766870107276
        }
      },
      "formatted_address": "HPJX+669, Ikom - Abanliko Rd, Basua, Nigeria",
      "google_map_url": "https://maps.google.com?q=5.5805318,8.748116699999999",
      "google_place_id": "ChIJRaD05NymXRAR07InCVZA_rg"
    }
  },
  {
    "id": "36807",
    "name": "PLAYGROUND OGBAGANTE I",
    "registration_area_id": "2032",
    "precise_location": null,
    "abbreviation": "003",
    "units": "003",
    "delimitation": "09/07/01/003",
    "remark": "EXISTING PU",
    "ward_id": "2032",
    "ward_name": "ABO",
    "local_government_id": "175",
    "local_government_name": "BOKI",
    "state_id": "9",
    "state_name": "CROSS RIVER",
    "location": {
      "latitude": 6.2211925,
      "longitude": 9.0678442,
      "viewport": {
        "northeast": {
          "lat": 6.222542329892722,
          "lng": 9.069194029892724
        },
        "southwest": {
          "lat": 6.219842670107278,
          "lng": 9.06649437010728
        }
      },
      "formatted_address": "63C9+F4H, 551109, Kanyang, Nigeria",
      "google_map_url": "https://maps.google.com?q=6.2211925,9.0678442",
      "google_place_id": "ChIJYynxeUgEXBARZ4cIr2oWgF4"
    }
  },
  {
    "id": "36808",
    "name": "PLAYGROUND OGBAGANTE II",
    "registration_area_id": "2032",
    "precise_location": null,
    "abbreviation": "004",
    "units": "004",
    "delimitation": "09/07/01/004",
    "remark": "EXISTING PU",
    "ward_id": "2032",
    "ward_name": "ABO",
    "local_government_id": "175",
    "local_government_name": "BOKI",
    "state_id": "9",
    "state_name": "CROSS RIVER",
    "location": {
      "latitude": 6.2211925,
      "longitude": 9.0678442,
      "viewport": {
        "northeast": {
          "lat": 6.222542329892722,
          "lng": 9.069194029892724
        },
        "southwest": {
          "lat": 6.219842670107278,
          "lng": 9.06649437010728
        }
      },
      "formatted_address": "63C9+F4H, 551109, Kanyang, Nigeria",
      "google_map_url": "https://maps.google.com?q=6.2211925,9.0678442",
      "google_place_id": "ChIJYynxeUgEXBARZ4cIr2oWgF4"
    }
  },
  {
    "id": "36809",
    "name": "PLAYGROUND, MKPANG",
    "registration_area_id": "2032",
    "precise_location": null,
    "abbreviation": "005",
    "units": "005",
    "delimitation": "09/07/01/005",
    "remark": "EXISTING PU",
    "ward_id": "2032",
    "ward_name": "ABO",
    "local_government_id": "175",
    "local_government_name": "BOKI",
    "state_id": "9",
    "state_name": "CROSS RIVER",
    "location": {
      "latitude": 6.2211925,
      "longitude": 9.0678442,
      "viewport": {
        "northeast": {
          "lat": 6.222542329892722,
          "lng": 9.069194029892724
        },
        "southwest": {
          "lat": 6.219842670107278,
          "lng": 9.06649437010728
        }
      },
      "formatted_address": "63C9+F4H, 551109, Kanyang, Nigeria",
      "google_map_url": "https://maps.google.com?q=6.2211925,9.0678442",
      "google_place_id": "ChIJYynxeUgEXBARZ4cIr2oWgF4"
    }
  },
  {
    "id": "36810",
    "name": "PLAYGROUND OBISU",
    "registration_area_id": "2032",
    "precise_location": null,
    "abbreviation": "006",
    "units": "006",
    "delimitation": "09/07/01/006",
    "remark": "EXISTING PU",
    "ward_id": "2032",
    "ward_name": "ABO",
    "local_government_id": "175",
    "local_government_name": "BOKI",
    "state_id": "9",
    "state_name": "CROSS RIVER",
    "location": {
      "latitude": 6.405574499999999,
      "longitude": 8.7999713,
      "viewport": {
        "northeast": {
          "lat": 6.406924129892722,
          "lng": 8.801327879892721
        },
        "southwest": {
          "lat": 6.404224470107279,
          "lng": 8.798628220107277
        }
      },
      "formatted_address": "Opposite Okisam Filling station Boki local government area, 551177, Okundi, Nigeria",
      "google_map_url": "https://maps.google.com?q=6.405574499999999,8.7999713",
      "google_place_id": "ChIJo4HkNNOLWxARhyB3ZR9_PtA"
    }
  },
  {
    "id": "36811",
    "name": "PLAYGROUND BONABE",
    "registration_area_id": "2032",
    "precise_location": null,
    "abbreviation": "007",
    "units": "007",
    "delimitation": "09/07/01/007",
    "remark": "EXISTING PU",
    "ward_id": "2032",
    "ward_name": "ABO",
    "local_government_id": "175",
    "local_government_name": "BOKI",
    "state_id": "9",
    "state_name": "CROSS RIVER",
    "location": {
      "latitude": 6.405574499999999,
      "longitude": 8.7999713,
      "viewport": {
        "northeast": {
          "lat": 6.406924129892722,
          "lng": 8.801327879892721
        },
        "southwest": {
          "lat": 6.404224470107279,
          "lng": 8.798628220107277
        }
      },
      "formatted_address": "Opposite Okisam Filling station Boki local government area, 551177, Okundi, Nigeria",
      "google_map_url": "https://maps.google.com?q=6.405574499999999,8.7999713",
      "google_place_id": "ChIJo4HkNNOLWxARhyB3ZR9_PtA"
    }
  },
  {
    "id": "36812",
    "name": "PLAYGROUND BASHU",
    "registration_area_id": "2032",
    "precise_location": null,
    "abbreviation": "008",
    "units": "008",
    "delimitation": "09/07/01/008",
    "remark": "EXISTING PU",
    "ward_id": "2032",
    "ward_name": "ABO",
    "local_government_id": "175",
    "local_government_name": "BOKI",
    "state_id": "9",
    "state_name": "CROSS RIVER",
    "location": {
      "latitude": 5.5805318,
      "longitude": 8.748116699999999,
      "viewport": {
        "northeast": {
          "lat": 5.581881629892723,
          "lng": 8.74946652989272
        },
        "southwest": {
          "lat": 5.579181970107279,
          "lng": 8.746766870107276
        }
      },
      "formatted_address": "HPJX+669, Ikom - Abanliko Rd, Basua, Nigeria",
      "google_map_url": "https://maps.google.com?q=5.5805318,8.748116699999999",
      "google_place_id": "ChIJRaD05NymXRAR07InCVZA_rg"
    }
  },
  {
    "id": "36813",
    "name": "PRIMARY SCHOOL, ABONTAKON",
    "registration_area_id": "2032",
    "precise_location": null,
    "abbreviation": "009",
    "units": "009",
    "delimitation": "09/07/01/009",
    "remark": "EXISTING PU",
    "ward_id": "2032",
    "ward_name": "ABO",
    "local_government_id": "175",
    "local_government_name": "BOKI",
    "state_id": "9",
    "state_name": "CROSS RIVER",
    "location": {
      "latitude": 6.4047245,
      "longitude": 8.8011188,
      "viewport": {
        "northeast": {
          "lat": 6.406097679892722,
          "lng": 8.802425529892723
        },
        "southwest": {
          "lat": 6.403398020107278,
          "lng": 8.79972587010728
        }
      },
      "formatted_address": "CR32+VFJ, 551111, Okundi, Nigeria",
      "google_map_url": "https://maps.google.com?q=6.4047245,8.8011188",
      "google_place_id": "ChIJCxXFGJ6LWxARxIodYn5jOos"
    }
  },
  {
    "id": "36814",
    "name": "PLAYGROUND,  BASHUA I",
    "registration_area_id": "2032",
    "precise_location": null,
    "abbreviation": "010",
    "units": "010",
    "delimitation": "09/07/01/010",
    "remark": "EXISTING PU",
    "ward_id": "2032",
    "ward_name": "ABO",
    "local_government_id": "175",
    "local_government_name": "BOKI",
    "state_id": "9",
    "state_name": "CROSS RIVER",
    "location": {
      "latitude": 6.405574499999999,
      "longitude": 8.7999713,
      "viewport": {
        "northeast": {
          "lat": 6.406924129892722,
          "lng": 8.801327879892721
        },
        "southwest": {
          "lat": 6.404224470107279,
          "lng": 8.798628220107277
        }
      },
      "formatted_address": "Opposite Okisam Filling station Boki local government area, 551177, Okundi, Nigeria",
      "google_map_url": "https://maps.google.com?q=6.405574499999999,8.7999713",
      "google_place_id": "ChIJo4HkNNOLWxARhyB3ZR9_PtA"
    }
  },
  {
    "id": "36815",
    "name": "PLAYGROUND,  BASHUA II",
    "registration_area_id": "2032",
    "precise_location": null,
    "abbreviation": "011",
    "units": "011",
    "delimitation": "09/07/01/011",
    "remark": "EXISTING PU",
    "ward_id": "2032",
    "ward_name": "ABO",
    "local_government_id": "175",
    "local_government_name": "BOKI",
    "state_id": "9",
    "state_name": "CROSS RIVER",
    "location": {
      "latitude": 6.405574499999999,
      "longitude": 8.7999713,
      "viewport": {
        "northeast": {
          "lat": 6.406924129892722,
          "lng": 8.801327879892721
        },
        "southwest": {
          "lat": 6.404224470107279,
          "lng": 8.798628220107277
        }
      },
      "formatted_address": "Opposite Okisam Filling station Boki local government area, 551177, Okundi, Nigeria",
      "google_map_url": "https://maps.google.com?q=6.405574499999999,8.7999713",
      "google_place_id": "ChIJo4HkNNOLWxARhyB3ZR9_PtA"
    }
  },
  {
    "id": "36816",
    "name": "PLAYGROUND AYIMEKPANG",
    "registration_area_id": "2032",
    "precise_location": null,
    "abbreviation": "012",
    "units": "012",
    "delimitation": "09/07/01/012",
    "remark": "EXISTING PU",
    "ward_id": "2032",
    "ward_name": "ABO",
    "local_government_id": "175",
    "local_government_name": "BOKI",
    "state_id": "9",
    "state_name": "CROSS RIVER",
    "location": {
      "latitude": 5.5805318,
      "longitude": 8.748116699999999,
      "viewport": {
        "northeast": {
          "lat": 5.581881629892723,
          "lng": 8.74946652989272
        },
        "southwest": {
          "lat": 5.579181970107279,
          "lng": 8.746766870107276
        }
      },
      "formatted_address": "HPJX+669, Ikom - Abanliko Rd, Basua, Nigeria",
      "google_map_url": "https://maps.google.com?q=5.5805318,8.748116699999999",
      "google_place_id": "ChIJRaD05NymXRAR07InCVZA_rg"
    }
  },
  {
    "id": "36817",
    "name": "PLAYGROUND,  OCHOR",
    "registration_area_id": "2032",
    "precise_location": null,
    "abbreviation": "013",
    "units": "013",
    "delimitation": "09/07/01/013",
    "remark": "EXISTING PU",
    "ward_id": "2032",
    "ward_name": "ABO",
    "local_government_id": "175",
    "local_government_name": "BOKI",
    "state_id": "9",
    "state_name": "CROSS RIVER",
    "location": {
      "latitude": 6.405574499999999,
      "longitude": 8.7999713,
      "viewport": {
        "northeast": {
          "lat": 6.406924129892722,
          "lng": 8.801327879892721
        },
        "southwest": {
          "lat": 6.404224470107279,
          "lng": 8.798628220107277
        }
      },
      "formatted_address": "Opposite Okisam Filling station Boki local government area, 551177, Okundi, Nigeria",
      "google_map_url": "https://maps.google.com?q=6.405574499999999,8.7999713",
      "google_place_id": "ChIJo4HkNNOLWxARhyB3ZR9_PtA"
    }
  },
  {
    "id": "36818",
    "name": "PLAYGROUND,  ORIMEKPANG",
    "registration_area_id": "2032",
    "precise_location": null,
    "abbreviation": "014",
    "units": "014",
    "delimitation": "09/07/01/014",
    "remark": "EXISTING PU",
    "ward_id": "2032",
    "ward_name": "ABO",
    "local_government_id": "175",
    "local_government_name": "BOKI",
    "state_id": "9",
    "state_name": "CROSS RIVER",
    "location": {
      "latitude": 6.405574499999999,
      "longitude": 8.7999713,
      "viewport": {
        "northeast": {
          "lat": 6.406924129892722,
          "lng": 8.801327879892721
        },
        "southwest": {
          "lat": 6.404224470107279,
          "lng": 8.798628220107277
        }
      },
      "formatted_address": "Opposite Okisam Filling station Boki local government area, 551177, Okundi, Nigeria",
      "google_map_url": "https://maps.google.com?q=6.405574499999999,8.7999713",
      "google_place_id": "ChIJo4HkNNOLWxARhyB3ZR9_PtA"
    }
  },
  {
    "id": "36819",
    "name": "PLAY GROUND,  EMEH ORIMEKPANG",
    "registration_area_id": "2032",
    "precise_location": null,
    "abbreviation": "015",
    "units": "015",
    "delimitation": "09/07/01/015",
    "remark": "EXISTING PU",
    "ward_id": "2032",
    "ward_name": "ABO",
    "local_government_id": "175",
    "local_government_name": "BOKI",
    "state_id": "9",
    "state_name": "CROSS RIVER",
    "location": {
      "latitude": 5.5805318,
      "longitude": 8.748116699999999,
      "viewport": {
        "northeast": {
          "lat": 5.581881629892723,
          "lng": 8.74946652989272
        },
        "southwest": {
          "lat": 5.579181970107279,
          "lng": 8.746766870107276
        }
      },
      "formatted_address": "HPJX+669, Ikom - Abanliko Rd, Basua, Nigeria",
      "google_map_url": "https://maps.google.com?q=5.5805318,8.748116699999999",
      "google_place_id": "ChIJRaD05NymXRAR07InCVZA_rg"
    }
  },
  {
    "id": "36820",
    "name": "PLAYGROUND,  ABONOROK I",
    "registration_area_id": "2032",
    "precise_location": null,
    "abbreviation": "016",
    "units": "016",
    "delimitation": "09/07/01/016",
    "remark": "EXISTING PU",
    "ward_id": "2032",
    "ward_name": "ABO",
    "local_government_id": "175",
    "local_government_name": "BOKI",
    "state_id": "9",
    "state_name": "CROSS RIVER",
    "location": {
      "latitude": 6.405574499999999,
      "longitude": 8.7999713,
      "viewport": {
        "northeast": {
          "lat": 6.406924129892722,
          "lng": 8.801327879892721
        },
        "southwest": {
          "lat": 6.404224470107279,
          "lng": 8.798628220107277
        }
      },
      "formatted_address": "Opposite Okisam Filling station Boki local government area, 551177, Okundi, Nigeria",
      "google_map_url": "https://maps.google.com?q=6.405574499999999,8.7999713",
      "google_place_id": "ChIJo4HkNNOLWxARhyB3ZR9_PtA"
    }
  },
  {
    "id": "36821",
    "name": "PLAYGROUND, ABONOROK II",
    "registration_area_id": "2032",
    "precise_location": null,
    "abbreviation": "017",
    "units": "017",
    "delimitation": "09/07/01/017",
    "remark": "EXISTING PU",
    "ward_id": "2032",
    "ward_name": "ABO",
    "local_government_id": "175",
    "local_government_name": "BOKI",
    "state_id": "9",
    "state_name": "CROSS RIVER",
    "location": {
      "latitude": 6.405574499999999,
      "longitude": 8.7999713,
      "viewport": {
        "northeast": {
          "lat": 6.406924129892722,
          "lng": 8.801327879892721
        },
        "southwest": {
          "lat": 6.404224470107279,
          "lng": 8.798628220107277
        }
      },
      "formatted_address": "Opposite Okisam Filling station Boki local government area, 551177, Okundi, Nigeria",
      "google_map_url": "https://maps.google.com?q=6.405574499999999,8.7999713",
      "google_place_id": "ChIJo4HkNNOLWxARhyB3ZR9_PtA"
    }
  },
  {
    "id": "36822",
    "name": "PLAYGROUND,  DANARE I",
    "registration_area_id": "2032",
    "precise_location": null,
    "abbreviation": "018",
    "units": "018",
    "delimitation": "09/07/01/018",
    "remark": "EXISTING PU",
    "ward_id": "2032",
    "ward_name": "ABO",
    "local_government_id": "175",
    "local_government_name": "BOKI",
    "state_id": "9",
    "state_name": "CROSS RIVER",
    "location": {
      "latitude": 5.5805318,
      "longitude": 8.748116699999999,
      "viewport": {
        "northeast": {
          "lat": 5.581881629892723,
          "lng": 8.74946652989272
        },
        "southwest": {
          "lat": 5.579181970107279,
          "lng": 8.746766870107276
        }
      },
      "formatted_address": "HPJX+669, Ikom - Abanliko Rd, Basua, Nigeria",
      "google_map_url": "https://maps.google.com?q=5.5805318,8.748116699999999",
      "google_place_id": "ChIJRaD05NymXRAR07InCVZA_rg"
    }
  },
  {
    "id": "36823",
    "name": "PLAYGROUND,  DANARE II",
    "registration_area_id": "2032",
    "precise_location": null,
    "abbreviation": "019",
    "units": "019",
    "delimitation": "09/07/01/019",
    "remark": "EXISTING PU",
    "ward_id": "2032",
    "ward_name": "ABO",
    "local_government_id": "175",
    "local_government_name": "BOKI",
    "state_id": "9",
    "state_name": "CROSS RIVER",
    "location": {
      "latitude": 6.159804599999999,
      "longitude": 9.0219106,
      "viewport": {
        "northeast": {
          "lat": 6.161152579892722,
          "lng": 9.023248329892722
        },
        "southwest": {
          "lat": 6.158452920107278,
          "lng": 9.020548670107278
        }
      },
      "formatted_address": "Ikom - Abanliko Rd, 551108, Abo, Nigeria",
      "google_map_url": "https://maps.google.com?q=6.159804599999999,9.0219106",
      "google_place_id": "ChIJVXQ3Pa0aXBARsTGwU05Kgjg"
    }
  },
  {
    "id": "36824",
    "name": "PLAYGROUND, DANARE III",
    "registration_area_id": "2032",
    "precise_location": null,
    "abbreviation": "020",
    "units": "020",
    "delimitation": "09/07/01/020",
    "remark": "EXISTING PU",
    "ward_id": "2032",
    "ward_name": "ABO",
    "local_government_id": "175",
    "local_government_name": "BOKI",
    "state_id": "9",
    "state_name": "CROSS RIVER",
    "location": {
      "latitude": 5.5805318,
      "longitude": 8.748116699999999,
      "viewport": {
        "northeast": {
          "lat": 5.581881629892723,
          "lng": 8.74946652989272
        },
        "southwest": {
          "lat": 5.579181970107279,
          "lng": 8.746766870107276
        }
      },
      "formatted_address": "HPJX+669, Ikom - Abanliko Rd, Basua, Nigeria",
      "google_map_url": "https://maps.google.com?q=5.5805318,8.748116699999999",
      "google_place_id": "ChIJRaD05NymXRAR07InCVZA_rg"
    }
  },
  {
    "id": "36825",
    "name": "VILLAGE SQ. KAKU BASHU",
    "registration_area_id": "2032",
    "precise_location": null,
    "abbreviation": "021",
    "units": "021",
    "delimitation": "09/07/01/021",
    "remark": "NEW PU",
    "ward_id": "2032",
    "ward_name": "ABO",
    "local_government_id": "175",
    "local_government_name": "BOKI",
    "state_id": "9",
    "state_name": "CROSS RIVER",
    "location": {
      "latitude": 6.405574499999999,
      "longitude": 8.7999713,
      "viewport": {
        "northeast": {
          "lat": 6.406924129892722,
          "lng": 8.801327879892721
        },
        "southwest": {
          "lat": 6.404224470107279,
          "lng": 8.798628220107277
        }
      },
      "formatted_address": "Opposite Okisam Filling station Boki local government area, 551177, Okundi, Nigeria",
      "google_map_url": "https://maps.google.com?q=6.405574499999999,8.7999713",
      "google_place_id": "ChIJo4HkNNOLWxARhyB3ZR9_PtA"
    }
  },
  {
    "id": "36826",
    "name": "P/G OSHIE OSIM ASU",
    "registration_area_id": "2032",
    "precise_location": null,
    "abbreviation": "022",
    "units": "022",
    "delimitation": "09/07/01/022",
    "remark": "NEW PU",
    "ward_id": "2032",
    "ward_name": "ABO",
    "local_government_id": "175",
    "local_government_name": "BOKI",
    "state_id": "9",
    "state_name": "CROSS RIVER",
    "location": {
      "latitude": 43.7779901,
      "longitude": -79.3440914,
      "viewport": {
        "northeast": {
          "lat": 43.77906892989272,
          "lng": -79.34261657010728
        },
        "southwest": {
          "lat": 43.77636927010727,
          "lng": -79.34531622989272
        }
      },
      "formatted_address": "1800 Sheppard Ave E Unit 1058, North York, ON M2J 5A7, Canada",
      "google_map_url": "https://maps.google.com?q=43.7779901,-79.3440914",
      "google_place_id": "ChIJYUKOoBPT1IkRFdw4CfJZCIo"
    }
  },
  {
    "id": "36827",
    "name": "P/G OSHIE OSIM OCHAJIE",
    "registration_area_id": "2032",
    "precise_location": null,
    "abbreviation": "023",
    "units": "023",
    "delimitation": "09/07/01/023",
    "remark": "NEW PU",
    "ward_id": "2032",
    "ward_name": "ABO",
    "local_government_id": "175",
    "local_government_name": "BOKI",
    "state_id": "9",
    "state_name": "CROSS RIVER",
    "location": {
      "latitude": 43.7779901,
      "longitude": -79.3440914,
      "viewport": {
        "northeast": {
          "lat": 43.77906892989272,
          "lng": -79.34261657010728
        },
        "southwest": {
          "lat": 43.77636927010727,
          "lng": -79.34531622989272
        }
      },
      "formatted_address": "1800 Sheppard Ave E Unit 1058, North York, ON M2J 5A7, Canada",
      "google_map_url": "https://maps.google.com?q=43.7779901,-79.3440914",
      "google_place_id": "ChIJYUKOoBPT1IkRFdw4CfJZCIo"
    }
  },
  {
    "id": "36828",
    "name": "ST. BENDICT P/S, BIAKWAN",
    "registration_area_id": "2032",
    "precise_location": null,
    "abbreviation": "024",
    "units": "024",
    "delimitation": "09/07/01/024",
    "remark": "NEW PU",
    "ward_id": "2032",
    "ward_name": "ABO",
    "local_government_id": "175",
    "local_government_name": "BOKI",
    "state_id": "9",
    "state_name": "CROSS RIVER",
    "location": {
      "latitude": 6.423615,
      "longitude": 8.751647,
      "viewport": {
        "northeast": {
          "lat": 6.425049179892723,
          "lng": 8.753061179892722
        },
        "southwest": {
          "lat": 6.42234952010728,
          "lng": 8.750361520107278
        }
      },
      "formatted_address": "CQF2+CM, 551111, Ntanante, Nigeria",
      "google_map_url": "https://maps.google.com?q=6.423615,8.751647",
      "google_place_id": "ChIJUyQCSViNWxARX6LZo9xu39w"
    }
  },
  {
    "id": "36829",
    "name": "P/S ORIM EKPANG",
    "registration_area_id": "2032",
    "precise_location": null,
    "abbreviation": "025",
    "units": "025",
    "delimitation": "09/07/01/025",
    "remark": "NEW PU",
    "ward_id": "2032",
    "ward_name": "ABO",
    "local_government_id": "175",
    "local_government_name": "BOKI",
    "state_id": "9",
    "state_name": "CROSS RIVER",
    "location": {
      "latitude": 6.405574499999999,
      "longitude": 8.7999713,
      "viewport": {
        "northeast": {
          "lat": 6.406924129892722,
          "lng": 8.801327879892721
        },
        "southwest": {
          "lat": 6.404224470107279,
          "lng": 8.798628220107277
        }
      },
      "formatted_address": "Opposite Okisam Filling station Boki local government area, 551177, Okundi, Nigeria",
      "google_map_url": "https://maps.google.com?q=6.405574499999999,8.7999713",
      "google_place_id": "ChIJo4HkNNOLWxARhyB3ZR9_PtA"
    }
  },
  {
    "id": "36830",
    "name": "P/S ABONOROK I",
    "registration_area_id": "2032",
    "precise_location": null,
    "abbreviation": "026",
    "units": "026",
    "delimitation": "09/07/01/026",
    "remark": "NEW PU",
    "ward_id": "2032",
    "ward_name": "ABO",
    "local_government_id": "175",
    "local_government_name": "BOKI",
    "state_id": "9",
    "state_name": "CROSS RIVER",
    "location": {
      "latitude": 6.405574499999999,
      "longitude": 8.7999713,
      "viewport": {
        "northeast": {
          "lat": 6.406924129892722,
          "lng": 8.801327879892721
        },
        "southwest": {
          "lat": 6.404224470107279,
          "lng": 8.798628220107277
        }
      },
      "formatted_address": "Opposite Okisam Filling station Boki local government area, 551177, Okundi, Nigeria",
      "google_map_url": "https://maps.google.com?q=6.405574499999999,8.7999713",
      "google_place_id": "ChIJo4HkNNOLWxARhyB3ZR9_PtA"
    }
  },
  {
    "id": "36831",
    "name": "P/G MARKET SQUARE",
    "registration_area_id": "2032",
    "precise_location": null,
    "abbreviation": "027",
    "units": "027",
    "delimitation": "09/07/01/027",
    "remark": "NEW PU",
    "ward_id": "2032",
    "ward_name": "ABO",
    "local_government_id": "175",
    "local_government_name": "BOKI",
    "state_id": "9",
    "state_name": "CROSS RIVER",
    "location": null
  },
  {
    "id": "36832",
    "name": "P/S DANARE I",
    "registration_area_id": "2032",
    "precise_location": null,
    "abbreviation": "028",
    "units": "028",
    "delimitation": "09/07/01/028",
    "remark": "NEW PU",
    "ward_id": "2032",
    "ward_name": "ABO",
    "local_government_id": "175",
    "local_government_name": "BOKI",
    "state_id": "9",
    "state_name": "CROSS RIVER",
    "location": {
      "latitude": 6.405574499999999,
      "longitude": 8.7999713,
      "viewport": {
        "northeast": {
          "lat": 6.406924129892722,
          "lng": 8.801327879892721
        },
        "southwest": {
          "lat": 6.404224470107279,
          "lng": 8.798628220107277
        }
      },
      "formatted_address": "Opposite Okisam Filling station Boki local government area, 551177, Okundi, Nigeria",
      "google_map_url": "https://maps.google.com?q=6.405574499999999,8.7999713",
      "google_place_id": "ChIJo4HkNNOLWxARhyB3ZR9_PtA"
    }
  },
  {
    "id": "36833",
    "name": "P/G DANARE II",
    "registration_area_id": "2032",
    "precise_location": null,
    "abbreviation": "029",
    "units": "029",
    "delimitation": "09/07/01/029",
    "remark": "NEW PU",
    "ward_id": "2032",
    "ward_name": "ABO",
    "local_government_id": "175",
    "local_government_name": "BOKI",
    "state_id": "9",
    "state_name": "CROSS RIVER",
    "location": {
      "latitude": 6.405574499999999,
      "longitude": 8.7999713,
      "viewport": {
        "northeast": {
          "lat": 6.406924129892722,
          "lng": 8.801327879892721
        },
        "southwest": {
          "lat": 6.404224470107279,
          "lng": 8.798628220107277
        }
      },
      "formatted_address": "Opposite Okisam Filling station Boki local government area, 551177, Okundi, Nigeria",
      "google_map_url": "https://maps.google.com?q=6.405574499999999,8.7999713",
      "google_place_id": "ChIJo4HkNNOLWxARhyB3ZR9_PtA"
    }
  }
]