[
  {
    "id": "45549",
    "name": "UKPA/AMACHI PRIMARY SCHOOL",
    "registration_area_id": "2456",
    "precise_location": null,
    "abbreviation": "001",
    "units": "001",
    "delimitation": "11/02/08/001",
    "remark": "EXISTING PU",
    "ward_id": "2456",
    "ward_name": "OHAISU AFIKPO A",
    "local_government_id": "213",
    "local_government_name": "AFIKPO NORTH",
    "state_id": "11",
    "state_name": "EBONYI",
    "location": {
      "latitude": 5.8904394,
      "longitude": 7.932095299999999,
      "viewport": {
        "northeast": {
          "lat": 5.891754629892722,
          "lng": 7.933443779892722
        },
        "southwest": {
          "lat": 5.889054970107278,
          "lng": 7.930744120107278
        }
      },
      "formatted_address": "VWRJ+5RH, 490103, Afikpo, Nigeria",
      "google_map_url": "https://maps.google.com?q=5.8904394,7.932095299999999",
      "google_place_id": "ChIJ37S6AgzPXBARFdxkSZyN5jU"
    }
  },
  {
    "id": "45550",
    "name": "UKPA PLAY GROUND I",
    "registration_area_id": "2456",
    "precise_location": null,
    "abbreviation": "002",
    "units": "002",
    "delimitation": "11/02/08/002",
    "remark": "EXISTING PU",
    "ward_id": "2456",
    "ward_name": "OHAISU AFIKPO A",
    "local_government_id": "213",
    "local_government_name": "AFIKPO NORTH",
    "state_id": "11",
    "state_name": "EBONYI",
    "location": {
      "latitude": 5.8923,
      "longitude": 7.9330603,
      "viewport": {
        "northeast": {
          "lat": 5.893638779892722,
          "lng": 7.934405279892723
        },
        "southwest": {
          "lat": 5.890939120107278,
          "lng": 7.931705620107279
        }
      },
      "formatted_address": "VWRM+W67, 490103, Afikpo, Nigeria",
      "google_map_url": "https://maps.google.com?q=5.8923,7.9330603",
      "google_place_id": "ChIJe535cVPPXBARZX0hsMk1ZZw"
    }
  },
  {
    "id": "45551",
    "name": "UKPA PLAY GROUND II",
    "registration_area_id": "2456",
    "precise_location": null,
    "abbreviation": "003",
    "units": "003",
    "delimitation": "11/02/08/003",
    "remark": "EXISTING PU",
    "ward_id": "2456",
    "ward_name": "OHAISU AFIKPO A",
    "local_government_id": "213",
    "local_government_name": "AFIKPO NORTH",
    "state_id": "11",
    "state_name": "EBONYI",
    "location": {
      "latitude": 5.8923,
      "longitude": 7.9330603,
      "viewport": {
        "northeast": {
          "lat": 5.893638779892722,
          "lng": 7.934405279892723
        },
        "southwest": {
          "lat": 5.890939120107278,
          "lng": 7.931705620107279
        }
      },
      "formatted_address": "VWRM+W67, 490103, Afikpo, Nigeria",
      "google_map_url": "https://maps.google.com?q=5.8923,7.9330603",
      "google_place_id": "ChIJe535cVPPXBARZX0hsMk1ZZw"
    }
  },
  {
    "id": "45552",
    "name": "EGBEBERI/AMACHRAAGBO",
    "registration_area_id": "2456",
    "precise_location": null,
    "abbreviation": "004",
    "units": "004",
    "delimitation": "11/02/08/004",
    "remark": "EXISTING PU",
    "ward_id": "2456",
    "ward_name": "OHAISU AFIKPO A",
    "local_government_id": "213",
    "local_government_name": "AFIKPO NORTH",
    "state_id": "11",
    "state_name": "EBONYI",
    "location": {
      "latitude": 5.891094000000001,
      "longitude": 7.930686299999999,
      "viewport": {
        "northeast": {
          "lat": 5.8963439,
          "lng": 7.937157999999998
        },
        "southwest": {
          "lat": 5.8843689,
          "lng": 7.923915999999999
        }
      },
      "formatted_address": "490103, Afikpo, Nigeria",
      "google_map_url": "https://maps.google.com?q=5.891094000000001,7.930686299999999",
      "google_place_id": "ChIJTUFfl57PXBARNL9fS-fs0TU"
    }
  },
  {
    "id": "45553",
    "name": "AMACHARA PLAY GROUND",
    "registration_area_id": "2456",
    "precise_location": null,
    "abbreviation": "005",
    "units": "005",
    "delimitation": "11/02/08/005",
    "remark": "EXISTING PU",
    "ward_id": "2456",
    "ward_name": "OHAISU AFIKPO A",
    "local_government_id": "213",
    "local_government_name": "AFIKPO NORTH",
    "state_id": "11",
    "state_name": "EBONYI",
    "location": {
      "latitude": 5.887890199999999,
      "longitude": 7.9314031,
      "viewport": {
        "northeast": {
          "lat": 5.889150729892721,
          "lng": 7.932715229892721
        },
        "southwest": {
          "lat": 5.886451070107277,
          "lng": 7.930015570107277
        }
      },
      "formatted_address": "VWQJ+5HF, 490103, Afikpo, Nigeria",
      "google_map_url": "https://maps.google.com?q=5.887890199999999,7.9314031",
      "google_place_id": "ChIJrbnDfAnPXBARcmbzNjXr6ZE"
    }
  },
  {
    "id": "45554",
    "name": "NGODO/AMACHI PRIMARY SCHOOL",
    "registration_area_id": "2456",
    "precise_location": null,
    "abbreviation": "006",
    "units": "006",
    "delimitation": "11/02/08/006",
    "remark": "EXISTING PU",
    "ward_id": "2456",
    "ward_name": "OHAISU AFIKPO A",
    "local_government_id": "213",
    "local_government_name": "AFIKPO NORTH",
    "state_id": "11",
    "state_name": "EBONYI",
    "location": {
      "latitude": 5.8908958,
      "longitude": 7.938405599999999,
      "viewport": {
        "northeast": {
          "lat": 5.892206829892721,
          "lng": 7.939737879892721
        },
        "southwest": {
          "lat": 5.889507170107278,
          "lng": 7.937038220107278
        }
      },
      "formatted_address": "VWRQ+997, 490103, Afikpo, Nigeria",
      "google_map_url": "https://maps.google.com?q=5.8908958,7.938405599999999",
      "google_place_id": "ChIJX0rqRnPPXBARn9BAXM7Qz3Q"
    }
  },
  {
    "id": "45555",
    "name": "AMACHI VILLAGE SQUARE",
    "registration_area_id": "2456",
    "precise_location": null,
    "abbreviation": "007",
    "units": "007",
    "delimitation": "11/02/08/007",
    "remark": "EXISTING PU",
    "ward_id": "2456",
    "ward_name": "OHAISU AFIKPO A",
    "local_government_id": "213",
    "local_government_name": "AFIKPO NORTH",
    "state_id": "11",
    "state_name": "EBONYI",
    "location": {
      "latitude": 5.891094000000001,
      "longitude": 7.930686299999999,
      "viewport": {
        "northeast": {
          "lat": 5.8963439,
          "lng": 7.937157999999998
        },
        "southwest": {
          "lat": 5.8843689,
          "lng": 7.923915999999999
        }
      },
      "formatted_address": "490103, Afikpo, Nigeria",
      "google_map_url": "https://maps.google.com?q=5.891094000000001,7.930686299999999",
      "google_place_id": "ChIJTUFfl57PXBARNL9fS-fs0TU"
    }
  },
  {
    "id": "45556",
    "name": "AMACHI SQUARE",
    "registration_area_id": "2456",
    "precise_location": null,
    "abbreviation": "008",
    "units": "008",
    "delimitation": "11/02/08/008",
    "remark": "EXISTING PU",
    "ward_id": "2456",
    "ward_name": "OHAISU AFIKPO A",
    "local_government_id": "213",
    "local_government_name": "AFIKPO NORTH",
    "state_id": "11",
    "state_name": "EBONYI",
    "location": {
      "latitude": 5.886292399999999,
      "longitude": 7.9376653,
      "viewport": {
        "northeast": {
          "lat": 5.887642229892722,
          "lng": 7.939015129892722
        },
        "southwest": {
          "lat": 5.884942570107278,
          "lng": 7.936315470107278
        }
      },
      "formatted_address": "Amachi Cl, 490103, Amangbara, Nigeria",
      "google_map_url": "https://maps.google.com?q=5.886292399999999,7.9376653",
      "google_place_id": "ChIJ72l50ArPXBARZqlqWlSBozU"
    }
  },
  {
    "id": "45557",
    "name": "NGODO/AMACHI PRIMARY SCHOOL II",
    "registration_area_id": "2456",
    "precise_location": null,
    "abbreviation": "009",
    "units": "009",
    "delimitation": "11/02/08/009",
    "remark": "EXISTING PU",
    "ward_id": "2456",
    "ward_name": "OHAISU AFIKPO A",
    "local_government_id": "213",
    "local_government_name": "AFIKPO NORTH",
    "state_id": "11",
    "state_name": "EBONYI",
    "location": {
      "latitude": 5.8908958,
      "longitude": 7.938405599999999,
      "viewport": {
        "northeast": {
          "lat": 5.892206829892721,
          "lng": 7.939737879892721
        },
        "southwest": {
          "lat": 5.889507170107278,
          "lng": 7.937038220107278
        }
      },
      "formatted_address": "VWRQ+997, 490103, Afikpo, Nigeria",
      "google_map_url": "https://maps.google.com?q=5.8908958,7.938405599999999",
      "google_place_id": "ChIJX0rqRnPPXBARn9BAXM7Qz3Q"
    }
  },
  {
    "id": "45558",
    "name": "EZI- OTI TOWN HALL",
    "registration_area_id": "2456",
    "precise_location": null,
    "abbreviation": "010",
    "units": "010",
    "delimitation": "11/02/08/010",
    "remark": "NEW PU",
    "ward_id": "2456",
    "ward_name": "OHAISU AFIKPO A",
    "local_government_id": "213",
    "local_government_name": "AFIKPO NORTH",
    "state_id": "11",
    "state_name": "EBONYI",
    "location": {
      "latitude": 5.8854999,
      "longitude": 7.932819599999999,
      "viewport": {
        "northeast": {
          "lat": 5.886878129892722,
          "lng": 7.934109629892721
        },
        "southwest": {
          "lat": 5.884178470107278,
          "lng": 7.931409970107278
        }
      },
      "formatted_address": "VWPM+54W, 490103, Afikpo, Nigeria",
      "google_map_url": "https://maps.google.com?q=5.8854999,7.932819599999999",
      "google_place_id": "ChIJucnKEArPXBAR9NkB0fUu6bM"
    }
  },
  {
    "id": "45559",
    "name": "ONUOGO EZI AKANI",
    "registration_area_id": "2456",
    "precise_location": null,
    "abbreviation": "011",
    "units": "011",
    "delimitation": "11/02/08/011",
    "remark": "NEW PU",
    "ward_id": "2456",
    "ward_name": "OHAISU AFIKPO A",
    "local_government_id": "213",
    "local_government_name": "AFIKPO NORTH",
    "state_id": "11",
    "state_name": "EBONYI",
    "location": null
  },
  {
    "id": "45560",
    "name": "AMACHARAGBO LOCKUP SHOP",
    "registration_area_id": "2456",
    "precise_location": null,
    "abbreviation": "012",
    "units": "012",
    "delimitation": "11/02/08/012",
    "remark": "NEW PU",
    "ward_id": "2456",
    "ward_name": "OHAISU AFIKPO A",
    "local_government_id": "213",
    "local_government_name": "AFIKPO NORTH",
    "state_id": "11",
    "state_name": "EBONYI",
    "location": {
      "latitude": 5.891094000000001,
      "longitude": 7.930686299999999,
      "viewport": {
        "northeast": {
          "lat": 5.8963439,
          "lng": 7.937157999999998
        },
        "southwest": {
          "lat": 5.8843689,
          "lng": 7.923915999999999
        }
      },
      "formatted_address": "490103, Afikpo, Nigeria",
      "google_map_url": "https://maps.google.com?q=5.891094000000001,7.930686299999999",
      "google_place_id": "ChIJTUFfl57PXBARNL9fS-fs0TU"
    }
  },
  {
    "id": "45561",
    "name": "AMACHARA HEALTH CENTRE",
    "registration_area_id": "2456",
    "precise_location": null,
    "abbreviation": "013",
    "units": "013",
    "delimitation": "11/02/08/013",
    "remark": "NEW PU",
    "ward_id": "2456",
    "ward_name": "OHAISU AFIKPO A",
    "local_government_id": "213",
    "local_government_name": "AFIKPO NORTH",
    "state_id": "11",
    "state_name": "EBONYI",
    "location": {
      "latitude": 5.8895839,
      "longitude": 7.931996599999999,
      "viewport": {
        "northeast": {
          "lat": 5.890956629892721,
          "lng": 7.933328879892722
        },
        "southwest": {
          "lat": 5.888256970107277,
          "lng": 7.930629220107278
        }
      },
      "formatted_address": "VWQJ+WR2, beside Ukpa/Amachara school field, Amachara Elu, 490103, Afikpo, Nigeria",
      "google_map_url": "https://maps.google.com?q=5.8895839,7.931996599999999",
      "google_place_id": "ChIJsUVasszPXBAR9pdDukzkXJs"
    }
  },
  {
    "id": "45562",
    "name": "NGODO TOWN HALL",
    "registration_area_id": "2456",
    "precise_location": null,
    "abbreviation": "014",
    "units": "014",
    "delimitation": "11/02/08/014",
    "remark": "NEW PU",
    "ward_id": "2456",
    "ward_name": "OHAISU AFIKPO A",
    "local_government_id": "213",
    "local_government_name": "AFIKPO NORTH",
    "state_id": "11",
    "state_name": "EBONYI",
    "location": {
      "latitude": 5.8854999,
      "longitude": 7.932819599999999,
      "viewport": {
        "northeast": {
          "lat": 5.886878129892722,
          "lng": 7.934109629892721
        },
        "southwest": {
          "lat": 5.884178470107278,
          "lng": 7.931409970107278
        }
      },
      "formatted_address": "VWPM+54W, 490103, Afikpo, Nigeria",
      "google_map_url": "https://maps.google.com?q=5.8854999,7.932819599999999",
      "google_place_id": "ChIJucnKEArPXBAR9NkB0fUu6bM"
    }
  },
  {
    "id": "45563",
    "name": "AMELU AMACHI PLAYGROUND",
    "registration_area_id": "2456",
    "precise_location": null,
    "abbreviation": "015",
    "units": "015",
    "delimitation": "11/02/08/015",
    "remark": "NEW PU",
    "ward_id": "2456",
    "ward_name": "OHAISU AFIKPO A",
    "local_government_id": "213",
    "local_government_name": "AFIKPO NORTH",
    "state_id": "11",
    "state_name": "EBONYI",
    "location": {
      "latitude": 5.8312737,
      "longitude": 7.928234700000001,
      "viewport": {
        "northeast": {
          "lat": 5.832623029892722,
          "lng": 7.929589129892722
        },
        "southwest": {
          "lat": 5.829923370107278,
          "lng": 7.926889470107279
        }
      },
      "formatted_address": "RWJH+G75, 490101, Amoncha, Nigeria",
      "google_map_url": "https://maps.google.com?q=5.8312737,7.928234700000001",
      "google_place_id": "ChIJPXNLwTrQXBARpH8qlQsMRRY"
    }
  },
  {
    "id": "45564",
    "name": "AMOSU AMACHI PLAYGROUND",
    "registration_area_id": "2456",
    "precise_location": null,
    "abbreviation": "016",
    "units": "016",
    "delimitation": "11/02/08/016",
    "remark": "NEW PU",
    "ward_id": "2456",
    "ward_name": "OHAISU AFIKPO A",
    "local_government_id": "213",
    "local_government_name": "AFIKPO NORTH",
    "state_id": "11",
    "state_name": "EBONYI",
    "location": {
      "latitude": 5.8312737,
      "longitude": 7.928234700000001,
      "viewport": {
        "northeast": {
          "lat": 5.832623029892722,
          "lng": 7.929589129892722
        },
        "southwest": {
          "lat": 5.829923370107278,
          "lng": 7.926889470107279
        }
      },
      "formatted_address": "RWJH+G75, 490101, Amoncha, Nigeria",
      "google_map_url": "https://maps.google.com?q=5.8312737,7.928234700000001",
      "google_place_id": "ChIJPXNLwTrQXBARpH8qlQsMRRY"
    }
  }
]