[
  {
    "id": "53083",
    "name": "METHODIST PRY. SCH. - IGBEDE",
    "registration_area_id": "2825",
    "precise_location": null,
    "abbreviation": "001",
    "units": "001",
    "delimitation": "13/03/05/001",
    "remark": "EXISTING PU",
    "ward_id": "2825",
    "ward_name": "KOTA   II",
    "local_government_id": "245",
    "local_government_name": "EKITI EAST",
    "state_id": "13",
    "state_name": "EKITI",
    "location": {
      "latitude": 7.846705000000001,
      "longitude": 5.184829,
      "viewport": {
        "northeast": {
          "lat": 7.848103279892723,
          "lng": 5.186274729892722
        },
        "southwest": {
          "lat": 7.845403620107279,
          "lng": 5.183575070107278
        }
      },
      "formatted_address": "R5WM+MWP, Oke bareke street, Ido Ekiti, Nigeria",
      "google_map_url": "https://maps.google.com?q=7.846705000000001,5.184829",
      "google_place_id": "ChIJ6exp8Q4FSBARd8XjJDgE8r0"
    }
  },
  {
    "id": "53084",
    "name": "MAYOKUN ST. - IGBEDE",
    "registration_area_id": "2825",
    "precise_location": null,
    "abbreviation": "002",
    "units": "002",
    "delimitation": "13/03/05/002",
    "remark": "EXISTING PU",
    "ward_id": "2825",
    "ward_name": "KOTA   II",
    "local_government_id": "245",
    "local_government_name": "EKITI EAST",
    "state_id": "13",
    "state_name": "EKITI",
    "location": {
      "latitude": 7.745553,
      "longitude": 5.717355,
      "viewport": {
        "northeast": {
          "lat": 7.746952679892721,
          "lng": 5.718935129892722
        },
        "southwest": {
          "lat": 7.744253020107277,
          "lng": 5.716235470107279
        }
      },
      "formatted_address": "PPW8+6WH, 362221, Omuo, Nigeria",
      "google_map_url": "https://maps.google.com?q=7.745553,5.717355",
      "google_place_id": "ChIJfRaIZ1jVRxARzAMoLWKb0ck"
    }
  },
  {
    "id": "53085",
    "name": "ODA -PONA ST. - ODA PONA",
    "registration_area_id": "2825",
    "precise_location": null,
    "abbreviation": "003",
    "units": "003",
    "delimitation": "13/03/05/003",
    "remark": "EXISTING PU",
    "ward_id": "2825",
    "ward_name": "KOTA   II",
    "local_government_id": "245",
    "local_government_name": "EKITI EAST",
    "state_id": "13",
    "state_name": "EKITI",
    "location": null
  },
  {
    "id": "53086",
    "name": "ILISA OKE - ILISA OKE",
    "registration_area_id": "2825",
    "precise_location": null,
    "abbreviation": "004",
    "units": "004",
    "delimitation": "13/03/05/004",
    "remark": "EXISTING PU",
    "ward_id": "2825",
    "ward_name": "KOTA   II",
    "local_government_id": "245",
    "local_government_name": "EKITI EAST",
    "state_id": "13",
    "state_name": "EKITI",
    "location": {
      "latitude": 7.950747199999999,
      "longitude": 5.545281399999999,
      "viewport": {
        "northeast": {
          "lat": 7.95221262989272,
          "lng": 5.546841679892721
        },
        "southwest": {
          "lat": 7.949512970107276,
          "lng": 5.544142020107278
        }
      },
      "formatted_address": "370108, Oke-Ako, Nigeria",
      "google_map_url": "https://maps.google.com?q=7.950747199999999,5.545281399999999",
      "google_place_id": "ChIJuczCuZZvSBARJ_O0_gCrQmU"
    }
  },
  {
    "id": "53087",
    "name": "BOLORUNDURO - BOLORUNDURO / OBAJODA  I",
    "registration_area_id": "2825",
    "precise_location": null,
    "abbreviation": "005",
    "units": "005",
    "delimitation": "13/03/05/005",
    "remark": "EXISTING PU",
    "ward_id": "2825",
    "ward_name": "KOTA   II",
    "local_government_id": "245",
    "local_government_name": "EKITI EAST",
    "state_id": "13",
    "state_name": "EKITI",
    "location": {
      "latitude": 7.8473588,
      "longitude": 5.488267899999999,
      "viewport": {
        "northeast": {
          "lat": 7.9140527,
          "lng": 5.537475499999999
        },
        "southwest": {
          "lat": 7.801368199999999,
          "lng": 5.4542921
        }
      },
      "formatted_address": "Araromi / Bolorunduro, Nigeria",
      "google_map_url": "https://maps.google.com?q=7.8473588,5.488267899999999",
      "google_place_id": "ChIJ0z3t00FxSBARPugwG4EhkQg"
    }
  },
  {
    "id": "53088",
    "name": "BOLORUNDURO - BOLORUNDURO / OBAJODA  II",
    "registration_area_id": "2825",
    "precise_location": null,
    "abbreviation": "006",
    "units": "006",
    "delimitation": "13/03/05/006",
    "remark": "EXISTING PU",
    "ward_id": "2825",
    "ward_name": "KOTA   II",
    "local_government_id": "245",
    "local_government_name": "EKITI EAST",
    "state_id": "13",
    "state_name": "EKITI",
    "location": {
      "latitude": 7.8473588,
      "longitude": 5.488267899999999,
      "viewport": {
        "northeast": {
          "lat": 7.9140527,
          "lng": 5.537475499999999
        },
        "southwest": {
          "lat": 7.801368199999999,
          "lng": 5.4542921
        }
      },
      "formatted_address": "Araromi / Bolorunduro, Nigeria",
      "google_map_url": "https://maps.google.com?q=7.8473588,5.488267899999999",
      "google_place_id": "ChIJ0z3t00FxSBARPugwG4EhkQg"
    }
  }
]