[
  {
    "id": "119474",
    "name": "WITHIN OJU OGUN, IJEDE",
    "registration_area_id": "5985",
    "precise_location": null,
    "abbreviation": "001",
    "units": "001",
    "delimitation": "24/12/13/001",
    "remark": "EXISTING PU",
    "ward_id": "5985",
    "ward_name": "IJEDE J",
    "local_government_id": "517",
    "local_government_name": "IKORODU",
    "state_id": "24",
    "state_name": "LAGOS",
    "location": {
      "latitude": 6.562742,
      "longitude": 3.609117,
      "viewport": {
        "northeast": {
          "lat": 6.5770002,
          "lng": 3.6240496
        },
        "southwest": {
          "lat": 6.5559028,
          "lng": 3.589678499999999
        }
      },
      "formatted_address": "Ijede J, 104102, Nigeria",
      "google_map_url": "https://maps.google.com?q=6.562742,3.609117",
      "google_place_id": "ChIJjS2uXjPlOxAR8VNytTPGjWo"
    }
  },
  {
    "id": "119475",
    "name": "IN FRONT OF 11, EBUTE STREET, IJEDE",
    "registration_area_id": "5985",
    "precise_location": null,
    "abbreviation": "002",
    "units": "002",
    "delimitation": "24/12/13/002",
    "remark": "EXISTING PU",
    "ward_id": "5985",
    "ward_name": "IJEDE J",
    "local_government_id": "517",
    "local_government_name": "IKORODU",
    "state_id": "24",
    "state_name": "LAGOS",
    "location": null
  },
  {
    "id": "119476",
    "name": "IN FRONT OF 3, ORERE ST/OKE IGBEHIN, IJEDE",
    "registration_area_id": "5985",
    "precise_location": null,
    "abbreviation": "003",
    "units": "003",
    "delimitation": "24/12/13/003",
    "remark": "EXISTING PU",
    "ward_id": "5985",
    "ward_name": "IJEDE J",
    "local_government_id": "517",
    "local_government_name": "IKORODU",
    "state_id": "24",
    "state_name": "LAGOS",
    "location": null
  },
  {
    "id": "119477",
    "name": "IN FRONT OF IJEDE READING ROOM I",
    "registration_area_id": "5985",
    "precise_location": null,
    "abbreviation": "004",
    "units": "004",
    "delimitation": "24/12/13/004",
    "remark": "EXISTING PU",
    "ward_id": "5985",
    "ward_name": "IJEDE J",
    "local_government_id": "517",
    "local_government_name": "IKORODU",
    "state_id": "24",
    "state_name": "LAGOS",
    "location": {
      "latitude": 6.570666,
      "longitude": 3.5888505,
      "viewport": {
        "northeast": {
          "lat": 6.572001379892721,
          "lng": 3.590295579892722
        },
        "southwest": {
          "lat": 6.569301720107277,
          "lng": 3.587595920107278
        }
      },
      "formatted_address": "11, D Jos Close, Ijede, Nigeria",
      "google_map_url": "https://maps.google.com?q=6.570666,3.5888505",
      "google_place_id": "ChIJy_VxllHlOxARO_p5HHfCGqo"
    }
  },
  {
    "id": "119478",
    "name": "WITHIN IPAKAN VILLAGE",
    "registration_area_id": "5985",
    "precise_location": null,
    "abbreviation": "005",
    "units": "005",
    "delimitation": "24/12/13/005",
    "remark": "EXISTING PU",
    "ward_id": "5985",
    "ward_name": "IJEDE J",
    "local_government_id": "517",
    "local_government_name": "IKORODU",
    "state_id": "24",
    "state_name": "LAGOS",
    "location": {
      "latitude": 6.563248199999999,
      "longitude": 3.5973295,
      "viewport": {
        "northeast": {
          "lat": 6.564665529892721,
          "lng": 3.598701179892721
        },
        "southwest": {
          "lat": 6.561965870107278,
          "lng": 3.596001520107277
        }
      },
      "formatted_address": "HH7W+7WW, Ikorodu 104102, Ijede, Nigeria",
      "google_map_url": "https://maps.google.com?q=6.563248199999999,3.5973295",
      "google_place_id": "ChIJlzeVjrT6OxAR73-TL_E6iVg"
    }
  },
  {
    "id": "119479",
    "name": "IN FRONT OF COMMUNITY HALL, EGBIN",
    "registration_area_id": "5985",
    "precise_location": null,
    "abbreviation": "006",
    "units": "006",
    "delimitation": "24/12/13/006",
    "remark": "EXISTING PU",
    "ward_id": "5985",
    "ward_name": "IJEDE J",
    "local_government_id": "517",
    "local_government_name": "IKORODU",
    "state_id": "24",
    "state_name": "LAGOS",
    "location": {
      "latitude": 6.582717499999999,
      "longitude": 3.5925883,
      "viewport": {
        "northeast": {
          "lat": 6.584011729892721,
          "lng": 3.593963429892722
        },
        "southwest": {
          "lat": 6.581312070107277,
          "lng": 3.591263770107278
        }
      },
      "formatted_address": "28 Gbopa Rd, Ikorodu 104102, Ijede, Nigeria",
      "google_map_url": "https://maps.google.com?q=6.582717499999999,3.5925883",
      "google_place_id": "ChIJbYY3QEPlOxARrYfQa6kfg3o"
    }
  },
  {
    "id": "119480",
    "name": "BESIDE THE SECURITY GATE, EGBIN/THERMAL STATION 1",
    "registration_area_id": "5985",
    "precise_location": null,
    "abbreviation": "007",
    "units": "007",
    "delimitation": "24/12/13/007",
    "remark": "EXISTING PU",
    "ward_id": "5985",
    "ward_name": "IJEDE J",
    "local_government_id": "517",
    "local_government_name": "IKORODU",
    "state_id": "24",
    "state_name": "LAGOS",
    "location": {
      "latitude": 6.563597,
      "longitude": 3.61512,
      "viewport": {
        "northeast": {
          "lat": 6.565031529892721,
          "lng": 3.616470629892723
        },
        "southwest": {
          "lat": 6.562331870107277,
          "lng": 3.613770970107279
        }
      },
      "formatted_address": "HJ78+92X, Ijede 104102, J, Niger",
      "google_map_url": "https://maps.google.com?q=6.563597,3.61512",
      "google_place_id": "ChIJ3eAnEtP6OxAR-zCIdul9SU0"
    }
  },
  {
    "id": "119481",
    "name": "BESIDE THE SECURITY GATE, EGBIN/THERMAL STATION II",
    "registration_area_id": "5985",
    "precise_location": null,
    "abbreviation": "008",
    "units": "008",
    "delimitation": "24/12/13/008",
    "remark": "EXISTING PU",
    "ward_id": "5985",
    "ward_name": "IJEDE J",
    "local_government_id": "517",
    "local_government_name": "IKORODU",
    "state_id": "24",
    "state_name": "LAGOS",
    "location": {
      "latitude": 6.563597,
      "longitude": 3.61512,
      "viewport": {
        "northeast": {
          "lat": 6.565031529892721,
          "lng": 3.616470629892723
        },
        "southwest": {
          "lat": 6.562331870107277,
          "lng": 3.613770970107279
        }
      },
      "formatted_address": "HJ78+92X, Ijede 104102, J, Niger",
      "google_map_url": "https://maps.google.com?q=6.563597,3.61512",
      "google_place_id": "ChIJ3eAnEtP6OxAR-zCIdul9SU0"
    }
  },
  {
    "id": "119482",
    "name": "6 ETITA SQUARE",
    "registration_area_id": "5985",
    "precise_location": null,
    "abbreviation": "009",
    "units": "009",
    "delimitation": "24/12/13/009",
    "remark": "NEW PU",
    "ward_id": "5985",
    "ward_name": "IJEDE J",
    "local_government_id": "517",
    "local_government_name": "IKORODU",
    "state_id": "24",
    "state_name": "LAGOS",
    "location": null
  },
  {
    "id": "119483",
    "name": "IN FRONT OF 38, PALACE ROAD, OBUNALE, IJEDE",
    "registration_area_id": "5985",
    "precise_location": null,
    "abbreviation": "010",
    "units": "010",
    "delimitation": "24/12/13/010",
    "remark": "NEW PU",
    "ward_id": "5985",
    "ward_name": "IJEDE J",
    "local_government_id": "517",
    "local_government_name": "IKORODU",
    "state_id": "24",
    "state_name": "LAGOS",
    "location": {
      "latitude": 6.570666,
      "longitude": 3.5888505,
      "viewport": {
        "northeast": {
          "lat": 6.572001379892721,
          "lng": 3.590295579892722
        },
        "southwest": {
          "lat": 6.569301720107277,
          "lng": 3.587595920107278
        }
      },
      "formatted_address": "11, D Jos Close, Ijede, Nigeria",
      "google_map_url": "https://maps.google.com?q=6.570666,3.5888505",
      "google_place_id": "ChIJy_VxllHlOxARO_p5HHfCGqo"
    }
  },
  {
    "id": "119484",
    "name": "IN FRONT OF AJANAKU QUATERS, OBADE, IJEDE",
    "registration_area_id": "5985",
    "precise_location": null,
    "abbreviation": "011",
    "units": "011",
    "delimitation": "24/12/13/011",
    "remark": "NEW PU",
    "ward_id": "5985",
    "ward_name": "IJEDE J",
    "local_government_id": "517",
    "local_government_name": "IKORODU",
    "state_id": "24",
    "state_name": "LAGOS",
    "location": {
      "latitude": 6.568549600000001,
      "longitude": 3.5937422,
      "viewport": {
        "northeast": {
          "lat": 6.569868879892723,
          "lng": 3.595051029892723
        },
        "southwest": {
          "lat": 6.567169220107279,
          "lng": 3.592351370107279
        }
      },
      "formatted_address": "HH9V+CCQ, Ikorodu 104102, Ijede, Nigeria",
      "google_map_url": "https://maps.google.com?q=6.568549600000001,3.5937422",
      "google_place_id": "ChIJN3h_kF7lOxARwQydNyBYALk"
    }
  },
  {
    "id": "119485",
    "name": "IN FRONT OF ROFAS OSHINKOYA STREET, IJEDE",
    "registration_area_id": "5985",
    "precise_location": null,
    "abbreviation": "012",
    "units": "012",
    "delimitation": "24/12/13/012",
    "remark": "NEW PU",
    "ward_id": "5985",
    "ward_name": "IJEDE J",
    "local_government_id": "517",
    "local_government_name": "IKORODU",
    "state_id": "24",
    "state_name": "LAGOS",
    "location": {
      "latitude": 6.567770599999999,
      "longitude": 3.5957098,
      "viewport": {
        "northeast": {
          "lat": 6.569135629892722,
          "lng": 3.597124029892721
        },
        "southwest": {
          "lat": 6.566435970107278,
          "lng": 3.594424370107277
        }
      },
      "formatted_address": "HH9W+486, Ikorodu, 104102, Ijede, Nigeria",
      "google_map_url": "https://maps.google.com?q=6.567770599999999,3.5957098",
      "google_place_id": "ChIJ8yPbUfrlOxARzCeoDXt18Os"
    }
  },
  {
    "id": "119486",
    "name": "IN FRONT OF IJEDE READING ROOM II",
    "registration_area_id": "5985",
    "precise_location": null,
    "abbreviation": "013",
    "units": "013",
    "delimitation": "24/12/13/013",
    "remark": "NEW PU",
    "ward_id": "5985",
    "ward_name": "IJEDE J",
    "local_government_id": "517",
    "local_government_name": "IKORODU",
    "state_id": "24",
    "state_name": "LAGOS",
    "location": {
      "latitude": 6.570666,
      "longitude": 3.5888505,
      "viewport": {
        "northeast": {
          "lat": 6.572001379892721,
          "lng": 3.590295579892722
        },
        "southwest": {
          "lat": 6.569301720107277,
          "lng": 3.587595920107278
        }
      },
      "formatted_address": "11, D Jos Close, Ijede, Nigeria",
      "google_map_url": "https://maps.google.com?q=6.570666,3.5888505",
      "google_place_id": "ChIJy_VxllHlOxARO_p5HHfCGqo"
    }
  },
  {
    "id": "119487",
    "name": "IN FRONT OF CHARITY LEAGUE CLUB HOUSE, IJEDE",
    "registration_area_id": "5985",
    "precise_location": null,
    "abbreviation": "014",
    "units": "014",
    "delimitation": "24/12/13/014",
    "remark": "NEW PU",
    "ward_id": "5985",
    "ward_name": "IJEDE J",
    "local_government_id": "517",
    "local_government_name": "IKORODU",
    "state_id": "24",
    "state_name": "LAGOS",
    "location": {
      "latitude": 6.566920199999999,
      "longitude": 3.5981147,
      "viewport": {
        "northeast": {
          "lat": 6.568226079892722,
          "lng": 3.599382379892722
        },
        "southwest": {
          "lat": 6.565526420107278,
          "lng": 3.596682720107278
        }
      },
      "formatted_address": "HH8X+Q69, Ikorodu 104102, Ijede, Nigeria",
      "google_map_url": "https://maps.google.com?q=6.566920199999999,3.5981147",
      "google_place_id": "ChIJgR5qFkvlOxARm3xl31XQGTE"
    }
  },
  {
    "id": "119488",
    "name": "IN FRONT OF ALHAJA MUSBAT YEKINI FAKUNMOJU STREET JUNCTION, IJEDE",
    "registration_area_id": "5985",
    "precise_location": null,
    "abbreviation": "015",
    "units": "015",
    "delimitation": "24/12/13/015",
    "remark": "NEW PU",
    "ward_id": "5985",
    "ward_name": "IJEDE J",
    "local_government_id": "517",
    "local_government_name": "IKORODU",
    "state_id": "24",
    "state_name": "LAGOS",
    "location": {
      "latitude": 6.6273296,
      "longitude": 3.5736647,
      "viewport": {
        "northeast": {
          "lat": 6.628679029892722,
          "lng": 3.575004829892722
        },
        "southwest": {
          "lat": 6.625979370107278,
          "lng": 3.572305170107277
        }
      },
      "formatted_address": "JHGF+WFM, Mowo-Kekere Rd, Ikorodu 104101, Ikorodu, Nigeria",
      "google_map_url": "https://maps.google.com?q=6.6273296,3.5736647",
      "google_place_id": "ChIJTybMcF3vOxARRIZqnenOlWU"
    }
  },
  {
    "id": "119489",
    "name": "IPAKAN TOWN HALL",
    "registration_area_id": "5985",
    "precise_location": null,
    "abbreviation": "016",
    "units": "016",
    "delimitation": "24/12/13/016",
    "remark": "NEW PU",
    "ward_id": "5985",
    "ward_name": "IJEDE J",
    "local_government_id": "517",
    "local_government_name": "IKORODU",
    "state_id": "24",
    "state_name": "LAGOS",
    "location": {
      "latitude": 6.5649526,
      "longitude": 3.5940838,
      "viewport": {
        "northeast": {
          "lat": 6.566325529892722,
          "lng": 3.595404679892722
        },
        "southwest": {
          "lat": 6.563625870107278,
          "lng": 3.592705020107279
        }
      },
      "formatted_address": "Ikorodu 17,mitland bus stop ijede, Ikorodu, Lagos, Nigeria",
      "google_map_url": "https://maps.google.com?q=6.5649526,3.5940838",
      "google_place_id": "ChIJ648y5H77OxARTo9-wh0Yvmk"
    }
  },
  {
    "id": "119490",
    "name": "WITHIN IPONMI RESETTLEMENT",
    "registration_area_id": "5985",
    "precise_location": null,
    "abbreviation": "017",
    "units": "017",
    "delimitation": "24/12/13/017",
    "remark": "NEW PU",
    "ward_id": "5985",
    "ward_name": "IJEDE J",
    "local_government_id": "517",
    "local_government_name": "IKORODU",
    "state_id": "24",
    "state_name": "LAGOS",
    "location": {
      "latitude": 6.5743355,
      "longitude": 3.5826363,
      "viewport": {
        "northeast": {
          "lat": 6.575722679892721,
          "lng": 3.583977429892722
        },
        "southwest": {
          "lat": 6.573023020107277,
          "lng": 3.581277770107278
        }
      },
      "formatted_address": "HHFM+P3J su camp, Ikorodu 104102, Ikorodu, Nigeria",
      "google_map_url": "https://maps.google.com?q=6.5743355,3.5826363",
      "google_place_id": "ChIJ2-yOtFflOxARXQ9Cvg2TBwE"
    }
  },
  {
    "id": "119491",
    "name": "OJU-OTA OPPOSITE IMAM THANNI'S HOUSE, EGBIN, IJEDE",
    "registration_area_id": "5985",
    "precise_location": null,
    "abbreviation": "018",
    "units": "018",
    "delimitation": "24/12/13/018",
    "remark": "NEW PU",
    "ward_id": "5985",
    "ward_name": "IJEDE J",
    "local_government_id": "517",
    "local_government_name": "IKORODU",
    "state_id": "24",
    "state_name": "LAGOS",
    "location": {
      "latitude": 6.566920199999999,
      "longitude": 3.5981147,
      "viewport": {
        "northeast": {
          "lat": 6.568226079892722,
          "lng": 3.599382379892722
        },
        "southwest": {
          "lat": 6.565526420107278,
          "lng": 3.596682720107278
        }
      },
      "formatted_address": "HH8X+Q69, Ikorodu 104102, Ijede, Nigeria",
      "google_map_url": "https://maps.google.com?q=6.566920199999999,3.5981147",
      "google_place_id": "ChIJgR5qFkvlOxARm3xl31XQGTE"
    }
  },
  {
    "id": "119492",
    "name": "OPPOSITE GENERAL HOSPITAL IJEDE",
    "registration_area_id": "5985",
    "precise_location": null,
    "abbreviation": "019",
    "units": "019",
    "delimitation": "24/12/13/019",
    "remark": "NEW PU",
    "ward_id": "5985",
    "ward_name": "IJEDE J",
    "local_government_id": "517",
    "local_government_name": "IKORODU",
    "state_id": "24",
    "state_name": "LAGOS",
    "location": {
      "latitude": 6.5647021,
      "longitude": 3.5965551,
      "viewport": {
        "northeast": {
          "lat": 6.565580479892723,
          "lng": 3.597791529892723
        },
        "southwest": {
          "lat": 6.562880820107279,
          "lng": 3.595091870107279
        }
      },
      "formatted_address": "HH7W+VJM, Egbin Thermal Station Rd, Ikorodu 104102, Ijede, Nigeria",
      "google_map_url": "https://maps.google.com?q=6.5647021,3.5965551",
      "google_place_id": "ChIJk1fPWbP6OxARoSyhrt5omaY"
    }
  },
  {
    "id": "119493",
    "name": "BEHIND MARINA CIRCLE/ EGBIN POWER PLC HOSPITAL , GBIN POWER HOSING ESTATE",
    "registration_area_id": "5985",
    "precise_location": null,
    "abbreviation": "020",
    "units": "020",
    "delimitation": "24/12/13/020",
    "remark": "NEW PU",
    "ward_id": "5985",
    "ward_name": "IJEDE J",
    "local_government_id": "517",
    "local_government_name": "IKORODU",
    "state_id": "24",
    "state_name": "LAGOS",
    "location": {
      "latitude": 6.563597,
      "longitude": 3.61512,
      "viewport": {
        "northeast": {
          "lat": 6.565031529892721,
          "lng": 3.616470629892723
        },
        "southwest": {
          "lat": 6.562331870107277,
          "lng": 3.613770970107279
        }
      },
      "formatted_address": "HJ78+92X, Ijede 104102, J, Niger",
      "google_map_url": "https://maps.google.com?q=6.563597,3.61512",
      "google_place_id": "ChIJ3eAnEtP6OxAR-zCIdul9SU0"
    }
  },
  {
    "id": "119494",
    "name": "OPEN FIELD OPPOSITE POWER FIELD PRY SCHOOL",
    "registration_area_id": "5985",
    "precise_location": null,
    "abbreviation": "021",
    "units": "021",
    "delimitation": "24/12/13/021",
    "remark": "NEW PU",
    "ward_id": "5985",
    "ward_name": "IJEDE J",
    "local_government_id": "517",
    "local_government_name": "IKORODU",
    "state_id": "24",
    "state_name": "LAGOS",
    "location": {
      "latitude": 6.569932199999999,
      "longitude": 3.6045318,
      "viewport": {
        "northeast": {
          "lat": 6.571374979892721,
          "lng": 3.605794329892722
        },
        "southwest": {
          "lat": 6.568675320107277,
          "lng": 3.603094670107278
        }
      },
      "formatted_address": "HJ93+XRF, Ikorodu 104102, Ijede, Nigeria",
      "google_map_url": "https://maps.google.com?q=6.569932199999999,3.6045318",
      "google_place_id": "ChIJh_L_MDTlOxARvKpaboA_4g4"
    }
  }
]