[
  {
    "id": "357359",
    "name": "MUSLIM GRAMMAR SCHOOL, ODINJO I",
    "registration_area_id": "18295",
    "precise_location": null,
    "abbreviation": "001",
    "units": "001",
    "delimitation": "30/25/04/001",
    "remark": "EXISTING PU",
    "ward_id": "18295",
    "ward_name": "MUSLIM/OGBERE",
    "local_government_id": "652",
    "local_government_name": "OLUYOLE",
    "state_id": "30",
    "state_name": "OYO",
    "location": {
      "latitude": 7.353996899999999,
      "longitude": 3.9220318,
      "viewport": {
        "northeast": {
          "lat": 7.355509129892721,
          "lng": 3.923393929892721
        },
        "southwest": {
          "lat": 7.352809470107277,
          "lng": 3.920694270107277
        }
      },
      "formatted_address": "Muslim Grammar School, 200258, Ibadan, Nigeria",
      "google_map_url": "https://maps.google.com?q=7.353996899999999,3.9220318",
      "google_place_id": "ChIJzRkrhRSSORARlzbgrb8ttZ8"
    }
  },
  {
    "id": "357360",
    "name": "MUSLIM GRAMMAR SCHOOL, ODINJO II",
    "registration_area_id": "18295",
    "precise_location": null,
    "abbreviation": "002",
    "units": "002",
    "delimitation": "30/25/04/002",
    "remark": "EXISTING PU",
    "ward_id": "18295",
    "ward_name": "MUSLIM/OGBERE",
    "local_government_id": "652",
    "local_government_name": "OLUYOLE",
    "state_id": "30",
    "state_name": "OYO",
    "location": {
      "latitude": 7.353247400000001,
      "longitude": 3.9221926,
      "viewport": {
        "northeast": {
          "lat": 7.354576029892722,
          "lng": 3.923252829892721
        },
        "southwest": {
          "lat": 7.351876370107278,
          "lng": 3.920553170107278
        }
      },
      "formatted_address": "6FV59W3C+7VJ, 4 Odinjo Road, 200258, Ibadan, Nigeria",
      "google_map_url": "https://maps.google.com?q=7.353247400000001,3.9221926",
      "google_place_id": "ChIJf2rm1KiTORARmkX2eret1_Y"
    }
  },
  {
    "id": "357361",
    "name": "MUSLIM GRAMMAR SCHOOL, ODINJO III",
    "registration_area_id": "18295",
    "precise_location": null,
    "abbreviation": "003",
    "units": "003",
    "delimitation": "30/25/04/003",
    "remark": "EXISTING PU",
    "ward_id": "18295",
    "ward_name": "MUSLIM/OGBERE",
    "local_government_id": "652",
    "local_government_name": "OLUYOLE",
    "state_id": "30",
    "state_name": "OYO",
    "location": {
      "latitude": 7.353247400000001,
      "longitude": 3.9221926,
      "viewport": {
        "northeast": {
          "lat": 7.354576029892722,
          "lng": 3.923252829892721
        },
        "southwest": {
          "lat": 7.351876370107278,
          "lng": 3.920553170107278
        }
      },
      "formatted_address": "6FV59W3C+7VJ, 4 Odinjo Road, 200258, Ibadan, Nigeria",
      "google_map_url": "https://maps.google.com?q=7.353247400000001,3.9221926",
      "google_place_id": "ChIJf2rm1KiTORARmkX2eret1_Y"
    }
  },
  {
    "id": "357362",
    "name": "IN FRONT OF KAJOLA HOTEL",
    "registration_area_id": "18295",
    "precise_location": null,
    "abbreviation": "004",
    "units": "004",
    "delimitation": "30/25/04/004",
    "remark": "EXISTING PU",
    "ward_id": "18295",
    "ward_name": "MUSLIM/OGBERE",
    "local_government_id": "652",
    "local_government_name": "OLUYOLE",
    "state_id": "30",
    "state_name": "OYO",
    "location": {
      "latitude": 6.464587400000001,
      "longitude": 3.5725244,
      "viewport": {
        "northeast": {
          "lat": 6.465907679892721,
          "lng": 3.573869729892722
        },
        "southwest": {
          "lat": 6.463208020107277,
          "lng": 3.571170070107278
        }
      },
      "formatted_address": "Block 24, Plot 8 Bola Ahmed Tinubu Road 10 Family Oshanmi Estate Along Lekki Epe Express Way Opp.Abraham Adesanya Junction, Aja, Lagos, Nigeria",
      "google_map_url": "https://maps.google.com?q=6.464587400000001,3.5725244",
      "google_place_id": "ChIJ8Q4AxP75OxARv4PPKaz3NAs"
    }
  },
  {
    "id": "357363",
    "name": "IFELODUN COMM. PRIMARY SCHOOL",
    "registration_area_id": "18295",
    "precise_location": null,
    "abbreviation": "005",
    "units": "005",
    "delimitation": "30/25/04/005",
    "remark": "EXISTING PU",
    "ward_id": "18295",
    "ward_name": "MUSLIM/OGBERE",
    "local_government_id": "652",
    "local_government_name": "OLUYOLE",
    "state_id": "30",
    "state_name": "OYO",
    "location": {
      "latitude": 7.354046899999998,
      "longitude": 3.7996263,
      "viewport": {
        "northeast": {
          "lat": 7.355300079892722,
          "lng": 3.801001129892722
        },
        "southwest": {
          "lat": 7.352600420107279,
          "lng": 3.798301470107278
        }
      },
      "formatted_address": "9Q3X+JV6, Unnamed Road, 200131, Ibadan, Nigeria",
      "google_map_url": "https://maps.google.com?q=7.354046899999998,3.7996263",
      "google_place_id": "ChIJhcJZZdCLORARupXO9CrS9Rg"
    }
  },
  {
    "id": "357364",
    "name": "NEW MATERNITY MASFALA",
    "registration_area_id": "18295",
    "precise_location": null,
    "abbreviation": "006",
    "units": "006",
    "delimitation": "30/25/04/006",
    "remark": "EXISTING PU",
    "ward_id": "18295",
    "ward_name": "MUSLIM/OGBERE",
    "local_government_id": "652",
    "local_government_name": "OLUYOLE",
    "state_id": "30",
    "state_name": "OYO",
    "location": {
      "latitude": 7.3588,
      "longitude": 3.8900173,
      "viewport": {
        "northeast": {
          "lat": 7.359971079892723,
          "lng": 3.891248079892721
        },
        "southwest": {
          "lat": 7.35727142010728,
          "lng": 3.888548420107277
        }
      },
      "formatted_address": "47 Oluyole Street Oyo Molete, Nigeria",
      "google_map_url": "https://maps.google.com?q=7.3588,3.8900173",
      "google_place_id": "ChIJNVm1S4KNORARy7G7Y-l0dVo"
    }
  },
  {
    "id": "357365",
    "name": "IFELODUN COMM. PRIMARY SCHOOL",
    "registration_area_id": "18295",
    "precise_location": null,
    "abbreviation": "007",
    "units": "007",
    "delimitation": "30/25/04/007",
    "remark": "EXISTING PU",
    "ward_id": "18295",
    "ward_name": "MUSLIM/OGBERE",
    "local_government_id": "652",
    "local_government_name": "OLUYOLE",
    "state_id": "30",
    "state_name": "OYO",
    "location": {
      "latitude": 7.354046899999998,
      "longitude": 3.7996263,
      "viewport": {
        "northeast": {
          "lat": 7.355300079892722,
          "lng": 3.801001129892722
        },
        "southwest": {
          "lat": 7.352600420107279,
          "lng": 3.798301470107278
        }
      },
      "formatted_address": "9Q3X+JV6, Unnamed Road, 200131, Ibadan, Nigeria",
      "google_map_url": "https://maps.google.com?q=7.354046899999998,3.7996263",
      "google_place_id": "ChIJhcJZZdCLORARupXO9CrS9Rg"
    }
  },
  {
    "id": "357366",
    "name": "MATERNITY IFELODUN",
    "registration_area_id": "18295",
    "precise_location": null,
    "abbreviation": "008",
    "units": "008",
    "delimitation": "30/25/04/008",
    "remark": "EXISTING PU",
    "ward_id": "18295",
    "ward_name": "MUSLIM/OGBERE",
    "local_government_id": "652",
    "local_government_name": "OLUYOLE",
    "state_id": "30",
    "state_name": "OYO",
    "location": {
      "latitude": 7.364430100000001,
      "longitude": 3.8501137,
      "viewport": {
        "northeast": {
          "lat": 7.365632729892721,
          "lng": 3.851457129892722
        },
        "southwest": {
          "lat": 7.362933070107277,
          "lng": 3.848757470107278
        }
      },
      "formatted_address": "9V72+Q2H, Oluyole 200273, Ibadan, Nigeria",
      "google_map_url": "https://maps.google.com?q=7.364430100000001,3.8501137",
      "google_place_id": "ChIJ8bX-r4mNORAR6C5fFyLVhTs"
    }
  },
  {
    "id": "357367",
    "name": "OPEN SPACE MASFALA JUNCTION I",
    "registration_area_id": "18295",
    "precise_location": null,
    "abbreviation": "009",
    "units": "009",
    "delimitation": "30/25/04/009",
    "remark": "EXISTING PU",
    "ward_id": "18295",
    "ward_name": "MUSLIM/OGBERE",
    "local_government_id": "652",
    "local_government_name": "OLUYOLE",
    "state_id": "30",
    "state_name": "OYO",
    "location": {
      "latitude": 7.398293199999999,
      "longitude": 3.910364399999999,
      "viewport": {
        "northeast": {
          "lat": 7.399646429892723,
          "lng": 3.911714729892722
        },
        "southwest": {
          "lat": 7.396946770107279,
          "lng": 3.909015070107278
        }
      },
      "formatted_address": "9WX6+849, Muslim Area ibadan Muslim Area ibadan Oluyole local government, Ibadan, Nigeria",
      "google_map_url": "https://maps.google.com?q=7.398293199999999,3.910364399999999",
      "google_place_id": "ChIJ3SOzVUSTORARCxsVpEjlth8"
    }
  },
  {
    "id": "357368",
    "name": "OPEN SPACE MASFALA JUNCTION II",
    "registration_area_id": "18295",
    "precise_location": null,
    "abbreviation": "010",
    "units": "010",
    "delimitation": "30/25/04/010",
    "remark": "EXISTING PU",
    "ward_id": "18295",
    "ward_name": "MUSLIM/OGBERE",
    "local_government_id": "652",
    "local_government_name": "OLUYOLE",
    "state_id": "30",
    "state_name": "OYO",
    "location": {
      "latitude": 7.398293199999999,
      "longitude": 3.910364399999999,
      "viewport": {
        "northeast": {
          "lat": 7.399646429892723,
          "lng": 3.911714729892722
        },
        "southwest": {
          "lat": 7.396946770107279,
          "lng": 3.909015070107278
        }
      },
      "formatted_address": "9WX6+849, Muslim Area ibadan Muslim Area ibadan Oluyole local government, Ibadan, Nigeria",
      "google_map_url": "https://maps.google.com?q=7.398293199999999,3.910364399999999",
      "google_place_id": "ChIJ3SOzVUSTORARCxsVpEjlth8"
    }
  },
  {
    "id": "357369",
    "name": "AWOWO VILLAGE",
    "registration_area_id": "18295",
    "precise_location": null,
    "abbreviation": "011",
    "units": "011",
    "delimitation": "30/25/04/011",
    "remark": "EXISTING PU",
    "ward_id": "18295",
    "ward_name": "MUSLIM/OGBERE",
    "local_government_id": "652",
    "local_government_name": "OLUYOLE",
    "state_id": "30",
    "state_name": "OYO",
    "location": {
      "latitude": 7.398293199999999,
      "longitude": 3.910364399999999,
      "viewport": {
        "northeast": {
          "lat": 7.399646429892723,
          "lng": 3.911714729892722
        },
        "southwest": {
          "lat": 7.396946770107279,
          "lng": 3.909015070107278
        }
      },
      "formatted_address": "9WX6+849, Muslim Area ibadan Muslim Area ibadan Oluyole local government, Ibadan, Nigeria",
      "google_map_url": "https://maps.google.com?q=7.398293199999999,3.910364399999999",
      "google_place_id": "ChIJ3SOzVUSTORARCxsVpEjlth8"
    }
  },
  {
    "id": "357370",
    "name": "OMIYALE OLD HOSPITAL I",
    "registration_area_id": "18295",
    "precise_location": null,
    "abbreviation": "012",
    "units": "012",
    "delimitation": "30/25/04/012",
    "remark": "EXISTING PU",
    "ward_id": "18295",
    "ward_name": "MUSLIM/OGBERE",
    "local_government_id": "652",
    "local_government_name": "OLUYOLE",
    "state_id": "30",
    "state_name": "OYO",
    "location": {
      "latitude": 7.353516600000001,
      "longitude": 3.8613307,
      "viewport": {
        "northeast": {
          "lat": 7.354874729892721,
          "lng": 3.862685929892722
        },
        "southwest": {
          "lat": 7.352175070107277,
          "lng": 3.859986270107278
        }
      },
      "formatted_address": "NW4/183George Street, Off MKO Abiola Way, Idi Oro, oyo, Nigeria",
      "google_map_url": "https://maps.google.com?q=7.353516600000001,3.8613307",
      "google_place_id": "ChIJmxPlsq2NORARN5G8YlHsiUo"
    }
  },
  {
    "id": "357371",
    "name": "OMIYALE OLD HOSPITAL II",
    "registration_area_id": "18295",
    "precise_location": null,
    "abbreviation": "013",
    "units": "013",
    "delimitation": "30/25/04/013",
    "remark": "EXISTING PU",
    "ward_id": "18295",
    "ward_name": "MUSLIM/OGBERE",
    "local_government_id": "652",
    "local_government_name": "OLUYOLE",
    "state_id": "30",
    "state_name": "OYO",
    "location": {
      "latitude": 7.353516600000001,
      "longitude": 3.8613307,
      "viewport": {
        "northeast": {
          "lat": 7.354874729892721,
          "lng": 3.862685929892722
        },
        "southwest": {
          "lat": 7.352175070107277,
          "lng": 3.859986270107278
        }
      },
      "formatted_address": "NW4/183George Street, Off MKO Abiola Way, Idi Oro, oyo, Nigeria",
      "google_map_url": "https://maps.google.com?q=7.353516600000001,3.8613307",
      "google_place_id": "ChIJmxPlsq2NORARN5G8YlHsiUo"
    }
  },
  {
    "id": "357372",
    "name": "IREPODUN TOWN PLANNING",
    "registration_area_id": "18295",
    "precise_location": null,
    "abbreviation": "014",
    "units": "014",
    "delimitation": "30/25/04/014",
    "remark": "EXISTING PU",
    "ward_id": "18295",
    "ward_name": "MUSLIM/OGBERE",
    "local_government_id": "652",
    "local_government_name": "OLUYOLE",
    "state_id": "30",
    "state_name": "OYO",
    "location": {
      "latitude": 7.368788500000001,
      "longitude": 3.8594779,
      "viewport": {
        "northeast": {
          "lat": 7.370085379892722,
          "lng": 3.860852229892722
        },
        "southwest": {
          "lat": 7.367385720107278,
          "lng": 3.858152570107278
        }
      },
      "formatted_address": "9V95+GQ9, Town planning Rd, MKO Abiola Way, Ibadan, Nigeria",
      "google_map_url": "https://maps.google.com?q=7.368788500000001,3.8594779",
      "google_place_id": "ChIJwVYreV2NORARfDLvLF2rOQE"
    }
  },
  {
    "id": "357373",
    "name": "IREPODUN ASANKE VILLAGE (CRAFT CENTRE)",
    "registration_area_id": "18295",
    "precise_location": null,
    "abbreviation": "015",
    "units": "015",
    "delimitation": "30/25/04/015",
    "remark": "EXISTING PU",
    "ward_id": "18295",
    "ward_name": "MUSLIM/OGBERE",
    "local_government_id": "652",
    "local_government_name": "OLUYOLE",
    "state_id": "30",
    "state_name": "OYO",
    "location": null
  },
  {
    "id": "357374",
    "name": "ELERUKU",
    "registration_area_id": "18295",
    "precise_location": null,
    "abbreviation": "016",
    "units": "016",
    "delimitation": "30/25/04/016",
    "remark": "NEW PU",
    "ward_id": "18295",
    "ward_name": "MUSLIM/OGBERE",
    "local_government_id": "652",
    "local_government_name": "OLUYOLE",
    "state_id": "30",
    "state_name": "OYO",
    "location": {
      "latitude": 7.398293199999999,
      "longitude": 3.910364399999999,
      "viewport": {
        "northeast": {
          "lat": 7.399646429892723,
          "lng": 3.911714729892722
        },
        "southwest": {
          "lat": 7.396946770107279,
          "lng": 3.909015070107278
        }
      },
      "formatted_address": "9WX6+849, Muslim Area ibadan Muslim Area ibadan Oluyole local government, Ibadan, Nigeria",
      "google_map_url": "https://maps.google.com?q=7.398293199999999,3.910364399999999",
      "google_place_id": "ChIJ3SOzVUSTORARCxsVpEjlth8"
    }
  },
  {
    "id": "357375",
    "name": "INFRONT OF DATOTEM PHARMACY, GRAMMAR SCHOOL ROAD",
    "registration_area_id": "18295",
    "precise_location": null,
    "abbreviation": "017",
    "units": "017",
    "delimitation": "30/25/04/017",
    "remark": "NEW PU",
    "ward_id": "18295",
    "ward_name": "MUSLIM/OGBERE",
    "local_government_id": "652",
    "local_government_name": "OLUYOLE",
    "state_id": "30",
    "state_name": "OYO",
    "location": {
      "latitude": 7.4504956,
      "longitude": 3.9016934,
      "viewport": {
        "northeast": {
          "lat": 7.451733479892724,
          "lng": 3.903269529892722
        },
        "southwest": {
          "lat": 7.44903382010728,
          "lng": 3.900569870107278
        }
      },
      "formatted_address": "FW22+5MW, 200132, Ibadan, Nigeria",
      "google_map_url": "https://maps.google.com?q=7.4504956,3.9016934",
      "google_place_id": "ChIJqYYPmYLyORARBwDWFUyGDTc"
    }
  },
  {
    "id": "357376",
    "name": "JIMOH STREET, IFEDAPO",
    "registration_area_id": "18295",
    "precise_location": null,
    "abbreviation": "018",
    "units": "018",
    "delimitation": "30/25/04/018",
    "remark": "NEW PU",
    "ward_id": "18295",
    "ward_name": "MUSLIM/OGBERE",
    "local_government_id": "652",
    "local_government_name": "OLUYOLE",
    "state_id": "30",
    "state_name": "OYO",
    "location": {
      "latitude": 7.380851799999999,
      "longitude": 3.864673899999999,
      "viewport": {
        "northeast": {
          "lat": 7.382071779892722,
          "lng": 3.866064929892723
        },
        "southwest": {
          "lat": 7.379372120107278,
          "lng": 3.863365270107279
        }
      },
      "formatted_address": "KM 110, Off Alalubosa GRA, Dugbe to, Apata Rd, SouthWest 200258, Ibadan, Nigeria",
      "google_map_url": "https://maps.google.com?q=7.380851799999999,3.864673899999999",
      "google_place_id": "ChIJY5Xdp2eNORARMbV0S3LsCMQ"
    }
  },
  {
    "id": "357377",
    "name": "ADJACENT 12 FLATS IFELODUN AREA, MUSLIM",
    "registration_area_id": "18295",
    "precise_location": null,
    "abbreviation": "019",
    "units": "019",
    "delimitation": "30/25/04/019",
    "remark": "NEW PU",
    "ward_id": "18295",
    "ward_name": "MUSLIM/OGBERE",
    "local_government_id": "652",
    "local_government_name": "OLUYOLE",
    "state_id": "30",
    "state_name": "OYO",
    "location": null
  },
  {
    "id": "357378",
    "name": "OPEN SPACE INFRONT OF SHOP MEFA",
    "registration_area_id": "18295",
    "precise_location": null,
    "abbreviation": "020",
    "units": "020",
    "delimitation": "30/25/04/020",
    "remark": "NEW PU",
    "ward_id": "18295",
    "ward_name": "MUSLIM/OGBERE",
    "local_government_id": "652",
    "local_government_name": "OLUYOLE",
    "state_id": "30",
    "state_name": "OYO",
    "location": {
      "latitude": 7.398293199999999,
      "longitude": 3.910364399999999,
      "viewport": {
        "northeast": {
          "lat": 7.399646429892723,
          "lng": 3.911714729892722
        },
        "southwest": {
          "lat": 7.396946770107279,
          "lng": 3.909015070107278
        }
      },
      "formatted_address": "9WX6+849, Muslim Area ibadan Muslim Area ibadan Oluyole local government, Ibadan, Nigeria",
      "google_map_url": "https://maps.google.com?q=7.398293199999999,3.910364399999999",
      "google_place_id": "ChIJ3SOzVUSTORARCxsVpEjlth8"
    }
  },
  {
    "id": "357379",
    "name": "MOPELOLA JUNCTION",
    "registration_area_id": "18295",
    "precise_location": null,
    "abbreviation": "021",
    "units": "021",
    "delimitation": "30/25/04/021",
    "remark": "NEW PU",
    "ward_id": "18295",
    "ward_name": "MUSLIM/OGBERE",
    "local_government_id": "652",
    "local_government_name": "OLUYOLE",
    "state_id": "30",
    "state_name": "OYO",
    "location": {
      "latitude": 7.398293199999999,
      "longitude": 3.910364399999999,
      "viewport": {
        "northeast": {
          "lat": 7.399646429892723,
          "lng": 3.911714729892722
        },
        "southwest": {
          "lat": 7.396946770107279,
          "lng": 3.909015070107278
        }
      },
      "formatted_address": "9WX6+849, Muslim Area ibadan Muslim Area ibadan Oluyole local government, Ibadan, Nigeria",
      "google_map_url": "https://maps.google.com?q=7.398293199999999,3.910364399999999",
      "google_place_id": "ChIJ3SOzVUSTORARCxsVpEjlth8"
    }
  },
  {
    "id": "357380",
    "name": "INFRONT OF  CORNER COLLEGE",
    "registration_area_id": "18295",
    "precise_location": null,
    "abbreviation": "022",
    "units": "022",
    "delimitation": "30/25/04/022",
    "remark": "NEW PU",
    "ward_id": "18295",
    "ward_name": "MUSLIM/OGBERE",
    "local_government_id": "652",
    "local_government_name": "OLUYOLE",
    "state_id": "30",
    "state_name": "OYO",
    "location": {
      "latitude": 7.3731483,
      "longitude": 3.8744608,
      "viewport": {
        "northeast": {
          "lat": 7.374542079892722,
          "lng": 3.875793229892721
        },
        "southwest": {
          "lat": 7.371842420107278,
          "lng": 3.873093570107277
        }
      },
      "formatted_address": "9VFF+7Q4, New Gra 200273, Ibadan, Nigeria",
      "google_map_url": "https://maps.google.com?q=7.3731483,3.8744608",
      "google_place_id": "ChIJHWVslKiNORARGzEJAI9nvEI"
    }
  },
  {
    "id": "357381",
    "name": "INFRONT ARIYO GROUP OF SCHOOL",
    "registration_area_id": "18295",
    "precise_location": null,
    "abbreviation": "023",
    "units": "023",
    "delimitation": "30/25/04/023",
    "remark": "NEW PU",
    "ward_id": "18295",
    "ward_name": "MUSLIM/OGBERE",
    "local_government_id": "652",
    "local_government_name": "OLUYOLE",
    "state_id": "30",
    "state_name": "OYO",
    "location": null
  },
  {
    "id": "357382",
    "name": "OGUNDEPO JUNCTION",
    "registration_area_id": "18295",
    "precise_location": null,
    "abbreviation": "024",
    "units": "024",
    "delimitation": "30/25/04/024",
    "remark": "NEW PU",
    "ward_id": "18295",
    "ward_name": "MUSLIM/OGBERE",
    "local_government_id": "652",
    "local_government_name": "OLUYOLE",
    "state_id": "30",
    "state_name": "OYO",
    "location": {
      "latitude": 7.398293199999999,
      "longitude": 3.910364399999999,
      "viewport": {
        "northeast": {
          "lat": 7.399646429892723,
          "lng": 3.911714729892722
        },
        "southwest": {
          "lat": 7.396946770107279,
          "lng": 3.909015070107278
        }
      },
      "formatted_address": "9WX6+849, Muslim Area ibadan Muslim Area ibadan Oluyole local government, Ibadan, Nigeria",
      "google_map_url": "https://maps.google.com?q=7.398293199999999,3.910364399999999",
      "google_place_id": "ChIJ3SOzVUSTORARCxsVpEjlth8"
    }
  },
  {
    "id": "357383",
    "name": "ABUNDANT GRACE JUNCTION",
    "registration_area_id": "18295",
    "precise_location": null,
    "abbreviation": "025",
    "units": "025",
    "delimitation": "30/25/04/025",
    "remark": "NEW PU",
    "ward_id": "18295",
    "ward_name": "MUSLIM/OGBERE",
    "local_government_id": "652",
    "local_government_name": "OLUYOLE",
    "state_id": "30",
    "state_name": "OYO",
    "location": {
      "latitude": 7.394014200000001,
      "longitude": 3.7683607,
      "viewport": {
        "northeast": {
          "lat": 7.395359829892723,
          "lng": 3.769696079892722
        },
        "southwest": {
          "lat": 7.392660170107279,
          "lng": 3.766996420107279
        }
      },
      "formatted_address": "9QV9+J85, 200131, Ibadan, Nigeria",
      "google_map_url": "https://maps.google.com?q=7.394014200000001,3.7683607",
      "google_place_id": "ChIJOcGbUHWLORAR1NfBXC4CvsA"
    }
  },
  {
    "id": "357384",
    "name": "OPPOSITE DELEBAYO PHARMACY",
    "registration_area_id": "18295",
    "precise_location": null,
    "abbreviation": "026",
    "units": "026",
    "delimitation": "30/25/04/026",
    "remark": "NEW PU",
    "ward_id": "18295",
    "ward_name": "MUSLIM/OGBERE",
    "local_government_id": "652",
    "local_government_name": "OLUYOLE",
    "state_id": "30",
    "state_name": "OYO",
    "location": null
  },
  {
    "id": "357385",
    "name": "INFRONT BOLA OYE SHOPPING COMPLEX ,SEMINBIO.",
    "registration_area_id": "18295",
    "precise_location": null,
    "abbreviation": "027",
    "units": "027",
    "delimitation": "30/25/04/027",
    "remark": "NEW PU",
    "ward_id": "18295",
    "ward_name": "MUSLIM/OGBERE",
    "local_government_id": "652",
    "local_government_name": "OLUYOLE",
    "state_id": "30",
    "state_name": "OYO",
    "location": null
  },
  {
    "id": "357386",
    "name": "IREPODUN ZONE B",
    "registration_area_id": "18295",
    "precise_location": null,
    "abbreviation": "028",
    "units": "028",
    "delimitation": "30/25/04/028",
    "remark": "NEW PU",
    "ward_id": "18295",
    "ward_name": "MUSLIM/OGBERE",
    "local_government_id": "652",
    "local_government_name": "OLUYOLE",
    "state_id": "30",
    "state_name": "OYO",
    "location": {
      "latitude": 7.3477576,
      "longitude": 3.8713639,
      "viewport": {
        "northeast": {
          "lat": 7.349104329892721,
          "lng": 3.872701379892721
        },
        "southwest": {
          "lat": 7.346404670107277,
          "lng": 3.870001720107278
        }
      },
      "formatted_address": "8VXC+4H2, Unnamed Road, Oluyole 200273, Ibadan, Nigeria",
      "google_map_url": "https://maps.google.com?q=7.3477576,3.8713639",
      "google_place_id": "ChIJWyntCP-NORARKIB0IQ_ONcA"
    }
  }
]