[
  {
    "id": "8999",
    "name": "CENTRAL SCH, ETINAN",
    "registration_area_id": "474",
    "precise_location": null,
    "abbreviation": "001",
    "units": "001",
    "delimitation": "03/07/01/001",
    "remark": "EXISTING PU",
    "ward_id": "474",
    "ward_name": "ETINAN URBAN 1",
    "local_government_id": "45",
    "local_government_name": "ETINAN",
    "state_id": "3",
    "state_name": "AKWA IBOM",
    "location": {
      "latitude": 4.8376986,
      "longitude": 7.8390891,
      "viewport": {
        "northeast": {
          "lat": 4.838721929892722,
          "lng": 7.840870179892722
        },
        "southwest": {
          "lat": 4.836022270107278,
          "lng": 7.838170520107278
        }
      },
      "formatted_address": "RRQQ+3JG, 522102, Etinan, Nigeria",
      "google_map_url": "https://maps.google.com?q=4.8376986,7.8390891",
      "google_place_id": "ChIJk9Q_ViXjZxARCCro95yQNZc"
    }
  },
  {
    "id": "9000",
    "name": "GOVT. SCH, IKOT EBO",
    "registration_area_id": "474",
    "precise_location": null,
    "abbreviation": "002",
    "units": "002",
    "delimitation": "03/07/01/002",
    "remark": "EXISTING PU",
    "ward_id": "474",
    "ward_name": "ETINAN URBAN 1",
    "local_government_id": "45",
    "local_government_name": "ETINAN",
    "state_id": "3",
    "state_name": "AKWA IBOM",
    "location": {
      "latitude": 4.8340355,
      "longitude": 7.856116600000001,
      "viewport": {
        "northeast": {
          "lat": 4.835354829892722,
          "lng": 7.85749762989272
        },
        "southwest": {
          "lat": 4.832655170107278,
          "lng": 7.854797970107276
        }
      },
      "formatted_address": "RVM4+JC9, 522102, Etinan, Nigeria",
      "google_map_url": "https://maps.google.com?q=4.8340355,7.856116600000001",
      "google_place_id": "ChIJG45aWkTjZxARfTLb-DML_7c"
    }
  },
  {
    "id": "9001",
    "name": "CENTRAL SCH ETINAN",
    "registration_area_id": "474",
    "precise_location": null,
    "abbreviation": "003",
    "units": "003",
    "delimitation": "03/07/01/003",
    "remark": "EXISTING PU",
    "ward_id": "474",
    "ward_name": "ETINAN URBAN 1",
    "local_government_id": "45",
    "local_government_name": "ETINAN",
    "state_id": "3",
    "state_name": "AKWA IBOM",
    "location": {
      "latitude": 4.8376986,
      "longitude": 7.8390891,
      "viewport": {
        "northeast": {
          "lat": 4.838721929892722,
          "lng": 7.840870179892722
        },
        "southwest": {
          "lat": 4.836022270107278,
          "lng": 7.838170520107278
        }
      },
      "formatted_address": "RRQQ+3JG, 522102, Etinan, Nigeria",
      "google_map_url": "https://maps.google.com?q=4.8376986,7.8390891",
      "google_place_id": "ChIJk9Q_ViXjZxARCCro95yQNZc"
    }
  },
  {
    "id": "9002",
    "name": "FEDERATED TOWN HALL, ETINAN",
    "registration_area_id": "474",
    "precise_location": null,
    "abbreviation": "004",
    "units": "004",
    "delimitation": "03/07/01/004",
    "remark": "EXISTING PU",
    "ward_id": "474",
    "ward_name": "ETINAN URBAN 1",
    "local_government_id": "45",
    "local_government_name": "ETINAN",
    "state_id": "3",
    "state_name": "AKWA IBOM",
    "location": {
      "latitude": 4.8389424,
      "longitude": 7.852167700000001,
      "viewport": {
        "northeast": {
          "lat": 4.840303929892722,
          "lng": 7.85349027989272
        },
        "southwest": {
          "lat": 4.837604270107279,
          "lng": 7.850790620107276
        }
      },
      "formatted_address": "RVQ2+HVH, 522102, Etinan, Nigeria",
      "google_map_url": "https://maps.google.com?q=4.8389424,7.852167700000001",
      "google_place_id": "ChIJQ85wQkjjZxARR_eTexyWNek"
    }
  },
  {
    "id": "9003",
    "name": "SALVATION ARMY SCH, IKOT EBO",
    "registration_area_id": "474",
    "precise_location": null,
    "abbreviation": "005",
    "units": "005",
    "delimitation": "03/07/01/005",
    "remark": "EXISTING PU",
    "ward_id": "474",
    "ward_name": "ETINAN URBAN 1",
    "local_government_id": "45",
    "local_government_name": "ETINAN",
    "state_id": "3",
    "state_name": "AKWA IBOM",
    "location": {
      "latitude": 4.8278655,
      "longitude": 7.8627224,
      "viewport": {
        "northeast": {
          "lat": 4.829261129892722,
          "lng": 7.864094329892721
        },
        "southwest": {
          "lat": 4.826561470107278,
          "lng": 7.861394670107277
        }
      },
      "formatted_address": "RVH7+43X, iko ebo,, Eket-Uyo Road, Etinan, Nigeria",
      "google_map_url": "https://maps.google.com?q=4.8278655,7.8627224",
      "google_place_id": "ChIJwTJ1aF3jZxAR1m97K1zvT5E"
    }
  },
  {
    "id": "9004",
    "name": "JOHN KIRK PRY SCH",
    "registration_area_id": "474",
    "precise_location": null,
    "abbreviation": "006",
    "units": "006",
    "delimitation": "03/07/01/006",
    "remark": "EXISTING PU",
    "ward_id": "474",
    "ward_name": "ETINAN URBAN 1",
    "local_government_id": "45",
    "local_government_name": "ETINAN",
    "state_id": "3",
    "state_name": "AKWA IBOM",
    "location": {
      "latitude": 4.854997399999999,
      "longitude": 7.851363200000001,
      "viewport": {
        "northeast": {
          "lat": 4.856343579892722,
          "lng": 7.852705179892722
        },
        "southwest": {
          "lat": 4.853643920107278,
          "lng": 7.850005520107278
        }
      },
      "formatted_address": "VV32+XHR, 522102, Etinan, Nigeria",
      "google_map_url": "https://maps.google.com?q=4.854997399999999,7.851363200000001",
      "google_place_id": "ChIJffT4Obb8ZxARhqQBO6fzc2w"
    }
  },
  {
    "id": "9005",
    "name": "SLAWD PETERS TECHNICAL SCH,",
    "registration_area_id": "474",
    "precise_location": null,
    "abbreviation": "007",
    "units": "007",
    "delimitation": "03/07/01/007",
    "remark": "EXISTING PU",
    "ward_id": "474",
    "ward_name": "ETINAN URBAN 1",
    "local_government_id": "45",
    "local_government_name": "ETINAN",
    "state_id": "3",
    "state_name": "AKWA IBOM",
    "location": {
      "latitude": 4.8526283,
      "longitude": 7.853517000000001,
      "viewport": {
        "northeast": {
          "lat": 4.85402442989272,
          "lng": 7.854723079892721
        },
        "southwest": {
          "lat": 4.851324770107277,
          "lng": 7.852023420107277
        }
      },
      "formatted_address": "11 Joshua obot street ikot ekang, 522101, Etinan, Nigeria",
      "google_map_url": "https://maps.google.com?q=4.8526283,7.853517000000001",
      "google_place_id": "ChIJoxQtZDn9ZxARhSjDYIanCHo"
    }
  },
  {
    "id": "9006",
    "name": "Q.I.C PRESS, ETINAN",
    "registration_area_id": "474",
    "precise_location": null,
    "abbreviation": "008",
    "units": "008",
    "delimitation": "03/07/01/008",
    "remark": "EXISTING PU",
    "ward_id": "474",
    "ward_name": "ETINAN URBAN 1",
    "local_government_id": "45",
    "local_government_name": "ETINAN",
    "state_id": "3",
    "state_name": "AKWA IBOM",
    "location": {
      "latitude": 4.842715999999999,
      "longitude": 7.855835700000001,
      "viewport": {
        "northeast": {
          "lat": 4.8719409,
          "lng": 7.868957999999999
        },
        "southwest": {
          "lat": 4.822687999999999,
          "lng": 7.8414149
        }
      },
      "formatted_address": "Etinan, Nigeria",
      "google_map_url": "https://maps.google.com?q=4.842715999999999,7.855835700000001",
      "google_place_id": "ChIJY85tq07jZxARVCFM8LB1Zps"
    }
  },
  {
    "id": "9007",
    "name": "VILLAGE HALL,  IKOT EBO",
    "registration_area_id": "474",
    "precise_location": null,
    "abbreviation": "009",
    "units": "009",
    "delimitation": "03/07/01/009",
    "remark": "EXISTING PU",
    "ward_id": "474",
    "ward_name": "ETINAN URBAN 1",
    "local_government_id": "45",
    "local_government_name": "ETINAN",
    "state_id": "3",
    "state_name": "AKWA IBOM",
    "location": {
      "latitude": 4.8299417,
      "longitude": 7.855890400000001,
      "viewport": {
        "northeast": {
          "lat": 4.831252429892722,
          "lng": 7.857291279892722
        },
        "southwest": {
          "lat": 4.828552770107278,
          "lng": 7.854591620107279
        }
      },
      "formatted_address": "RVH4+X8P, 522102, Etinan, Nigeria",
      "google_map_url": "https://maps.google.com?q=4.8299417,7.855890400000001",
      "google_place_id": "ChIJd_Dnf0HjZxARAfiCMTWQtWs"
    }
  },
  {
    "id": "9008",
    "name": "BUS STOP, IKOT EBIYAK",
    "registration_area_id": "474",
    "precise_location": null,
    "abbreviation": "010",
    "units": "010",
    "delimitation": "03/07/01/010",
    "remark": "EXISTING PU",
    "ward_id": "474",
    "ward_name": "ETINAN URBAN 1",
    "local_government_id": "45",
    "local_government_name": "ETINAN",
    "state_id": "3",
    "state_name": "AKWA IBOM",
    "location": null
  },
  {
    "id": "9009",
    "name": "M.C.H SECRETARIAT RD, ETINAN",
    "registration_area_id": "474",
    "precise_location": null,
    "abbreviation": "011",
    "units": "011",
    "delimitation": "03/07/01/011",
    "remark": "EXISTING PU",
    "ward_id": "474",
    "ward_name": "ETINAN URBAN 1",
    "local_government_id": "45",
    "local_government_name": "ETINAN",
    "state_id": "3",
    "state_name": "AKWA IBOM",
    "location": {
      "latitude": 4.8432647,
      "longitude": 7.844585299999999,
      "viewport": {
        "northeast": {
          "lat": 4.844759679892721,
          "lng": 7.846054379892721
        },
        "southwest": {
          "lat": 4.842060020107278,
          "lng": 7.843354720107278
        }
      },
      "formatted_address": "RRVV+8R4, 522102, Etinan, Nigeria",
      "google_map_url": "https://maps.google.com?q=4.8432647,7.844585299999999",
      "google_place_id": "ChIJwWXc-zPjZxARAEPfR7Mm1zY"
    }
  },
  {
    "id": "9010",
    "name": "POST OFFICE, ETINAN",
    "registration_area_id": "474",
    "precise_location": null,
    "abbreviation": "012",
    "units": "012",
    "delimitation": "03/07/01/012",
    "remark": "EXISTING PU",
    "ward_id": "474",
    "ward_name": "ETINAN URBAN 1",
    "local_government_id": "45",
    "local_government_name": "ETINAN",
    "state_id": "3",
    "state_name": "AKWA IBOM",
    "location": {
      "latitude": 5.0218541,
      "longitude": 7.922816,
      "viewport": {
        "northeast": {
          "lat": 5.023170929892722,
          "lng": 7.924210929892721
        },
        "southwest": {
          "lat": 5.020471270107278,
          "lng": 7.921511270107277
        }
      },
      "formatted_address": "107 Aka Rd, 520241, Uyo, Nigeria",
      "google_map_url": "https://maps.google.com?q=5.0218541,7.922816",
      "google_place_id": "ChIJ1fdAV0rjZxARFwfLZw_cU94"
    }
  },
  {
    "id": "9011",
    "name": "OPEN SPACE, NDON UMO, ETINAN",
    "registration_area_id": "474",
    "precise_location": null,
    "abbreviation": "013",
    "units": "013",
    "delimitation": "03/07/01/013",
    "remark": "NEW PU",
    "ward_id": "474",
    "ward_name": "ETINAN URBAN 1",
    "local_government_id": "45",
    "local_government_name": "ETINAN",
    "state_id": "3",
    "state_name": "AKWA IBOM",
    "location": null
  },
  {
    "id": "9012",
    "name": "DIVISIONAL LIBRARY, STADIUM ROAD, ETINAN",
    "registration_area_id": "474",
    "precise_location": null,
    "abbreviation": "014",
    "units": "014",
    "delimitation": "03/07/01/014",
    "remark": "NEW PU",
    "ward_id": "474",
    "ward_name": "ETINAN URBAN 1",
    "local_government_id": "45",
    "local_government_name": "ETINAN",
    "state_id": "3",
    "state_name": "AKWA IBOM",
    "location": null
  },
  {
    "id": "9013",
    "name": "ETINAN TOWN COUNCIL LHALL",
    "registration_area_id": "474",
    "precise_location": null,
    "abbreviation": "015",
    "units": "015",
    "delimitation": "03/07/01/015",
    "remark": "NEW PU",
    "ward_id": "474",
    "ward_name": "ETINAN URBAN 1",
    "local_government_id": "45",
    "local_government_name": "ETINAN",
    "state_id": "3",
    "state_name": "AKWA IBOM",
    "location": {
      "latitude": 4.8432647,
      "longitude": 7.844585299999999,
      "viewport": {
        "northeast": {
          "lat": 4.844759679892721,
          "lng": 7.846054379892721
        },
        "southwest": {
          "lat": 4.842060020107278,
          "lng": 7.843354720107278
        }
      },
      "formatted_address": "RRVV+8R4, 522102, Etinan, Nigeria",
      "google_map_url": "https://maps.google.com?q=4.8432647,7.844585299999999",
      "google_place_id": "ChIJwWXc-zPjZxARAEPfR7Mm1zY"
    }
  },
  {
    "id": "9014",
    "name": "SALVATION ARMY SCHOOL, IKOT EBO II",
    "registration_area_id": "474",
    "precise_location": null,
    "abbreviation": "016",
    "units": "016",
    "delimitation": "03/07/01/016",
    "remark": "NEW PU",
    "ward_id": "474",
    "ward_name": "ETINAN URBAN 1",
    "local_government_id": "45",
    "local_government_name": "ETINAN",
    "state_id": "3",
    "state_name": "AKWA IBOM",
    "location": {
      "latitude": 4.8278655,
      "longitude": 7.8627224,
      "viewport": {
        "northeast": {
          "lat": 4.829261129892722,
          "lng": 7.864094329892721
        },
        "southwest": {
          "lat": 4.826561470107278,
          "lng": 7.861394670107277
        }
      },
      "formatted_address": "RVH7+43X, iko ebo,, Eket-Uyo Road, Etinan, Nigeria",
      "google_map_url": "https://maps.google.com?q=4.8278655,7.8627224",
      "google_place_id": "ChIJwTJ1aF3jZxAR1m97K1zvT5E"
    }
  },
  {
    "id": "9015",
    "name": "OPEN SPACE, LG QUARTERS, SECRETARIAT ROAD.",
    "registration_area_id": "474",
    "precise_location": null,
    "abbreviation": "017",
    "units": "017",
    "delimitation": "03/07/01/017",
    "remark": "NEW PU",
    "ward_id": "474",
    "ward_name": "ETINAN URBAN 1",
    "local_government_id": "45",
    "local_government_name": "ETINAN",
    "state_id": "3",
    "state_name": "AKWA IBOM",
    "location": null
  },
  {
    "id": "9016",
    "name": "SLAWD PETERS TECH. SCH. II, UYO ROAD, ETINAN",
    "registration_area_id": "474",
    "precise_location": null,
    "abbreviation": "018",
    "units": "018",
    "delimitation": "03/07/01/018",
    "remark": "NEW PU",
    "ward_id": "474",
    "ward_name": "ETINAN URBAN 1",
    "local_government_id": "45",
    "local_government_name": "ETINAN",
    "state_id": "3",
    "state_name": "AKWA IBOM",
    "location": {
      "latitude": 4.8526283,
      "longitude": 7.853517000000001,
      "viewport": {
        "northeast": {
          "lat": 4.85402442989272,
          "lng": 7.854723079892721
        },
        "southwest": {
          "lat": 4.851324770107277,
          "lng": 7.852023420107277
        }
      },
      "formatted_address": "11 Joshua obot street ikot ekang, 522101, Etinan, Nigeria",
      "google_map_url": "https://maps.google.com?q=4.8526283,7.853517000000001",
      "google_place_id": "ChIJoxQtZDn9ZxARhSjDYIanCHo"
    }
  },
  {
    "id": "9017",
    "name": "ETINAN MARKET SQUARE, MARKET ROAD, ETINAN",
    "registration_area_id": "474",
    "precise_location": null,
    "abbreviation": "019",
    "units": "019",
    "delimitation": "03/07/01/019",
    "remark": "NEW PU",
    "ward_id": "474",
    "ward_name": "ETINAN URBAN 1",
    "local_government_id": "45",
    "local_government_name": "ETINAN",
    "state_id": "3",
    "state_name": "AKWA IBOM",
    "location": {
      "latitude": 4.8348676,
      "longitude": 7.8514094,
      "viewport": {
        "northeast": {
          "lat": 4.836218029892722,
          "lng": 7.852878179892723
        },
        "southwest": {
          "lat": 4.833518370107278,
          "lng": 7.850178520107279
        }
      },
      "formatted_address": "RVM2+WHV, 522102, Etinan, Nigeria",
      "google_map_url": "https://maps.google.com?q=4.8348676,7.8514094",
      "google_place_id": "ChIJK9YpdEfjZxARjcgasrRquvs"
    }
  },
  {
    "id": "9018",
    "name": "ETINAN INSTITUTE",
    "registration_area_id": "474",
    "precise_location": null,
    "abbreviation": "020",
    "units": "020",
    "delimitation": "03/07/01/020",
    "remark": "NEW PU",
    "ward_id": "474",
    "ward_name": "ETINAN URBAN 1",
    "local_government_id": "45",
    "local_government_name": "ETINAN",
    "state_id": "3",
    "state_name": "AKWA IBOM",
    "location": {
      "latitude": 4.8340355,
      "longitude": 7.856116600000001,
      "viewport": {
        "northeast": {
          "lat": 4.835354829892722,
          "lng": 7.85749762989272
        },
        "southwest": {
          "lat": 4.832655170107278,
          "lng": 7.854797970107276
        }
      },
      "formatted_address": "RVM4+JC9, 522102, Etinan, Nigeria",
      "google_map_url": "https://maps.google.com?q=4.8340355,7.856116600000001",
      "google_place_id": "ChIJG45aWkTjZxARfTLb-DML_7c"
    }
  },
  {
    "id": "9019",
    "name": "CIVIC CENTRE, IKOT EBIYAK",
    "registration_area_id": "474",
    "precise_location": null,
    "abbreviation": "021",
    "units": "021",
    "delimitation": "03/07/01/021",
    "remark": "NEW PU",
    "ward_id": "474",
    "ward_name": "ETINAN URBAN 1",
    "local_government_id": "45",
    "local_government_name": "ETINAN",
    "state_id": "3",
    "state_name": "AKWA IBOM",
    "location": null
  },
  {
    "id": "9020",
    "name": "CENOTAPH, SECRETARIAT ROAD ETINAN",
    "registration_area_id": "474",
    "precise_location": null,
    "abbreviation": "022",
    "units": "022",
    "delimitation": "03/07/01/022",
    "remark": "NEW PU",
    "ward_id": "474",
    "ward_name": "ETINAN URBAN 1",
    "local_government_id": "45",
    "local_government_name": "ETINAN",
    "state_id": "3",
    "state_name": "AKWA IBOM",
    "location": {
      "latitude": 4.8432647,
      "longitude": 7.844585299999999,
      "viewport": {
        "northeast": {
          "lat": 4.844759679892721,
          "lng": 7.846054379892721
        },
        "southwest": {
          "lat": 4.842060020107278,
          "lng": 7.843354720107278
        }
      },
      "formatted_address": "RRVV+8R4, 522102, Etinan, Nigeria",
      "google_map_url": "https://maps.google.com?q=4.8432647,7.844585299999999",
      "google_place_id": "ChIJwWXc-zPjZxARAEPfR7Mm1zY"
    }
  },
  {
    "id": "9021",
    "name": "MOTOR PARK, EMP ETINAN",
    "registration_area_id": "474",
    "precise_location": null,
    "abbreviation": "023",
    "units": "023",
    "delimitation": "03/07/01/023",
    "remark": "NEW PU",
    "ward_id": "474",
    "ward_name": "ETINAN URBAN 1",
    "local_government_id": "45",
    "local_government_name": "ETINAN",
    "state_id": "3",
    "state_name": "AKWA IBOM",
    "location": {
      "latitude": 4.842715999999999,
      "longitude": 7.855835700000001,
      "viewport": {
        "northeast": {
          "lat": 4.844347029892722,
          "lng": 7.857059629892723
        },
        "southwest": {
          "lat": 4.841647370107278,
          "lng": 7.854359970107279
        }
      },
      "formatted_address": "RVV4+38P, 522102, Etinan, Nigeria",
      "google_map_url": "https://maps.google.com?q=4.842715999999999,7.855835700000001",
      "google_place_id": "ChIJq6qqqk7jZxARTaRlnUiB4ic"
    }
  }
]