[
  {
    "id": "95896",
    "name": "HUI A - KOFAR MAIGARI",
    "registration_area_id": "4871",
    "precise_location": null,
    "abbreviation": "001",
    "units": "001",
    "delimitation": "20/04/11/001",
    "remark": "EXISTING PU",
    "ward_id": "4871",
    "ward_name": "HUI",
    "local_government_id": "417",
    "local_government_name": "BAURE",
    "state_id": "20",
    "state_name": "KATSINA",
    "location": null
  },
  {
    "id": "95897",
    "name": "BAUSHI TINGATSARA - KOFAR MAIGARI",
    "registration_area_id": "4871",
    "precise_location": null,
    "abbreviation": "002",
    "units": "002",
    "delimitation": "20/04/11/002",
    "remark": "EXISTING PU",
    "ward_id": "4871",
    "ward_name": "HUI",
    "local_government_id": "417",
    "local_government_name": "BAURE",
    "state_id": "20",
    "state_name": "KATSINA",
    "location": null
  },
  {
    "id": "95898",
    "name": "DANTAGWARMA A - KOFAR MAIGARI",
    "registration_area_id": "4871",
    "precise_location": null,
    "abbreviation": "003",
    "units": "003",
    "delimitation": "20/04/11/003",
    "remark": "EXISTING PU",
    "ward_id": "4871",
    "ward_name": "HUI",
    "local_government_id": "417",
    "local_government_name": "BAURE",
    "state_id": "20",
    "state_name": "KATSINA",
    "location": {
      "latitude": 12.7406762,
      "longitude": 8.7340929,
      "viewport": {
        "northeast": {
          "lat": 12.74204842989272,
          "lng": 8.735443129892722
        },
        "southwest": {
          "lat": 12.73934877010728,
          "lng": 8.732743470107279
        }
      },
      "formatted_address": "Dantagwarma Primary School, 824105, Dan Kuliya, Nigeria",
      "google_map_url": "https://maps.google.com?q=12.7406762,8.7340929",
      "google_place_id": "ChIJZ1WTzREcrxERHMxPn28nwuI"
    }
  },
  {
    "id": "95899",
    "name": "HURTUMI - KOFAR MAIGARI",
    "registration_area_id": "4871",
    "precise_location": null,
    "abbreviation": "004",
    "units": "004",
    "delimitation": "20/04/11/004",
    "remark": "EXISTING PU",
    "ward_id": "4871",
    "ward_name": "HUI",
    "local_government_id": "417",
    "local_government_name": "BAURE",
    "state_id": "20",
    "state_name": "KATSINA",
    "location": null
  },
  {
    "id": "95900",
    "name": "UNG CHIROMA - KOFAR MAIGARI",
    "registration_area_id": "4871",
    "precise_location": null,
    "abbreviation": "005",
    "units": "005",
    "delimitation": "20/04/11/005",
    "remark": "EXISTING PU",
    "ward_id": "4871",
    "ward_name": "HUI",
    "local_government_id": "417",
    "local_government_name": "BAURE",
    "state_id": "20",
    "state_name": "KATSINA",
    "location": null
  },
  {
    "id": "95901",
    "name": "KAKARE - PRI. SCHOOL",
    "registration_area_id": "4871",
    "precise_location": null,
    "abbreviation": "006",
    "units": "006",
    "delimitation": "20/04/11/006",
    "remark": "EXISTING PU",
    "ward_id": "4871",
    "ward_name": "HUI",
    "local_government_id": "417",
    "local_government_name": "BAURE",
    "state_id": "20",
    "state_name": "KATSINA",
    "location": {
      "latitude": 12.8105455,
      "longitude": 8.7150562,
      "viewport": {
        "northeast": {
          "lat": 12.81189772989272,
          "lng": 8.716399579892721
        },
        "southwest": {
          "lat": 12.80919807010728,
          "lng": 8.713699920107278
        }
      },
      "formatted_address": "RP68+62G, 824105, Baure, Nigeria",
      "google_map_url": "https://maps.google.com?q=12.8105455,8.7150562",
      "google_place_id": "ChIJ1zXLqloarxERyPfowTpdTsI"
    }
  },
  {
    "id": "95902",
    "name": "DASHI - PRI.SCHOOL",
    "registration_area_id": "4871",
    "precise_location": null,
    "abbreviation": "007",
    "units": "007",
    "delimitation": "20/04/11/007",
    "remark": "EXISTING PU",
    "ward_id": "4871",
    "ward_name": "HUI",
    "local_government_id": "417",
    "local_government_name": "BAURE",
    "state_id": "20",
    "state_name": "KATSINA",
    "location": {
      "latitude": 12.8105455,
      "longitude": 8.7150562,
      "viewport": {
        "northeast": {
          "lat": 12.81189772989272,
          "lng": 8.716399579892721
        },
        "southwest": {
          "lat": 12.80919807010728,
          "lng": 8.713699920107278
        }
      },
      "formatted_address": "RP68+62G, 824105, Baure, Nigeria",
      "google_map_url": "https://maps.google.com?q=12.8105455,8.7150562",
      "google_place_id": "ChIJ1zXLqloarxERyPfowTpdTsI"
    }
  },
  {
    "id": "95903",
    "name": "ZODA - PRI. SCHOOL",
    "registration_area_id": "4871",
    "precise_location": null,
    "abbreviation": "008",
    "units": "008",
    "delimitation": "20/04/11/008",
    "remark": "EXISTING PU",
    "ward_id": "4871",
    "ward_name": "HUI",
    "local_government_id": "417",
    "local_government_name": "BAURE",
    "state_id": "20",
    "state_name": "KATSINA",
    "location": {
      "latitude": 12.8105455,
      "longitude": 8.7150562,
      "viewport": {
        "northeast": {
          "lat": 12.81189772989272,
          "lng": 8.716399579892721
        },
        "southwest": {
          "lat": 12.80919807010728,
          "lng": 8.713699920107278
        }
      },
      "formatted_address": "RP68+62G, 824105, Baure, Nigeria",
      "google_map_url": "https://maps.google.com?q=12.8105455,8.7150562",
      "google_place_id": "ChIJ1zXLqloarxERyPfowTpdTsI"
    }
  },
  {
    "id": "95904",
    "name": "TORANKAWA - PRI. SCHOOL",
    "registration_area_id": "4871",
    "precise_location": null,
    "abbreviation": "009",
    "units": "009",
    "delimitation": "20/04/11/009",
    "remark": "EXISTING PU",
    "ward_id": "4871",
    "ward_name": "HUI",
    "local_government_id": "417",
    "local_government_name": "BAURE",
    "state_id": "20",
    "state_name": "KATSINA",
    "location": {
      "latitude": 12.8105455,
      "longitude": 8.7150562,
      "viewport": {
        "northeast": {
          "lat": 12.81189772989272,
          "lng": 8.716399579892721
        },
        "southwest": {
          "lat": 12.80919807010728,
          "lng": 8.713699920107278
        }
      },
      "formatted_address": "RP68+62G, 824105, Baure, Nigeria",
      "google_map_url": "https://maps.google.com?q=12.8105455,8.7150562",
      "google_place_id": "ChIJ1zXLqloarxERyPfowTpdTsI"
    }
  },
  {
    "id": "95905",
    "name": "GOBIRAWA - PRIMARY SCHOOL",
    "registration_area_id": "4871",
    "precise_location": null,
    "abbreviation": "010",
    "units": "010",
    "delimitation": "20/04/11/010",
    "remark": "EXISTING PU",
    "ward_id": "4871",
    "ward_name": "HUI",
    "local_government_id": "417",
    "local_government_name": "BAURE",
    "state_id": "20",
    "state_name": "KATSINA",
    "location": {
      "latitude": 12.9815608,
      "longitude": 7.622266499999999,
      "viewport": {
        "northeast": {
          "lat": 12.98290287989272,
          "lng": 7.62356807989272
        },
        "southwest": {
          "lat": 12.98020322010728,
          "lng": 7.620868420107276
        }
      },
      "formatted_address": "XJJC+JWC, 820101, Katsina, Nigeria",
      "google_map_url": "https://maps.google.com?q=12.9815608,7.622266499999999",
      "google_place_id": "ChIJyyfYRtMjsBER5uM2_vL0rSI"
    }
  },
  {
    "id": "95906",
    "name": "GAJEN - CIKIN GARI",
    "registration_area_id": "4871",
    "precise_location": null,
    "abbreviation": "011",
    "units": "011",
    "delimitation": "20/04/11/011",
    "remark": "EXISTING PU",
    "ward_id": "4871",
    "ward_name": "HUI",
    "local_government_id": "417",
    "local_government_name": "BAURE",
    "state_id": "20",
    "state_name": "KATSINA",
    "location": null
  },
  {
    "id": "95907",
    "name": "KAMMASAWA - PRI SCHOOL",
    "registration_area_id": "4871",
    "precise_location": null,
    "abbreviation": "012",
    "units": "012",
    "delimitation": "20/04/11/012",
    "remark": "EXISTING PU",
    "ward_id": "4871",
    "ward_name": "HUI",
    "local_government_id": "417",
    "local_government_name": "BAURE",
    "state_id": "20",
    "state_name": "KATSINA",
    "location": {
      "latitude": 13.0521153,
      "longitude": 8.4889602,
      "viewport": {
        "northeast": {
          "lat": 13.05356487989272,
          "lng": 8.490210829892721
        },
        "southwest": {
          "lat": 13.05086522010728,
          "lng": 8.487511170107277
        }
      },
      "formatted_address": "zango palace, Zongo-Baure Road, 824104, Zango, Nigeria",
      "google_map_url": "https://maps.google.com?q=13.0521153,8.4889602",
      "google_place_id": "ChIJyUxBUH51rxER9Ph804x3U0o"
    }
  },
  {
    "id": "95908",
    "name": "MAZARE - PRI. SCHOOL",
    "registration_area_id": "4871",
    "precise_location": null,
    "abbreviation": "013",
    "units": "013",
    "delimitation": "20/04/11/013",
    "remark": "EXISTING PU",
    "ward_id": "4871",
    "ward_name": "HUI",
    "local_government_id": "417",
    "local_government_name": "BAURE",
    "state_id": "20",
    "state_name": "KATSINA",
    "location": {
      "latitude": 13.0521153,
      "longitude": 8.4889602,
      "viewport": {
        "northeast": {
          "lat": 13.05356487989272,
          "lng": 8.490210829892721
        },
        "southwest": {
          "lat": 13.05086522010728,
          "lng": 8.487511170107277
        }
      },
      "formatted_address": "zango palace, Zongo-Baure Road, 824104, Zango, Nigeria",
      "google_map_url": "https://maps.google.com?q=13.0521153,8.4889602",
      "google_place_id": "ChIJyUxBUH51rxER9Ph804x3U0o"
    }
  },
  {
    "id": "95909",
    "name": "DANKULIYA - CIKIN GARI",
    "registration_area_id": "4871",
    "precise_location": null,
    "abbreviation": "014",
    "units": "014",
    "delimitation": "20/04/11/014",
    "remark": "EXISTING PU",
    "ward_id": "4871",
    "ward_name": "HUI",
    "local_government_id": "417",
    "local_government_name": "BAURE",
    "state_id": "20",
    "state_name": "KATSINA",
    "location": null
  },
  {
    "id": "95910",
    "name": "WANGA - PRI SCHOOL",
    "registration_area_id": "4871",
    "precise_location": null,
    "abbreviation": "015",
    "units": "015",
    "delimitation": "20/04/11/015",
    "remark": "EXISTING PU",
    "ward_id": "4871",
    "ward_name": "HUI",
    "local_government_id": "417",
    "local_government_name": "BAURE",
    "state_id": "20",
    "state_name": "KATSINA",
    "location": {
      "latitude": 13.0521153,
      "longitude": 8.4889602,
      "viewport": {
        "northeast": {
          "lat": 13.05356487989272,
          "lng": 8.490210829892721
        },
        "southwest": {
          "lat": 13.05086522010728,
          "lng": 8.487511170107277
        }
      },
      "formatted_address": "zango palace, Zongo-Baure Road, 824104, Zango, Nigeria",
      "google_map_url": "https://maps.google.com?q=13.0521153,8.4889602",
      "google_place_id": "ChIJyUxBUH51rxER9Ph804x3U0o"
    }
  },
  {
    "id": "95911",
    "name": "LIGGEL - PRIMARY SCHOOL",
    "registration_area_id": "4871",
    "precise_location": null,
    "abbreviation": "016",
    "units": "016",
    "delimitation": "20/04/11/016",
    "remark": "EXISTING PU",
    "ward_id": "4871",
    "ward_name": "HUI",
    "local_government_id": "417",
    "local_government_name": "BAURE",
    "state_id": "20",
    "state_name": "KATSINA",
    "location": {
      "latitude": 12.8105455,
      "longitude": 8.7150562,
      "viewport": {
        "northeast": {
          "lat": 12.81189772989272,
          "lng": 8.716399579892721
        },
        "southwest": {
          "lat": 12.80919807010728,
          "lng": 8.713699920107278
        }
      },
      "formatted_address": "RP68+62G, 824105, Baure, Nigeria",
      "google_map_url": "https://maps.google.com?q=12.8105455,8.7150562",
      "google_place_id": "ChIJ1zXLqloarxERyPfowTpdTsI"
    }
  },
  {
    "id": "95912",
    "name": "YAJALE - PRI SCHOOL",
    "registration_area_id": "4871",
    "precise_location": null,
    "abbreviation": "017",
    "units": "017",
    "delimitation": "20/04/11/017",
    "remark": "EXISTING PU",
    "ward_id": "4871",
    "ward_name": "HUI",
    "local_government_id": "417",
    "local_government_name": "BAURE",
    "state_id": "20",
    "state_name": "KATSINA",
    "location": {
      "latitude": 12.53062,
      "longitude": 7.450893,
      "viewport": {
        "northeast": {
          "lat": 12.53217937989272,
          "lng": 7.452027079892721
        },
        "southwest": {
          "lat": 12.52947972010728,
          "lng": 7.449327420107277
        }
      },
      "formatted_address": "GFJ2+69R, 821103, Dabawa, Nigeria",
      "google_map_url": "https://maps.google.com?q=12.53062,7.450893",
      "google_place_id": "ChIJ_0vrOhDIsRER6uK6SChL6P4"
    }
  },
  {
    "id": "95913",
    "name": "YARKIYA - PRI. SCHOOL",
    "registration_area_id": "4871",
    "precise_location": null,
    "abbreviation": "018",
    "units": "018",
    "delimitation": "20/04/11/018",
    "remark": "EXISTING PU",
    "ward_id": "4871",
    "ward_name": "HUI",
    "local_government_id": "417",
    "local_government_name": "BAURE",
    "state_id": "20",
    "state_name": "KATSINA",
    "location": {
      "latitude": 12.53062,
      "longitude": 7.450893,
      "viewport": {
        "northeast": {
          "lat": 12.53217937989272,
          "lng": 7.452027079892721
        },
        "southwest": {
          "lat": 12.52947972010728,
          "lng": 7.449327420107277
        }
      },
      "formatted_address": "GFJ2+69R, 821103, Dabawa, Nigeria",
      "google_map_url": "https://maps.google.com?q=12.53062,7.450893",
      "google_place_id": "ChIJ_0vrOhDIsRER6uK6SChL6P4"
    }
  },
  {
    "id": "95914",
    "name": "CHICIYA - PRIMARY SCHOOL",
    "registration_area_id": "4871",
    "precise_location": null,
    "abbreviation": "019",
    "units": "019",
    "delimitation": "20/04/11/019",
    "remark": "EXISTING PU",
    "ward_id": "4871",
    "ward_name": "HUI",
    "local_government_id": "417",
    "local_government_name": "BAURE",
    "state_id": "20",
    "state_name": "KATSINA",
    "location": {
      "latitude": 12.53062,
      "longitude": 7.450893,
      "viewport": {
        "northeast": {
          "lat": 12.53217937989272,
          "lng": 7.452027079892721
        },
        "southwest": {
          "lat": 12.52947972010728,
          "lng": 7.449327420107277
        }
      },
      "formatted_address": "GFJ2+69R, 821103, Dabawa, Nigeria",
      "google_map_url": "https://maps.google.com?q=12.53062,7.450893",
      "google_place_id": "ChIJ_0vrOhDIsRER6uK6SChL6P4"
    }
  },
  {
    "id": "95915",
    "name": "KABURA - KOFAR MAIGARI",
    "registration_area_id": "4871",
    "precise_location": null,
    "abbreviation": "020",
    "units": "020",
    "delimitation": "20/04/11/020",
    "remark": "EXISTING PU",
    "ward_id": "4871",
    "ward_name": "HUI",
    "local_government_id": "417",
    "local_government_name": "BAURE",
    "state_id": "20",
    "state_name": "KATSINA",
    "location": null
  },
  {
    "id": "95916",
    "name": "DANTAGWARMA B DISPENSARY",
    "registration_area_id": "4871",
    "precise_location": null,
    "abbreviation": "021",
    "units": "021",
    "delimitation": "20/04/11/021",
    "remark": "EXISTING PU",
    "ward_id": "4871",
    "ward_name": "HUI",
    "local_government_id": "417",
    "local_government_name": "BAURE",
    "state_id": "20",
    "state_name": "KATSINA",
    "location": {
      "latitude": 12.7406762,
      "longitude": 8.7340929,
      "viewport": {
        "northeast": {
          "lat": 12.74204842989272,
          "lng": 8.735443129892722
        },
        "southwest": {
          "lat": 12.73934877010728,
          "lng": 8.732743470107279
        }
      },
      "formatted_address": "Dantagwarma Primary School, 824105, Dan Kuliya, Nigeria",
      "google_map_url": "https://maps.google.com?q=12.7406762,8.7340929",
      "google_place_id": "ChIJZ1WTzREcrxERHMxPn28nwuI"
    }
  },
  {
    "id": "95917",
    "name": "HUI B, - PRIMARY SCHOOL",
    "registration_area_id": "4871",
    "precise_location": null,
    "abbreviation": "022",
    "units": "022",
    "delimitation": "20/04/11/022",
    "remark": "EXISTING PU",
    "ward_id": "4871",
    "ward_name": "HUI",
    "local_government_id": "417",
    "local_government_name": "BAURE",
    "state_id": "20",
    "state_name": "KATSINA",
    "location": {
      "latitude": 12.8105455,
      "longitude": 8.7150562,
      "viewport": {
        "northeast": {
          "lat": 12.81189772989272,
          "lng": 8.716399579892721
        },
        "southwest": {
          "lat": 12.80919807010728,
          "lng": 8.713699920107278
        }
      },
      "formatted_address": "RP68+62G, 824105, Baure, Nigeria",
      "google_map_url": "https://maps.google.com?q=12.8105455,8.7150562",
      "google_place_id": "ChIJ1zXLqloarxERyPfowTpdTsI"
    }
  }
]