[
  {
    "id": "100965",
    "name": "KARACHI -GABAS I /  MARARRABA PRI.SCHOOL",
    "registration_area_id": "5138",
    "precise_location": null,
    "abbreviation": "001",
    "units": "001",
    "delimitation": "20/29/11/001",
    "remark": "EXISTING PU",
    "ward_id": "5138",
    "ward_name": "KURKUJAN 'B'",
    "local_government_id": "442",
    "local_government_name": "MUSAWA",
    "state_id": "20",
    "state_name": "KATSINA",
    "location": {
      "latitude": 12.9916195,
      "longitude": 7.656489400000001,
      "viewport": {
        "northeast": {
          "lat": 12.99287382989272,
          "lng": 7.657842079892721
        },
        "southwest": {
          "lat": 12.99017417010728,
          "lng": 7.655142420107278
        }
      },
      "formatted_address": "No 6, beside Maternal and Child Clinic, Kwado, Katsina, Nigeria",
      "google_map_url": "https://maps.google.com?q=12.9916195,7.656489400000001",
      "google_place_id": "ChIJsRnXwu4jsBERZLi6Gq5mspg"
    }
  },
  {
    "id": "100966",
    "name": "YAR'DANYA - YAR'DANYA",
    "registration_area_id": "5138",
    "precise_location": null,
    "abbreviation": "002",
    "units": "002",
    "delimitation": "20/29/11/002",
    "remark": "EXISTING PU",
    "ward_id": "5138",
    "ward_name": "KURKUJAN 'B'",
    "local_government_id": "442",
    "local_government_name": "MUSAWA",
    "state_id": "20",
    "state_name": "KATSINA",
    "location": {
      "latitude": 12.8858107,
      "longitude": 7.573478299999999,
      "viewport": {
        "northeast": {
          "lat": 12.88716052989272,
          "lng": 7.574828129892721
        },
        "southwest": {
          "lat": 12.88446087010728,
          "lng": 7.572128470107277
        }
      },
      "formatted_address": "VHXR+MHM, 820102, Batagarawa, Nigeria",
      "google_map_url": "https://maps.google.com?q=12.8858107,7.573478299999999",
      "google_place_id": "ChIJ7azaoYU6sBERvhyNTxP4GxQ"
    }
  },
  {
    "id": "100967",
    "name": "RUGA FARI 'A' / R/FARI PRI.SCHOOL",
    "registration_area_id": "5138",
    "precise_location": null,
    "abbreviation": "003",
    "units": "003",
    "delimitation": "20/29/11/003",
    "remark": "EXISTING PU",
    "ward_id": "5138",
    "ward_name": "KURKUJAN 'B'",
    "local_government_id": "442",
    "local_government_name": "MUSAWA",
    "state_id": "20",
    "state_name": "KATSINA",
    "location": null
  },
  {
    "id": "100968",
    "name": "RUGA FARI 'B' / R/FARI PRI.SCHOOL",
    "registration_area_id": "5138",
    "precise_location": null,
    "abbreviation": "004",
    "units": "004",
    "delimitation": "20/29/11/004",
    "remark": "EXISTING PU",
    "ward_id": "5138",
    "ward_name": "KURKUJAN 'B'",
    "local_government_id": "442",
    "local_government_name": "MUSAWA",
    "state_id": "20",
    "state_name": "KATSINA",
    "location": null
  },
  {
    "id": "100969",
    "name": "FULALAWA PRI.SCHOOL",
    "registration_area_id": "5138",
    "precise_location": null,
    "abbreviation": "005",
    "units": "005",
    "delimitation": "20/29/11/005",
    "remark": "EXISTING PU",
    "ward_id": "5138",
    "ward_name": "KURKUJAN 'B'",
    "local_government_id": "442",
    "local_government_name": "MUSAWA",
    "state_id": "20",
    "state_name": "KATSINA",
    "location": {
      "latitude": 12.1705117,
      "longitude": 7.7726833,
      "viewport": {
        "northeast": {
          "lat": 12.17186237989272,
          "lng": 7.774031379892722
        },
        "southwest": {
          "lat": 12.16916272010728,
          "lng": 7.771331720107278
        }
      },
      "formatted_address": "5QCF+633 Yashi Road, Malunfashi, 833103, Jikamshi, Nigeria",
      "google_map_url": "https://maps.google.com?q=12.1705117,7.7726833",
      "google_place_id": "ChIJ1ZcRo5fisRERG1wdU-k-wO0"
    }
  },
  {
    "id": "100970",
    "name": "TAMFAI  / KANKWANA",
    "registration_area_id": "5138",
    "precise_location": null,
    "abbreviation": "006",
    "units": "006",
    "delimitation": "20/29/11/006",
    "remark": "EXISTING PU",
    "ward_id": "5138",
    "ward_name": "KURKUJAN 'B'",
    "local_government_id": "442",
    "local_government_name": "MUSAWA",
    "state_id": "20",
    "state_name": "KATSINA",
    "location": {
      "latitude": 12.1398241,
      "longitude": 7.6685617,
      "viewport": {
        "northeast": {
          "lat": 12.14117482989272,
          "lng": 7.669841429892723
        },
        "southwest": {
          "lat": 12.13847517010728,
          "lng": 7.667141770107279
        }
      },
      "formatted_address": "4MQ9+WCF, 833103, Katsina, Nigeria",
      "google_map_url": "https://maps.google.com?q=12.1398241,7.6685617",
      "google_place_id": "ChIJxzxN_jD7sRERkBTR75RI3JQ"
    }
  },
  {
    "id": "100971",
    "name": "KARACHI GABAS II  / MARARBA PRI.SCHOOL",
    "registration_area_id": "5138",
    "precise_location": null,
    "abbreviation": "007",
    "units": "007",
    "delimitation": "20/29/11/007",
    "remark": "EXISTING PU",
    "ward_id": "5138",
    "ward_name": "KURKUJAN 'B'",
    "local_government_id": "442",
    "local_government_name": "MUSAWA",
    "state_id": "20",
    "state_name": "KATSINA",
    "location": {
      "latitude": 12.9916195,
      "longitude": 7.656489400000001,
      "viewport": {
        "northeast": {
          "lat": 12.99287382989272,
          "lng": 7.657842079892721
        },
        "southwest": {
          "lat": 12.99017417010728,
          "lng": 7.655142420107278
        }
      },
      "formatted_address": "No 6, beside Maternal and Child Clinic, Kwado, Katsina, Nigeria",
      "google_map_url": "https://maps.google.com?q=12.9916195,7.656489400000001",
      "google_place_id": "ChIJsRnXwu4jsBERZLi6Gq5mspg"
    }
  },
  {
    "id": "100972",
    "name": "KARACHI-GABAS I /MARARRABA PRI SCH",
    "registration_area_id": "5138",
    "precise_location": null,
    "abbreviation": "008",
    "units": "008",
    "delimitation": "20/29/11/008",
    "remark": "NEW PU",
    "ward_id": "5138",
    "ward_name": "KURKUJAN 'B'",
    "local_government_id": "442",
    "local_government_name": "MUSAWA",
    "state_id": "20",
    "state_name": "KATSINA",
    "location": {
      "latitude": 12.9815608,
      "longitude": 7.622266499999999,
      "viewport": {
        "northeast": {
          "lat": 12.98290287989272,
          "lng": 7.62356807989272
        },
        "southwest": {
          "lat": 12.98020322010728,
          "lng": 7.620868420107276
        }
      },
      "formatted_address": "XJJC+JWC, 820101, Katsina, Nigeria",
      "google_map_url": "https://maps.google.com?q=12.9815608,7.622266499999999",
      "google_place_id": "ChIJyyfYRtMjsBER5uM2_vL0rSI"
    }
  },
  {
    "id": "100973",
    "name": "KARACHI GABAS, MARARRABA PRI SCH.",
    "registration_area_id": "5138",
    "precise_location": null,
    "abbreviation": "009",
    "units": "009",
    "delimitation": "20/29/11/009",
    "remark": "NEW PU",
    "ward_id": "5138",
    "ward_name": "KURKUJAN 'B'",
    "local_government_id": "442",
    "local_government_name": "MUSAWA",
    "state_id": "20",
    "state_name": "KATSINA",
    "location": {
      "latitude": 12.9815608,
      "longitude": 7.622266499999999,
      "viewport": {
        "northeast": {
          "lat": 12.98290287989272,
          "lng": 7.62356807989272
        },
        "southwest": {
          "lat": 12.98020322010728,
          "lng": 7.620868420107276
        }
      },
      "formatted_address": "XJJC+JWC, 820101, Katsina, Nigeria",
      "google_map_url": "https://maps.google.com?q=12.9815608,7.622266499999999",
      "google_place_id": "ChIJyyfYRtMjsBER5uM2_vL0rSI"
    }
  },
  {
    "id": "100974",
    "name": "KARACHI GABAS II /MARARRABA PRI SCH",
    "registration_area_id": "5138",
    "precise_location": null,
    "abbreviation": "010",
    "units": "010",
    "delimitation": "20/29/11/010",
    "remark": "NEW PU",
    "ward_id": "5138",
    "ward_name": "KURKUJAN 'B'",
    "local_government_id": "442",
    "local_government_name": "MUSAWA",
    "state_id": "20",
    "state_name": "KATSINA",
    "location": null
  }
]