[
  {
    "id": "335968",
    "name": "EMI - GABI",
    "registration_area_id": "17055",
    "precise_location": null,
    "abbreviation": "001",
    "units": "001",
    "delimitation": "26/07/01/001",
    "remark": "EXISTING PU",
    "ward_id": "17055",
    "ward_name": "ENAGI",
    "local_government_id": "543",
    "local_government_name": "EDATTI",
    "state_id": "26",
    "state_name": "NIGER",
    "location": {
      "latitude": 38.958068,
      "longitude": -77.35951,
      "viewport": {
        "northeast": {
          "lat": 38.95933217989273,
          "lng": -77.35807402010728
        },
        "southwest": {
          "lat": 38.95663252010728,
          "lng": -77.36077367989272
        }
      },
      "formatted_address": "11950 Democracy Dr, Reston, VA 20190, United States",
      "google_map_url": "https://maps.google.com?q=38.958068,-77.35951",
      "google_place_id": "ChIJH3W1zh5ItokRVnlvBagmWww"
    }
  },
  {
    "id": "335969",
    "name": "NDAGBE",
    "registration_area_id": "17055",
    "precise_location": null,
    "abbreviation": "002",
    "units": "002",
    "delimitation": "26/07/01/002",
    "remark": "EXISTING PU",
    "ward_id": "17055",
    "ward_name": "ENAGI",
    "local_government_id": "543",
    "local_government_name": "EDATTI",
    "state_id": "26",
    "state_name": "NIGER",
    "location": {
      "latitude": 9.1283621,
      "longitude": 5.5433542,
      "viewport": {
        "northeast": {
          "lat": 9.1392341,
          "lng": 5.550528
        },
        "southwest": {
          "lat": 9.120618900000002,
          "lng": 5.534252899999999
        }
      },
      "formatted_address": "913102, Enagi, Nigeria",
      "google_map_url": "https://maps.google.com?q=9.1283621,5.5433542",
      "google_place_id": "ChIJS8NZBjuISRARb3XmBXye4OU"
    }
  },
  {
    "id": "335970",
    "name": "EMI - BIMA",
    "registration_area_id": "17055",
    "precise_location": null,
    "abbreviation": "003",
    "units": "003",
    "delimitation": "26/07/01/003",
    "remark": "EXISTING PU",
    "ward_id": "17055",
    "ward_name": "ENAGI",
    "local_government_id": "543",
    "local_government_name": "EDATTI",
    "state_id": "26",
    "state_name": "NIGER",
    "location": null
  },
  {
    "id": "335971",
    "name": "SAFO",
    "registration_area_id": "17055",
    "precise_location": null,
    "abbreviation": "004",
    "units": "004",
    "delimitation": "26/07/01/004",
    "remark": "EXISTING PU",
    "ward_id": "17055",
    "ward_name": "ENAGI",
    "local_government_id": "543",
    "local_government_name": "EDATTI",
    "state_id": "26",
    "state_name": "NIGER",
    "location": null
  },
  {
    "id": "335972",
    "name": "BUKUGI",
    "registration_area_id": "17055",
    "precise_location": null,
    "abbreviation": "005",
    "units": "005",
    "delimitation": "26/07/01/005",
    "remark": "EXISTING PU",
    "ward_id": "17055",
    "ward_name": "ENAGI",
    "local_government_id": "543",
    "local_government_name": "EDATTI",
    "state_id": "26",
    "state_name": "NIGER",
    "location": {
      "latitude": 9.1283621,
      "longitude": 5.5433542,
      "viewport": {
        "northeast": {
          "lat": 9.1392341,
          "lng": 5.550528
        },
        "southwest": {
          "lat": 9.120618900000002,
          "lng": 5.534252899999999
        }
      },
      "formatted_address": "913102, Enagi, Nigeria",
      "google_map_url": "https://maps.google.com?q=9.1283621,5.5433542",
      "google_place_id": "ChIJS8NZBjuISRARb3XmBXye4OU"
    }
  },
  {
    "id": "335973",
    "name": "NAGYA",
    "registration_area_id": "17055",
    "precise_location": null,
    "abbreviation": "006",
    "units": "006",
    "delimitation": "26/07/01/006",
    "remark": "EXISTING PU",
    "ward_id": "17055",
    "ward_name": "ENAGI",
    "local_government_id": "543",
    "local_government_name": "EDATTI",
    "state_id": "26",
    "state_name": "NIGER",
    "location": {
      "latitude": 9.1283621,
      "longitude": 5.5433542,
      "viewport": {
        "northeast": {
          "lat": 9.1392341,
          "lng": 5.550528
        },
        "southwest": {
          "lat": 9.120618900000002,
          "lng": 5.534252899999999
        }
      },
      "formatted_address": "913102, Enagi, Nigeria",
      "google_map_url": "https://maps.google.com?q=9.1283621,5.5433542",
      "google_place_id": "ChIJS8NZBjuISRARb3XmBXye4OU"
    }
  },
  {
    "id": "335974",
    "name": "GOGATA",
    "registration_area_id": "17055",
    "precise_location": null,
    "abbreviation": "007",
    "units": "007",
    "delimitation": "26/07/01/007",
    "remark": "EXISTING PU",
    "ward_id": "17055",
    "ward_name": "ENAGI",
    "local_government_id": "543",
    "local_government_name": "EDATTI",
    "state_id": "26",
    "state_name": "NIGER",
    "location": null
  },
  {
    "id": "335975",
    "name": "EMI-SWANSUN",
    "registration_area_id": "17055",
    "precise_location": null,
    "abbreviation": "008",
    "units": "008",
    "delimitation": "26/07/01/008",
    "remark": "EXISTING PU",
    "ward_id": "17055",
    "ward_name": "ENAGI",
    "local_government_id": "543",
    "local_government_name": "EDATTI",
    "state_id": "26",
    "state_name": "NIGER",
    "location": null
  },
  {
    "id": "335976",
    "name": "WADATA",
    "registration_area_id": "17055",
    "precise_location": null,
    "abbreviation": "009",
    "units": "009",
    "delimitation": "26/07/01/009",
    "remark": "EXISTING PU",
    "ward_id": "17055",
    "ward_name": "ENAGI",
    "local_government_id": "543",
    "local_government_name": "EDATTI",
    "state_id": "26",
    "state_name": "NIGER",
    "location": null
  },
  {
    "id": "335977",
    "name": "DIKO - TAKO",
    "registration_area_id": "17055",
    "precise_location": null,
    "abbreviation": "011",
    "units": "011",
    "delimitation": "26/07/01/011",
    "remark": "EXISTING PU",
    "ward_id": "17055",
    "ward_name": "ENAGI",
    "local_government_id": "543",
    "local_government_name": "EDATTI",
    "state_id": "26",
    "state_name": "NIGER",
    "location": {
      "latitude": 9.268484800000001,
      "longitude": 7.2046229,
      "viewport": {
        "northeast": {
          "lat": 9.276035,
          "lng": 7.217692
        },
        "southwest": {
          "lat": 9.261035,
          "lng": 7.183269
        }
      },
      "formatted_address": "Diko, Nigeria",
      "google_map_url": "https://maps.google.com?q=9.268484800000001,7.2046229",
      "google_place_id": "ChIJsa91qb7RTRAR8cE8WCDSbwU"
    }
  },
  {
    "id": "335978",
    "name": "NWOGI",
    "registration_area_id": "17055",
    "precise_location": null,
    "abbreviation": "012",
    "units": "012",
    "delimitation": "26/07/01/012",
    "remark": "EXISTING PU",
    "ward_id": "17055",
    "ward_name": "ENAGI",
    "local_government_id": "543",
    "local_government_name": "EDATTI",
    "state_id": "26",
    "state_name": "NIGER",
    "location": {
      "latitude": 9.1283621,
      "longitude": 5.5433542,
      "viewport": {
        "northeast": {
          "lat": 9.1392341,
          "lng": 5.550528
        },
        "southwest": {
          "lat": 9.120618900000002,
          "lng": 5.534252899999999
        }
      },
      "formatted_address": "913102, Enagi, Nigeria",
      "google_map_url": "https://maps.google.com?q=9.1283621,5.5433542",
      "google_place_id": "ChIJS8NZBjuISRARb3XmBXye4OU"
    }
  },
  {
    "id": "335979",
    "name": "EFU-UMARUZAN",
    "registration_area_id": "17055",
    "precise_location": null,
    "abbreviation": "013",
    "units": "013",
    "delimitation": "26/07/01/013",
    "remark": "EXISTING PU",
    "ward_id": "17055",
    "ward_name": "ENAGI",
    "local_government_id": "543",
    "local_government_name": "EDATTI",
    "state_id": "26",
    "state_name": "NIGER",
    "location": {
      "latitude": 29.8023814,
      "longitude": 72.8804088,
      "viewport": {
        "northeast": {
          "lat": 29.80372827989272,
          "lng": 72.88174142989271
        },
        "southwest": {
          "lat": 29.80102862010727,
          "lng": 72.87904177010726
        }
      },
      "formatted_address": "13 Gajyani RoadØŒ Chishtian, Bahawalnagar, Punjab, Pakistan",
      "google_map_url": "https://maps.google.com?q=29.8023814,72.8804088",
      "google_place_id": "ChIJq0UARskHPTkRAu535XKKvbI"
    }
  },
  {
    "id": "335980",
    "name": "NTIFIN GI",
    "registration_area_id": "17055",
    "precise_location": null,
    "abbreviation": "014",
    "units": "014",
    "delimitation": "26/07/01/014",
    "remark": "EXISTING PU",
    "ward_id": "17055",
    "ward_name": "ENAGI",
    "local_government_id": "543",
    "local_government_name": "EDATTI",
    "state_id": "26",
    "state_name": "NIGER",
    "location": null
  },
  {
    "id": "335981",
    "name": "M/GIWA",
    "registration_area_id": "17055",
    "precise_location": null,
    "abbreviation": "015",
    "units": "015",
    "delimitation": "26/07/01/015",
    "remark": "EXISTING PU",
    "ward_id": "17055",
    "ward_name": "ENAGI",
    "local_government_id": "543",
    "local_government_name": "EDATTI",
    "state_id": "26",
    "state_name": "NIGER",
    "location": null
  },
  {
    "id": "335982",
    "name": "GORIBATA",
    "registration_area_id": "17055",
    "precise_location": null,
    "abbreviation": "016",
    "units": "016",
    "delimitation": "26/07/01/016",
    "remark": "EXISTING PU",
    "ward_id": "17055",
    "ward_name": "ENAGI",
    "local_government_id": "543",
    "local_government_name": "EDATTI",
    "state_id": "26",
    "state_name": "NIGER",
    "location": null
  },
  {
    "id": "335983",
    "name": "KUSODU",
    "registration_area_id": "17055",
    "precise_location": null,
    "abbreviation": "017",
    "units": "017",
    "delimitation": "26/07/01/017",
    "remark": "EXISTING PU",
    "ward_id": "17055",
    "ward_name": "ENAGI",
    "local_government_id": "543",
    "local_government_name": "EDATTI",
    "state_id": "26",
    "state_name": "NIGER",
    "location": {
      "latitude": 9.0771566,
      "longitude": 6.0274185,
      "viewport": {
        "northeast": {
          "lat": 9.078683579892722,
          "lng": 6.028643879892721
        },
        "southwest": {
          "lat": 9.075983920107278,
          "lng": 6.025944220107277
        }
      },
      "formatted_address": "32GG+VX7, 912211, Bida, Nigeria",
      "google_map_url": "https://maps.google.com?q=9.0771566,6.0274185",
      "google_place_id": "ChIJEcBf6YJhSRAR3s1Rqy1MhW0"
    }
  },
  {
    "id": "335984",
    "name": "EDOGI-LUKO PRIMARY SCHOOL",
    "registration_area_id": "17055",
    "precise_location": null,
    "abbreviation": "018",
    "units": "018",
    "delimitation": "26/07/01/018",
    "remark": "NEW PU",
    "ward_id": "17055",
    "ward_name": "ENAGI",
    "local_government_id": "543",
    "local_government_name": "EDATTI",
    "state_id": "26",
    "state_name": "NIGER",
    "location": {
      "latitude": 9.127475,
      "longitude": 5.544002000000001,
      "viewport": {
        "northeast": {
          "lat": 9.128834929892722,
          "lng": 5.545336579892722
        },
        "southwest": {
          "lat": 9.126135270107278,
          "lng": 5.542636920107278
        }
      },
      "formatted_address": "4GGV+XJR, 913102, Enagi, Nigeria",
      "google_map_url": "https://maps.google.com?q=9.127475,5.544002000000001",
      "google_place_id": "ChIJlViH7xSISRARLF8IVlJOTcU"
    }
  }
]