[
  {
    "id": "338321",
    "name": "TATIKO  I",
    "registration_area_id": "17194",
    "precise_location": null,
    "abbreviation": "001",
    "units": "001",
    "delimitation": "26/19/11/001",
    "remark": "EXISTING PU",
    "ward_id": "17194",
    "ward_name": "TUTUNGO JEDNA",
    "local_government_id": "555",
    "local_government_name": "PAIKORO",
    "state_id": "26",
    "state_name": "NIGER",
    "location": null
  },
  {
    "id": "338322",
    "name": "PAGGO",
    "registration_area_id": "17194",
    "precise_location": null,
    "abbreviation": "002",
    "units": "002",
    "delimitation": "26/19/11/002",
    "remark": "EXISTING PU",
    "ward_id": "17194",
    "ward_name": "TUTUNGO JEDNA",
    "local_government_id": "555",
    "local_government_name": "PAIKORO",
    "state_id": "26",
    "state_name": "NIGER",
    "location": {
      "latitude": 9.4966069,
      "longitude": 6.6133622,
      "viewport": {
        "northeast": {
          "lat": 9.498148029892722,
          "lng": 6.614597979892721
        },
        "southwest": {
          "lat": 9.495448370107278,
          "lng": 6.611898320107278
        }
      },
      "formatted_address": "6FX8FJW7+J9H TUTUGO. WARD, PAGGO, 920103, Bali, Nigeria",
      "google_map_url": "https://maps.google.com?q=9.4966069,6.6133622",
      "google_place_id": "ChIJb4oX30FtTBARhT1X7tYVioA"
    }
  },
  {
    "id": "338323",
    "name": "KARBWASHAKA",
    "registration_area_id": "17194",
    "precise_location": null,
    "abbreviation": "003",
    "units": "003",
    "delimitation": "26/19/11/003",
    "remark": "EXISTING PU",
    "ward_id": "17194",
    "ward_name": "TUTUNGO JEDNA",
    "local_government_id": "555",
    "local_government_name": "PAIKORO",
    "state_id": "26",
    "state_name": "NIGER",
    "location": {
      "latitude": 9.45885,
      "longitude": 6.568943,
      "viewport": {
        "northeast": {
          "lat": 9.46020942989272,
          "lng": 6.570297279892721
        },
        "southwest": {
          "lat": 9.457509770107276,
          "lng": 6.567597620107278
        }
      },
      "formatted_address": "FH59+GHP, 920103, Butu, Nigeria",
      "google_map_url": "https://maps.google.com?q=9.45885,6.568943",
      "google_place_id": "ChIJE4ZiymcNTBARkCEKopZcQr4"
    }
  },
  {
    "id": "338324",
    "name": "TUTUNGO",
    "registration_area_id": "17194",
    "precise_location": null,
    "abbreviation": "004",
    "units": "004",
    "delimitation": "26/19/11/004",
    "remark": "EXISTING PU",
    "ward_id": "17194",
    "ward_name": "TUTUNGO JEDNA",
    "local_government_id": "555",
    "local_government_name": "PAIKORO",
    "state_id": "26",
    "state_name": "NIGER",
    "location": {
      "latitude": 9.5050213,
      "longitude": 6.5860132,
      "viewport": {
        "northeast": {
          "lat": 9.5060351,
          "lng": 6.587158
        },
        "southwest": {
          "lat": 9.4943691,
          "lng": 6.577991099999999
        }
      },
      "formatted_address": "920103, Tutungo, Nigeria",
      "google_map_url": "https://maps.google.com?q=9.5050213,6.5860132",
      "google_place_id": "ChIJJ6U8tF5tTBAR-yop_65-xao"
    }
  },
  {
    "id": "338325",
    "name": "JEDNA",
    "registration_area_id": "17194",
    "precise_location": null,
    "abbreviation": "005",
    "units": "005",
    "delimitation": "26/19/11/005",
    "remark": "EXISTING PU",
    "ward_id": "17194",
    "ward_name": "TUTUNGO JEDNA",
    "local_government_id": "555",
    "local_government_name": "PAIKORO",
    "state_id": "26",
    "state_name": "NIGER",
    "location": {
      "latitude": 9.3172508,
      "longitude": 6.586680599999999,
      "viewport": {
        "northeast": {
          "lat": 9.3240911,
          "lng": 6.5877129
        },
        "southwest": {
          "lat": 9.316590999999999,
          "lng": 6.57688
        }
      },
      "formatted_address": "920103, Jedna, Nigeria",
      "google_map_url": "https://maps.google.com?q=9.3172508,6.586680599999999",
      "google_place_id": "ChIJGzk49RwQTBARrHTv1_7DvJw"
    }
  },
  {
    "id": "338326",
    "name": "ANINIGI",
    "registration_area_id": "17194",
    "precise_location": null,
    "abbreviation": "006",
    "units": "006",
    "delimitation": "26/19/11/006",
    "remark": "EXISTING PU",
    "ward_id": "17194",
    "ward_name": "TUTUNGO JEDNA",
    "local_government_id": "555",
    "local_government_name": "PAIKORO",
    "state_id": "26",
    "state_name": "NIGER",
    "location": {
      "latitude": 9.37426,
      "longitude": 6.507517,
      "viewport": {
        "northeast": {
          "lat": 9.375610129892722,
          "lng": 6.508868179892722
        },
        "southwest": {
          "lat": 9.372910470107279,
          "lng": 6.506168520107278
        }
      },
      "formatted_address": "6FX89GF5+P22, JEDNA TUTUNGO, 920103, Anini, Nigeria",
      "google_map_url": "https://maps.google.com?q=9.37426,6.507517",
      "google_place_id": "ChIJbVQsNG4PTBAR9qb1tpZ61Yk"
    }
  },
  {
    "id": "338327",
    "name": "FICHE",
    "registration_area_id": "17194",
    "precise_location": null,
    "abbreviation": "007",
    "units": "007",
    "delimitation": "26/19/11/007",
    "remark": "EXISTING PU",
    "ward_id": "17194",
    "ward_name": "TUTUNGO JEDNA",
    "local_government_id": "555",
    "local_government_name": "PAIKORO",
    "state_id": "26",
    "state_name": "NIGER",
    "location": {
      "latitude": 9.367794199999999,
      "longitude": 6.5481498,
      "viewport": {
        "northeast": {
          "lat": 9.369051829892722,
          "lng": 6.549658
        },
        "southwest": {
          "lat": 9.366352170107278,
          "lng": 6.546323999999999
        }
      },
      "formatted_address": "920103, Fiche, Nigeria",
      "google_map_url": "https://maps.google.com?q=9.367794199999999,6.5481498",
      "google_place_id": "ChIJL64fnEQOTBARgn_13Z3wH7Y"
    }
  },
  {
    "id": "338328",
    "name": "GABADNA",
    "registration_area_id": "17194",
    "precise_location": null,
    "abbreviation": "008",
    "units": "008",
    "delimitation": "26/19/11/008",
    "remark": "EXISTING PU",
    "ward_id": "17194",
    "ward_name": "TUTUNGO JEDNA",
    "local_government_id": "555",
    "local_government_name": "PAIKORO",
    "state_id": "26",
    "state_name": "NIGER",
    "location": {
      "latitude": 9.3576277,
      "longitude": 6.606433699999999,
      "viewport": {
        "northeast": {
          "lat": 9.358984829892723,
          "lng": 6.607793629892722
        },
        "southwest": {
          "lat": 9.35628517010728,
          "lng": 6.605093970107278
        }
      },
      "formatted_address": "6FX89J54+3H8, GABADNA TUTUNGO, 920103, Gabada, Nigeria",
      "google_map_url": "https://maps.google.com?q=9.3576277,6.606433699999999",
      "google_place_id": "ChIJhV83PQ8RTBAR4Wkgor-weJU"
    }
  },
  {
    "id": "338329",
    "name": "BUTU",
    "registration_area_id": "17194",
    "precise_location": null,
    "abbreviation": "009",
    "units": "009",
    "delimitation": "26/19/11/009",
    "remark": "EXISTING PU",
    "ward_id": "17194",
    "ward_name": "TUTUNGO JEDNA",
    "local_government_id": "555",
    "local_government_name": "PAIKORO",
    "state_id": "26",
    "state_name": "NIGER",
    "location": {
      "latitude": 9.4229103,
      "longitude": 6.5520438,
      "viewport": {
        "northeast": {
          "lat": 9.424369,
          "lng": 6.5552131
        },
        "southwest": {
          "lat": 9.4193689,
          "lng": 6.549379999999999
        }
      },
      "formatted_address": "920103, Butu, Nigeria",
      "google_map_url": "https://maps.google.com?q=9.4229103,6.5520438",
      "google_place_id": "ChIJNzZKaccNTBARZ2UFqeXKcIw"
    }
  },
  {
    "id": "338330",
    "name": "DAGONDAGBE",
    "registration_area_id": "17194",
    "precise_location": null,
    "abbreviation": "010",
    "units": "010",
    "delimitation": "26/19/11/010",
    "remark": "EXISTING PU",
    "ward_id": "17194",
    "ward_name": "TUTUNGO JEDNA",
    "local_government_id": "555",
    "local_government_name": "PAIKORO",
    "state_id": "26",
    "state_name": "NIGER",
    "location": {
      "latitude": 13.5250367,
      "longitude": 2.0895933,
      "viewport": {
        "northeast": {
          "lat": 13.52629657989272,
          "lng": 2.090939829892723
        },
        "southwest": {
          "lat": 13.52359692010728,
          "lng": 2.088240170107278
        }
      },
      "formatted_address": "Niamey, Niger",
      "google_map_url": "https://maps.google.com?q=13.5250367,2.0895933",
      "google_place_id": "ChIJjdJcvo110BERnZb_0n956OA"
    }
  },
  {
    "id": "338331",
    "name": "SURUYI",
    "registration_area_id": "17194",
    "precise_location": null,
    "abbreviation": "011",
    "units": "011",
    "delimitation": "26/19/11/011",
    "remark": "EXISTING PU",
    "ward_id": "17194",
    "ward_name": "TUTUNGO JEDNA",
    "local_government_id": "555",
    "local_government_name": "PAIKORO",
    "state_id": "26",
    "state_name": "NIGER",
    "location": {
      "latitude": 9.472182,
      "longitude": 6.521317,
      "viewport": {
        "northeast": {
          "lat": 9.473531829892721,
          "lng": 6.522666829892722
        },
        "southwest": {
          "lat": 9.470832170107277,
          "lng": 6.519967170107278
        }
      },
      "formatted_address": "6FX8FGCC+VGG SURUYI JEDNA TUTUNGO, Guto, Nigeria",
      "google_map_url": "https://maps.google.com?q=9.472182,6.521317",
      "google_place_id": "ChIJLaRG174NTBARV7zFXKjDSq8"
    }
  },
  {
    "id": "338332",
    "name": "GIRGODNA",
    "registration_area_id": "17194",
    "precise_location": null,
    "abbreviation": "012",
    "units": "012",
    "delimitation": "26/19/11/012",
    "remark": "EXISTING PU",
    "ward_id": "17194",
    "ward_name": "TUTUNGO JEDNA",
    "local_government_id": "555",
    "local_government_name": "PAIKORO",
    "state_id": "26",
    "state_name": "NIGER",
    "location": {
      "latitude": 9.363864999999999,
      "longitude": 6.594817,
      "viewport": {
        "northeast": {
          "lat": 9.36467002989272,
          "lng": 6.596802729892723
        },
        "southwest": {
          "lat": 9.361970370107276,
          "lng": 6.594103070107279
        }
      },
      "formatted_address": "6FX89H7V+GWW GIRGODNA TUTUNGO, Gabada, Nigeria",
      "google_map_url": "https://maps.google.com?q=9.363864999999999,6.594817",
      "google_place_id": "ChIJ98CEGFMRTBARkvgWI3vt-z0"
    }
  },
  {
    "id": "338333",
    "name": "DANU",
    "registration_area_id": "17194",
    "precise_location": null,
    "abbreviation": "013",
    "units": "013",
    "delimitation": "26/19/11/013",
    "remark": "EXISTING PU",
    "ward_id": "17194",
    "ward_name": "TUTUNGO JEDNA",
    "local_government_id": "555",
    "local_government_name": "PAIKORO",
    "state_id": "26",
    "state_name": "NIGER",
    "location": {
      "latitude": 9.5847372,
      "longitude": 6.54608,
      "viewport": {
        "northeast": {
          "lat": 9.58609162989272,
          "lng": 6.547436029892722
        },
        "southwest": {
          "lat": 9.583391970107277,
          "lng": 6.544736370107278
        }
      },
      "formatted_address": "HGMW+WC6, 142 Bawa Paiko Rd, 920101, Minna, Nigeria",
      "google_map_url": "https://maps.google.com?q=9.5847372,6.54608",
      "google_place_id": "ChIJH6tcB_JyTBAR5vVy0B2AFqA"
    }
  },
  {
    "id": "338334",
    "name": "KPANUWA",
    "registration_area_id": "17194",
    "precise_location": null,
    "abbreviation": "014",
    "units": "014",
    "delimitation": "26/19/11/014",
    "remark": "EXISTING PU",
    "ward_id": "17194",
    "ward_name": "TUTUNGO JEDNA",
    "local_government_id": "555",
    "local_government_name": "PAIKORO",
    "state_id": "26",
    "state_name": "NIGER",
    "location": null
  },
  {
    "id": "338335",
    "name": "FICHE KUCHI",
    "registration_area_id": "17194",
    "precise_location": null,
    "abbreviation": "015",
    "units": "015",
    "delimitation": "26/19/11/015",
    "remark": "EXISTING PU",
    "ward_id": "17194",
    "ward_name": "TUTUNGO JEDNA",
    "local_government_id": "555",
    "local_government_name": "PAIKORO",
    "state_id": "26",
    "state_name": "NIGER",
    "location": {
      "latitude": 9.3492,
      "longitude": 6.5122,
      "viewport": {
        "northeast": {
          "lat": 9.350549829892723,
          "lng": 6.513549829892724
        },
        "southwest": {
          "lat": 9.347850170107279,
          "lng": 6.51085017010728
        }
      },
      "formatted_address": "8GX6+MVG, 920103, Fiche, Nigeria",
      "google_map_url": "https://maps.google.com?q=9.3492,6.5122",
      "google_place_id": "ChIJo0kRrSEPTBAROFqE8jXQV7I"
    }
  },
  {
    "id": "338336",
    "name": "JITTA",
    "registration_area_id": "17194",
    "precise_location": null,
    "abbreviation": "016",
    "units": "016",
    "delimitation": "26/19/11/016",
    "remark": "EXISTING PU",
    "ward_id": "17194",
    "ward_name": "TUTUNGO JEDNA",
    "local_government_id": "555",
    "local_government_name": "PAIKORO",
    "state_id": "26",
    "state_name": "NIGER",
    "location": {
      "latitude": 9.341286,
      "longitude": 6.590354,
      "viewport": {
        "northeast": {
          "lat": 9.342685529892721,
          "lng": 6.591720129892721
        },
        "southwest": {
          "lat": 9.339985870107277,
          "lng": 6.589020470107277
        }
      },
      "formatted_address": "6FX88HRR+G49 JITTA TUTUNGO, Gabada, Nigeria",
      "google_map_url": "https://maps.google.com?q=9.341286,6.590354",
      "google_place_id": "ChIJQ014_W4RTBARPLhu_yaBPzA"
    }
  },
  {
    "id": "338337",
    "name": "TATIKO  II",
    "registration_area_id": "17194",
    "precise_location": null,
    "abbreviation": "017",
    "units": "017",
    "delimitation": "26/19/11/017",
    "remark": "EXISTING PU",
    "ward_id": "17194",
    "ward_name": "TUTUNGO JEDNA",
    "local_government_id": "555",
    "local_government_name": "PAIKORO",
    "state_id": "26",
    "state_name": "NIGER",
    "location": null
  },
  {
    "id": "338338",
    "name": "PONYI",
    "registration_area_id": "17194",
    "precise_location": null,
    "abbreviation": "018",
    "units": "018",
    "delimitation": "26/19/11/018",
    "remark": "NEW PU",
    "ward_id": "17194",
    "ward_name": "TUTUNGO JEDNA",
    "local_government_id": "555",
    "local_government_name": "PAIKORO",
    "state_id": "26",
    "state_name": "NIGER",
    "location": {
      "latitude": 9.290883200000001,
      "longitude": 6.5857268,
      "viewport": {
        "northeast": {
          "lat": 9.292239779892723,
          "lng": 6.587120479892722
        },
        "southwest": {
          "lat": 9.28954012010728,
          "lng": 6.584420820107278
        }
      },
      "formatted_address": "7HRP+975, Lapai-Paiko Road, 920103, Takumpara, Nigeria",
      "google_map_url": "https://maps.google.com?q=9.290883200000001,6.5857268",
      "google_place_id": "ChIJKQP9hLkbTBARunW0PJwwPOw"
    }
  },
  {
    "id": "338339",
    "name": "TUNGAN MAKU",
    "registration_area_id": "17194",
    "precise_location": null,
    "abbreviation": "019",
    "units": "019",
    "delimitation": "26/19/11/019",
    "remark": "NEW PU",
    "ward_id": "17194",
    "ward_name": "TUTUNGO JEDNA",
    "local_government_id": "555",
    "local_government_name": "PAIKORO",
    "state_id": "26",
    "state_name": "NIGER",
    "location": {
      "latitude": 9.489333,
      "longitude": 6.629623,
      "viewport": {
        "northeast": {
          "lat": 9.492147,
          "lng": 6.630306079892721
        },
        "southwest": {
          "lat": 9.488395000000004,
          "lng": 6.627606420107277
        }
      },
      "formatted_address": "6FX8FJQH+PRQ Tungan maku, Bali, Nigeria",
      "google_map_url": "https://maps.google.com?q=9.489333,6.629623",
      "google_place_id": "ChIJ28jsA75tTBARI53ptNtCV9M"
    }
  },
  {
    "id": "338340",
    "name": "DOWA PRIMARY, SCHOOL",
    "registration_area_id": "17194",
    "precise_location": null,
    "abbreviation": "020",
    "units": "020",
    "delimitation": "26/19/11/020",
    "remark": "NEW PU",
    "ward_id": "17194",
    "ward_name": "TUTUNGO JEDNA",
    "local_government_id": "555",
    "local_government_name": "PAIKORO",
    "state_id": "26",
    "state_name": "NIGER",
    "location": {
      "latitude": 9.473122,
      "longitude": 6.570996999999999,
      "viewport": {
        "northeast": {
          "lat": 9.474545629892722,
          "lng": 6.572707879892722
        },
        "southwest": {
          "lat": 9.471845970107278,
          "lng": 6.570008220107278
        }
      },
      "formatted_address": "6FX8FHFC+69X DOWA JEDNA TUTUNGO, 920103, Minna, Nigeria",
      "google_map_url": "https://maps.google.com?q=9.473122,6.570996999999999",
      "google_place_id": "ChIJUX94kgkNTBAR3s-GDoq47C8"
    }
  },
  {
    "id": "338341",
    "name": "TUNGA AWUJE",
    "registration_area_id": "17194",
    "precise_location": null,
    "abbreviation": "021",
    "units": "021",
    "delimitation": "26/19/11/021",
    "remark": "NEW PU",
    "ward_id": "17194",
    "ward_name": "TUTUNGO JEDNA",
    "local_government_id": "555",
    "local_government_name": "PAIKORO",
    "state_id": "26",
    "state_name": "NIGER",
    "location": {
      "latitude": 9.5918055,
      "longitude": 6.554353499999999,
      "viewport": {
        "northeast": {
          "lat": 9.593243179892722,
          "lng": 6.555792979892722
        },
        "southwest": {
          "lat": 9.590543520107278,
          "lng": 6.553093320107278
        }
      },
      "formatted_address": "HHR3+PP3, new Tunga primary school Tunga, Minna, Nigeria",
      "google_map_url": "https://maps.google.com?q=9.5918055,6.554353499999999",
      "google_place_id": "ChIJq6qqqpVxTBARQxeOBG6CcJo"
    }
  },
  {
    "id": "338342",
    "name": "KOROKPA",
    "registration_area_id": "17194",
    "precise_location": null,
    "abbreviation": "022",
    "units": "022",
    "delimitation": "26/19/11/022",
    "remark": "NEW PU",
    "ward_id": "17194",
    "ward_name": "TUTUNGO JEDNA",
    "local_government_id": "555",
    "local_government_name": "PAIKORO",
    "state_id": "26",
    "state_name": "NIGER",
    "location": {
      "latitude": 9.5308801,
      "longitude": 6.5765063,
      "viewport": {
        "northeast": {
          "lat": 9.53232372989272,
          "lng": 6.577796529892721
        },
        "southwest": {
          "lat": 9.529624070107277,
          "lng": 6.575096870107277
        }
      },
      "formatted_address": "6FX8GHJG+9H2 KORPKPA TUTUGO, Minna, Nigeria",
      "google_map_url": "https://maps.google.com?q=9.5308801,6.5765063",
      "google_place_id": "ChIJk58aBWVzTBARFw8mIVGOvuo"
    }
  },
  {
    "id": "338343",
    "name": "ZAJE",
    "registration_area_id": "17194",
    "precise_location": null,
    "abbreviation": "023",
    "units": "023",
    "delimitation": "26/19/11/023",
    "remark": "NEW PU",
    "ward_id": "17194",
    "ward_name": "TUTUNGO JEDNA",
    "local_government_id": "555",
    "local_government_name": "PAIKORO",
    "state_id": "26",
    "state_name": "NIGER",
    "location": {
      "latitude": 9.374909299999999,
      "longitude": 6.508309199999999,
      "viewport": {
        "northeast": {
          "lat": 9.3774241,
          "lng": 6.5102131
        },
        "southwest": {
          "lat": 9.370201999999999,
          "lng": 6.505491000000001
        }
      },
      "formatted_address": "Zaje, Nigeria",
      "google_map_url": "https://maps.google.com?q=9.374909299999999,6.508309199999999",
      "google_place_id": "ChIJw-A5XMcOTBARAs2DTAMtyPs"
    }
  },
  {
    "id": "338344",
    "name": "GBATA GURUKU",
    "registration_area_id": "17194",
    "precise_location": null,
    "abbreviation": "024",
    "units": "024",
    "delimitation": "26/19/11/024",
    "remark": "NEW PU",
    "ward_id": "17194",
    "ward_name": "TUTUNGO JEDNA",
    "local_government_id": "555",
    "local_government_name": "PAIKORO",
    "state_id": "26",
    "state_name": "NIGER",
    "location": {
      "latitude": 9.644313799999999,
      "longitude": 6.524368,
      "viewport": {
        "northeast": {
          "lat": 9.645679829892721,
          "lng": 6.525765079892722
        },
        "southwest": {
          "lat": 9.642980170107277,
          "lng": 6.523065420107278
        }
      },
      "formatted_address": "London St, Bosso 920101, Minna, Nigeria",
      "google_map_url": "https://maps.google.com?q=9.644313799999999,6.524368",
      "google_place_id": "ChIJSeZIIZJwTBAR4CT9W2Ok-T0"
    }
  },
  {
    "id": "338345",
    "name": "JINBOBO",
    "registration_area_id": "17194",
    "precise_location": null,
    "abbreviation": "025",
    "units": "025",
    "delimitation": "26/19/11/025",
    "remark": "NEW PU",
    "ward_id": "17194",
    "ward_name": "TUTUNGO JEDNA",
    "local_government_id": "555",
    "local_government_name": "PAIKORO",
    "state_id": "26",
    "state_name": "NIGER",
    "location": null
  },
  {
    "id": "338346",
    "name": "SARAPMA PRIMARY SCHOOL",
    "registration_area_id": "17194",
    "precise_location": null,
    "abbreviation": "026",
    "units": "026",
    "delimitation": "26/19/11/026",
    "remark": "NEW PU",
    "ward_id": "17194",
    "ward_name": "TUTUNGO JEDNA",
    "local_government_id": "555",
    "local_government_name": "PAIKORO",
    "state_id": "26",
    "state_name": "NIGER",
    "location": {
      "latitude": 9.290883200000001,
      "longitude": 6.5857268,
      "viewport": {
        "northeast": {
          "lat": 9.292239779892723,
          "lng": 6.587120479892722
        },
        "southwest": {
          "lat": 9.28954012010728,
          "lng": 6.584420820107278
        }
      },
      "formatted_address": "7HRP+975, Lapai-Paiko Road, 920103, Takumpara, Nigeria",
      "google_map_url": "https://maps.google.com?q=9.290883200000001,6.5857268",
      "google_place_id": "ChIJKQP9hLkbTBARunW0PJwwPOw"
    }
  },
  {
    "id": "338347",
    "name": "GUDNA",
    "registration_area_id": "17194",
    "precise_location": null,
    "abbreviation": "027",
    "units": "027",
    "delimitation": "26/19/11/027",
    "remark": "NEW PU",
    "ward_id": "17194",
    "ward_name": "TUTUNGO JEDNA",
    "local_government_id": "555",
    "local_government_name": "PAIKORO",
    "state_id": "26",
    "state_name": "NIGER",
    "location": {
      "latitude": 9.3512157,
      "longitude": 6.577337699999999,
      "viewport": {
        "northeast": {
          "lat": 9.353258,
          "lng": 6.581046
        },
        "southwest": {
          "lat": 9.3499301,
          "lng": 6.575491
        }
      },
      "formatted_address": "920103, Gudna, Nigeria",
      "google_map_url": "https://maps.google.com?q=9.3512157,6.577337699999999",
      "google_place_id": "ChIJz-_opyoOTBARXR3qJx6MzxI"
    }
  },
  {
    "id": "338348",
    "name": "GADO PRIMARY SCHOOL",
    "registration_area_id": "17194",
    "precise_location": null,
    "abbreviation": "028",
    "units": "028",
    "delimitation": "26/19/11/028",
    "remark": "NEW PU",
    "ward_id": "17194",
    "ward_name": "TUTUNGO JEDNA",
    "local_government_id": "555",
    "local_government_name": "PAIKORO",
    "state_id": "26",
    "state_name": "NIGER",
    "location": {
      "latitude": 9.423528,
      "longitude": 6.512737,
      "viewport": {
        "northeast": {
          "lat": 9.424877829892722,
          "lng": 6.514086829892722
        },
        "southwest": {
          "lat": 9.422178170107278,
          "lng": 6.511387170107279
        }
      },
      "formatted_address": "6FX8CGF7+C39 GBAITA PRIMARY JEDNA, 920103, Butu, Nigeria",
      "google_map_url": "https://maps.google.com?q=9.423528,6.512737",
      "google_place_id": "ChIJRylF4SsNTBARAU-DYBpQdxo"
    }
  },
  {
    "id": "338349",
    "name": "DADMA PRIMARY SCHOOL",
    "registration_area_id": "17194",
    "precise_location": null,
    "abbreviation": "029",
    "units": "029",
    "delimitation": "26/19/11/029",
    "remark": "NEW PU",
    "ward_id": "17194",
    "ward_name": "TUTUNGO JEDNA",
    "local_government_id": "555",
    "local_government_name": "PAIKORO",
    "state_id": "26",
    "state_name": "NIGER",
    "location": {
      "latitude": 9.290883200000001,
      "longitude": 6.5857268,
      "viewport": {
        "northeast": {
          "lat": 9.292239779892723,
          "lng": 6.587120479892722
        },
        "southwest": {
          "lat": 9.28954012010728,
          "lng": 6.584420820107278
        }
      },
      "formatted_address": "7HRP+975, Lapai-Paiko Road, 920103, Takumpara, Nigeria",
      "google_map_url": "https://maps.google.com?q=9.290883200000001,6.5857268",
      "google_place_id": "ChIJKQP9hLkbTBARunW0PJwwPOw"
    }
  }
]