[
  {
    "id": "121535",
    "name": "HEALTH CENTRE, AYANTUGA ST. I",
    "registration_area_id": "6034",
    "precise_location": null,
    "abbreviation": "001",
    "units": "001",
    "delimitation": "24/16/03/001",
    "remark": "EXISTING PU",
    "ward_id": "6034",
    "ward_name": "BABALOSA",
    "local_government_id": "521",
    "local_government_name": "MUSHIN",
    "state_id": "24",
    "state_name": "LAGOS",
    "location": {
      "latitude": 6.5330097,
      "longitude": 3.3551897,
      "viewport": {
        "northeast": {
          "lat": 6.534440779892722,
          "lng": 3.356506129892722
        },
        "southwest": {
          "lat": 6.531741120107278,
          "lng": 3.353806470107278
        }
      },
      "formatted_address": "49 Ayantuga St, Mushin 102215, Lagos, Nigeria",
      "google_map_url": "https://maps.google.com?q=6.5330097,3.3551897",
      "google_place_id": "ChIJXZxZ7siNOxARQ_nY8u1TvJo"
    }
  },
  {
    "id": "121536",
    "name": "HEALTH CENTRE, AYANTUGA ST. II",
    "registration_area_id": "6034",
    "precise_location": null,
    "abbreviation": "002",
    "units": "002",
    "delimitation": "24/16/03/002",
    "remark": "EXISTING PU",
    "ward_id": "6034",
    "ward_name": "BABALOSA",
    "local_government_id": "521",
    "local_government_name": "MUSHIN",
    "state_id": "24",
    "state_name": "LAGOS",
    "location": {
      "latitude": 6.5330097,
      "longitude": 3.3551897,
      "viewport": {
        "northeast": {
          "lat": 6.534440779892722,
          "lng": 3.356506129892722
        },
        "southwest": {
          "lat": 6.531741120107278,
          "lng": 3.353806470107278
        }
      },
      "formatted_address": "49 Ayantuga St, Mushin 102215, Lagos, Nigeria",
      "google_map_url": "https://maps.google.com?q=6.5330097,3.3551897",
      "google_place_id": "ChIJXZxZ7siNOxARQ_nY8u1TvJo"
    }
  },
  {
    "id": "121537",
    "name": "OLUMOROKUN/MUIBI JUNCTION",
    "registration_area_id": "6034",
    "precise_location": null,
    "abbreviation": "003",
    "units": "003",
    "delimitation": "24/16/03/003",
    "remark": "EXISTING PU",
    "ward_id": "6034",
    "ward_name": "BABALOSA",
    "local_government_id": "521",
    "local_government_name": "MUSHIN",
    "state_id": "24",
    "state_name": "LAGOS",
    "location": {
      "latitude": 6.5321707,
      "longitude": 3.3537527,
      "viewport": {
        "northeast": {
          "lat": 6.533520529892722,
          "lng": 3.355102529892722
        },
        "southwest": {
          "lat": 6.530820870107278,
          "lng": 3.352402870107277
        }
      },
      "formatted_address": "Olumorokun St & Muibi St, Onipanu 102215, Ikeja, Nigeria",
      "google_map_url": "https://maps.google.com?q=6.5321707,3.3537527",
      "google_place_id": "EjhPbHVtb3Jva3VuIFN0ICYgTXVpYmkgU3QsIE9uaXBhbnUgMTAyMjE1LCBMYWdvcywgTmlnZXJpYSJmImQKFAoSCbexUdHOjTsQEZPCDM7UtEWPEhQKEgm3sVHRzo07EBGTwgzO1LRFjxoUChIJ6-a5VcmNOxARHsvf3v9dmIIaFAoSCZOtdd3OjTsQEXS9tPRudq9KIgoN67rkAxX3vf8B"
    }
  },
  {
    "id": "121538",
    "name": "7, OLUMOROKUN ST.",
    "registration_area_id": "6034",
    "precise_location": null,
    "abbreviation": "004",
    "units": "004",
    "delimitation": "24/16/03/004",
    "remark": "EXISTING PU",
    "ward_id": "6034",
    "ward_name": "BABALOSA",
    "local_government_id": "521",
    "local_government_name": "MUSHIN",
    "state_id": "24",
    "state_name": "LAGOS",
    "location": {
      "latitude": 6.530306899999999,
      "longitude": 3.3544583,
      "viewport": {
        "northeast": {
          "lat": 6.531639129892722,
          "lng": 3.355746979892723
        },
        "southwest": {
          "lat": 6.528939470107278,
          "lng": 3.353047320107278
        }
      },
      "formatted_address": "7 Olumorokun St, Fadeyi 102215, Lagos, Nigeria",
      "google_map_url": "https://maps.google.com?q=6.530306899999999,3.3544583",
      "google_place_id": "ChIJ82sbUcmNOxARxnNeASldmys"
    }
  },
  {
    "id": "121539",
    "name": "IN FRONT OF POST OFFICE I",
    "registration_area_id": "6034",
    "precise_location": null,
    "abbreviation": "005",
    "units": "005",
    "delimitation": "24/16/03/005",
    "remark": "EXISTING PU",
    "ward_id": "6034",
    "ward_name": "BABALOSA",
    "local_government_id": "521",
    "local_government_name": "MUSHIN",
    "state_id": "24",
    "state_name": "LAGOS",
    "location": {
      "latitude": 6.5306396,
      "longitude": 3.3546663,
      "viewport": {
        "northeast": {
          "lat": 6.532151029892722,
          "lng": 3.355973679892723
        },
        "southwest": {
          "lat": 6.529451370107278,
          "lng": 3.353274020107278
        }
      },
      "formatted_address": "5 Post Office Rd, Mushin 102215, Lagos, Nigeria",
      "google_map_url": "https://maps.google.com?q=6.5306396,3.3546663",
      "google_place_id": "ChIJq-vhSMmNOxARJmz_x4OL-RM"
    }
  },
  {
    "id": "121540",
    "name": "IN FRONT OF POST OFFICE II",
    "registration_area_id": "6034",
    "precise_location": null,
    "abbreviation": "006",
    "units": "006",
    "delimitation": "24/16/03/006",
    "remark": "EXISTING PU",
    "ward_id": "6034",
    "ward_name": "BABALOSA",
    "local_government_id": "521",
    "local_government_name": "MUSHIN",
    "state_id": "24",
    "state_name": "LAGOS",
    "location": {
      "latitude": 6.5305469,
      "longitude": 3.3546386,
      "viewport": {
        "northeast": {
          "lat": 6.532098379892723,
          "lng": 3.355935479892723
        },
        "southwest": {
          "lat": 6.529398720107279,
          "lng": 3.353235820107278
        }
      },
      "formatted_address": "35,, Post Office Rd, Lagos, Nigeria",
      "google_map_url": "https://maps.google.com?q=6.5305469,3.3546386",
      "google_place_id": "ChIJE3GH08uNOxARNAc3iG_S4TY"
    }
  },
  {
    "id": "121541",
    "name": "26, POST OFFICE ROAD I",
    "registration_area_id": "6034",
    "precise_location": null,
    "abbreviation": "007",
    "units": "007",
    "delimitation": "24/16/03/007",
    "remark": "EXISTING PU",
    "ward_id": "6034",
    "ward_name": "BABALOSA",
    "local_government_id": "521",
    "local_government_name": "MUSHIN",
    "state_id": "24",
    "state_name": "LAGOS",
    "location": {
      "latitude": 6.5309827,
      "longitude": 3.356092,
      "viewport": {
        "northeast": {
          "lat": 6.532483829892722,
          "lng": 3.357402929892722
        },
        "southwest": {
          "lat": 6.529784170107278,
          "lng": 3.354703270107277
        }
      },
      "formatted_address": "26 Post Office Rd, Mushin 102215, Lagos, Nigeria",
      "google_map_url": "https://maps.google.com?q=6.5309827,3.356092",
      "google_place_id": "ChIJ4cbGc8mNOxARpotuW43-EG4"
    }
  },
  {
    "id": "121542",
    "name": "26, POST OFFICE ROAD II",
    "registration_area_id": "6034",
    "precise_location": null,
    "abbreviation": "008",
    "units": "008",
    "delimitation": "24/16/03/008",
    "remark": "EXISTING PU",
    "ward_id": "6034",
    "ward_name": "BABALOSA",
    "local_government_id": "521",
    "local_government_name": "MUSHIN",
    "state_id": "24",
    "state_name": "LAGOS",
    "location": {
      "latitude": 6.5305469,
      "longitude": 3.3546386,
      "viewport": {
        "northeast": {
          "lat": 6.532098379892723,
          "lng": 3.355935479892723
        },
        "southwest": {
          "lat": 6.529398720107279,
          "lng": 3.353235820107278
        }
      },
      "formatted_address": "35,, Post Office Rd, Lagos, Nigeria",
      "google_map_url": "https://maps.google.com?q=6.5305469,3.3546386",
      "google_place_id": "ChIJE3GH08uNOxARNAc3iG_S4TY"
    }
  },
  {
    "id": "121543",
    "name": "52, POST OFFICE ROAD I",
    "registration_area_id": "6034",
    "precise_location": null,
    "abbreviation": "009",
    "units": "009",
    "delimitation": "24/16/03/009",
    "remark": "EXISTING PU",
    "ward_id": "6034",
    "ward_name": "BABALOSA",
    "local_government_id": "521",
    "local_government_name": "MUSHIN",
    "state_id": "24",
    "state_name": "LAGOS",
    "location": {
      "latitude": 6.5319005,
      "longitude": 3.3581886,
      "viewport": {
        "northeast": {
          "lat": 6.533294329892722,
          "lng": 3.359517229892722
        },
        "southwest": {
          "lat": 6.530594670107278,
          "lng": 3.356817570107277
        }
      },
      "formatted_address": "52 Post Office Rd, Mushin 102215, Lagos, Nigeria",
      "google_map_url": "https://maps.google.com?q=6.5319005,3.3581886",
      "google_place_id": "ChIJdXVpz8mNOxARrchG8QZilFM"
    }
  },
  {
    "id": "121544",
    "name": "52, POST OFFICE ROAD II",
    "registration_area_id": "6034",
    "precise_location": null,
    "abbreviation": "010",
    "units": "010",
    "delimitation": "24/16/03/010",
    "remark": "EXISTING PU",
    "ward_id": "6034",
    "ward_name": "BABALOSA",
    "local_government_id": "521",
    "local_government_name": "MUSHIN",
    "state_id": "24",
    "state_name": "LAGOS",
    "location": null
  },
  {
    "id": "121545",
    "name": "KUMUYI/DAODU JUNCTION",
    "registration_area_id": "6034",
    "precise_location": null,
    "abbreviation": "011",
    "units": "011",
    "delimitation": "24/16/03/011",
    "remark": "EXISTING PU",
    "ward_id": "6034",
    "ward_name": "BABALOSA",
    "local_government_id": "521",
    "local_government_name": "MUSHIN",
    "state_id": "24",
    "state_name": "LAGOS",
    "location": {
      "latitude": 6.7933923,
      "longitude": 3.4282004,
      "viewport": {
        "northeast": {
          "lat": 6.794742129892722,
          "lng": 3.429550229892722
        },
        "southwest": {
          "lat": 6.792042470107278,
          "lng": 3.426850570107277
        }
      },
      "formatted_address": "KM 42 Lagos - Ibadan Expy, Ikosi Ketu 105102, Lagos, Nigeria",
      "google_map_url": "https://maps.google.com?q=6.7933923,3.4282004",
      "google_place_id": "ChIJ6zXtSK2TOxAR18bKa__IUwc"
    }
  },
  {
    "id": "121546",
    "name": "ST. MARTIN SCH. DAMENGORO ST. I",
    "registration_area_id": "6034",
    "precise_location": null,
    "abbreviation": "012",
    "units": "012",
    "delimitation": "24/16/03/012",
    "remark": "EXISTING PU",
    "ward_id": "6034",
    "ward_name": "BABALOSA",
    "local_government_id": "521",
    "local_government_name": "MUSHIN",
    "state_id": "24",
    "state_name": "LAGOS",
    "location": {
      "latitude": 6.5074898,
      "longitude": 3.3500152,
      "viewport": {
        "northeast": {
          "lat": 6.508841029892722,
          "lng": 3.351362679892723
        },
        "southwest": {
          "lat": 6.506141370107278,
          "lng": 3.348663020107278
        }
      },
      "formatted_address": "7 Simisola St, Lawanson Rd, Surulere, Lagos, Nigeria",
      "google_map_url": "https://maps.google.com?q=6.5074898,3.3500152",
      "google_place_id": "ChIJ06T-wE2NOxARMa-K9p-2W3Q"
    }
  },
  {
    "id": "121547",
    "name": "ST. MARTIN SCH. DAMENGORO ST. II",
    "registration_area_id": "6034",
    "precise_location": null,
    "abbreviation": "013",
    "units": "013",
    "delimitation": "24/16/03/013",
    "remark": "EXISTING PU",
    "ward_id": "6034",
    "ward_name": "BABALOSA",
    "local_government_id": "521",
    "local_government_name": "MUSHIN",
    "state_id": "24",
    "state_name": "LAGOS",
    "location": {
      "latitude": 6.5320028,
      "longitude": 3.3566403,
      "viewport": {
        "northeast": {
          "lat": 6.533306579892721,
          "lng": 3.357858529892722
        },
        "southwest": {
          "lat": 6.530606920107277,
          "lng": 3.355158870107278
        }
      },
      "formatted_address": "Onipanu 102215, Lagos, Nigeria",
      "google_map_url": "https://maps.google.com?q=6.5320028,3.3566403",
      "google_place_id": "ChIJ26qqqcmNOxARf0SIH3nUmw4"
    }
  },
  {
    "id": "121548",
    "name": "MUSLIM MISSION PRY. SCH.",
    "registration_area_id": "6034",
    "precise_location": null,
    "abbreviation": "014",
    "units": "014",
    "delimitation": "24/16/03/014",
    "remark": "EXISTING PU",
    "ward_id": "6034",
    "ward_name": "BABALOSA",
    "local_government_id": "521",
    "local_government_name": "MUSHIN",
    "state_id": "24",
    "state_name": "LAGOS",
    "location": {
      "latitude": 6.5180256,
      "longitude": 3.3398787,
      "viewport": {
        "northeast": {
          "lat": 6.519429529892721,
          "lng": 3.341224279892722
        },
        "southwest": {
          "lat": 6.516729870107278,
          "lng": 3.338524620107278
        }
      },
      "formatted_address": "G89Q+5XR, Mushin 102215, Lagos, Nigeria",
      "google_map_url": "https://maps.google.com?q=6.5180256,3.3398787",
      "google_place_id": "ChIJl14I6imMOxARJy7ns-v-dk0"
    }
  },
  {
    "id": "121549",
    "name": "13, COKER ST.",
    "registration_area_id": "6034",
    "precise_location": null,
    "abbreviation": "015",
    "units": "015",
    "delimitation": "24/16/03/015",
    "remark": "EXISTING PU",
    "ward_id": "6034",
    "ward_name": "BABALOSA",
    "local_government_id": "521",
    "local_government_name": "MUSHIN",
    "state_id": "24",
    "state_name": "LAGOS",
    "location": {
      "latitude": 6.529276100000001,
      "longitude": 3.3581547,
      "viewport": {
        "northeast": {
          "lat": 6.530608529892722,
          "lng": 3.359548229892722
        },
        "southwest": {
          "lat": 6.527908870107278,
          "lng": 3.356848570107278
        }
      },
      "formatted_address": "13 Coker St, Fadeyi 102215, Lagos, Nigeria",
      "google_map_url": "https://maps.google.com?q=6.529276100000001,3.3581547",
      "google_place_id": "ChIJxTk8GsqNOxARe4gWgGbQzPw"
    }
  },
  {
    "id": "121550",
    "name": "ADEBESIN/OLOWO I",
    "registration_area_id": "6034",
    "precise_location": null,
    "abbreviation": "016",
    "units": "016",
    "delimitation": "24/16/03/016",
    "remark": "EXISTING PU",
    "ward_id": "6034",
    "ward_name": "BABALOSA",
    "local_government_id": "521",
    "local_government_name": "MUSHIN",
    "state_id": "24",
    "state_name": "LAGOS",
    "location": {
      "latitude": 6.5303453,
      "longitude": 3.3580224,
      "viewport": {
        "northeast": {
          "lat": 6.531695129892721,
          "lng": 3.359372229892722
        },
        "southwest": {
          "lat": 6.528995470107278,
          "lng": 3.356672570107277
        }
      },
      "formatted_address": "Adebesin St & Olowo St, Fadeyi 102215, Ikeja, Nigeria",
      "google_map_url": "https://maps.google.com?q=6.5303453,3.3580224",
      "google_place_id": "EjVBZGViZXNpbiBTdCAmIE9sb3dvIFN0LCBGYWRleWkgMTAyMjE1LCBMYWdvcywgTmlnZXJpYSJmImQKFAoSCZesyvPJjTsQEe7gIgb0KZbEEhQKEgmXrMrzyY07EBHu4CIG9CmWxBoUChIJp8wGj8mNOxAR9OxY_jpD6pwaFAoSCZesyvPJjTsQEat5B8Uw8L1iIgoNnXPkAxXAZAAC"
    }
  },
  {
    "id": "121551",
    "name": "ADEBESIN/OLOWO II",
    "registration_area_id": "6034",
    "precise_location": null,
    "abbreviation": "017",
    "units": "017",
    "delimitation": "24/16/03/017",
    "remark": "EXISTING PU",
    "ward_id": "6034",
    "ward_name": "BABALOSA",
    "local_government_id": "521",
    "local_government_name": "MUSHIN",
    "state_id": "24",
    "state_name": "LAGOS",
    "location": {
      "latitude": 6.530322399999999,
      "longitude": 3.3585833,
      "viewport": {
        "northeast": {
          "lat": 6.531651079892721,
          "lng": 3.359987479892723
        },
        "southwest": {
          "lat": 6.528951420107277,
          "lng": 3.357287820107278
        }
      },
      "formatted_address": "Off Adebesin Street, Odi - Olowo, 29 Coker St, Lagos, Nigeria",
      "google_map_url": "https://maps.google.com?q=6.530322399999999,3.3585833",
      "google_place_id": "ChIJqYar-8mNOxARwKRZ6Z1iPgg"
    }
  },
  {
    "id": "121552",
    "name": "JOHN/MUDA JUNCTION",
    "registration_area_id": "6034",
    "precise_location": null,
    "abbreviation": "018",
    "units": "018",
    "delimitation": "24/16/03/018",
    "remark": "EXISTING PU",
    "ward_id": "6034",
    "ward_name": "BABALOSA",
    "local_government_id": "521",
    "local_government_name": "MUSHIN",
    "state_id": "24",
    "state_name": "LAGOS",
    "location": {
      "latitude": 6.5305469,
      "longitude": 3.3546386,
      "viewport": {
        "northeast": {
          "lat": 6.532098379892723,
          "lng": 3.355935479892723
        },
        "southwest": {
          "lat": 6.529398720107279,
          "lng": 3.353235820107278
        }
      },
      "formatted_address": "35,, Post Office Rd, Lagos, Nigeria",
      "google_map_url": "https://maps.google.com?q=6.5305469,3.3546386",
      "google_place_id": "ChIJE3GH08uNOxARNAc3iG_S4TY"
    }
  },
  {
    "id": "121553",
    "name": "ABIODUN PRY. SCH. I",
    "registration_area_id": "6034",
    "precise_location": null,
    "abbreviation": "019",
    "units": "019",
    "delimitation": "24/16/03/019",
    "remark": "EXISTING PU",
    "ward_id": "6034",
    "ward_name": "BABALOSA",
    "local_government_id": "521",
    "local_government_name": "MUSHIN",
    "state_id": "24",
    "state_name": "LAGOS",
    "location": {
      "latitude": 6.5278243,
      "longitude": 3.3557264,
      "viewport": {
        "northeast": {
          "lat": 6.529213679892722,
          "lng": 3.357087679892722
        },
        "southwest": {
          "lat": 6.526514020107278,
          "lng": 3.354388020107278
        }
      },
      "formatted_address": "G9H4+47H, Abiodun Street, Mushin 102215, Lagos, Nigeria",
      "google_map_url": "https://maps.google.com?q=6.5278243,3.3557264",
      "google_place_id": "ChIJB6tFn6WNOxARILf_TOHeVNo"
    }
  },
  {
    "id": "121554",
    "name": "ABIODUN PRY. SCH. II",
    "registration_area_id": "6034",
    "precise_location": null,
    "abbreviation": "020",
    "units": "020",
    "delimitation": "24/16/03/020",
    "remark": "EXISTING PU",
    "ward_id": "6034",
    "ward_name": "BABALOSA",
    "local_government_id": "521",
    "local_government_name": "MUSHIN",
    "state_id": "24",
    "state_name": "LAGOS",
    "location": {
      "latitude": 6.5278243,
      "longitude": 3.3557264,
      "viewport": {
        "northeast": {
          "lat": 6.529213679892722,
          "lng": 3.357087679892722
        },
        "southwest": {
          "lat": 6.526514020107278,
          "lng": 3.354388020107278
        }
      },
      "formatted_address": "G9H4+47H, Abiodun Street, Mushin 102215, Lagos, Nigeria",
      "google_map_url": "https://maps.google.com?q=6.5278243,3.3557264",
      "google_place_id": "ChIJB6tFn6WNOxARILf_TOHeVNo"
    }
  },
  {
    "id": "121555",
    "name": "8, ABOLADE ST.",
    "registration_area_id": "6034",
    "precise_location": null,
    "abbreviation": "021",
    "units": "021",
    "delimitation": "24/16/03/021",
    "remark": "EXISTING PU",
    "ward_id": "6034",
    "ward_name": "BABALOSA",
    "local_government_id": "521",
    "local_government_name": "MUSHIN",
    "state_id": "24",
    "state_name": "LAGOS",
    "location": {
      "latitude": 6.5287728,
      "longitude": 3.3575151,
      "viewport": {
        "northeast": {
          "lat": 6.530162729892722,
          "lng": 3.358895729892722
        },
        "southwest": {
          "lat": 6.527463070107278,
          "lng": 3.356196070107277
        }
      },
      "formatted_address": "8 Abolade St, Mushin 102215, Lagos, Nigeria",
      "google_map_url": "https://maps.google.com?q=6.5287728,3.3575151",
      "google_place_id": "ChIJzQCkPsqNOxARASajq8oqxEU"
    }
  },
  {
    "id": "121556",
    "name": "4, ABOLADE ST.",
    "registration_area_id": "6034",
    "precise_location": null,
    "abbreviation": "022",
    "units": "022",
    "delimitation": "24/16/03/022",
    "remark": "EXISTING PU",
    "ward_id": "6034",
    "ward_name": "BABALOSA",
    "local_government_id": "521",
    "local_government_name": "MUSHIN",
    "state_id": "24",
    "state_name": "LAGOS",
    "location": {
      "latitude": 6.530142,
      "longitude": 3.3573517,
      "viewport": {
        "northeast": {
          "lat": 6.531612179892722,
          "lng": 3.358678029892721
        },
        "southwest": {
          "lat": 6.528912520107277,
          "lng": 3.355978370107277
        }
      },
      "formatted_address": "4 Abolade St, Fadeyi 102215, Lagos, Nigeria",
      "google_map_url": "https://maps.google.com?q=6.530142,3.3573517",
      "google_place_id": "ChIJ_U7LjsmNOxARG-Lx6DsRaDI"
    }
  },
  {
    "id": "121557",
    "name": "ABIODUN/WILLAIM LADEGA JUNCTION",
    "registration_area_id": "6034",
    "precise_location": null,
    "abbreviation": "023",
    "units": "023",
    "delimitation": "24/16/03/023",
    "remark": "EXISTING PU",
    "ward_id": "6034",
    "ward_name": "BABALOSA",
    "local_government_id": "521",
    "local_government_name": "MUSHIN",
    "state_id": "24",
    "state_name": "LAGOS",
    "location": {
      "latitude": 6.527985,
      "longitude": 3.3504655,
      "viewport": {
        "northeast": {
          "lat": 6.529413929892721,
          "lng": 3.351830579892722
        },
        "southwest": {
          "lat": 6.526714270107277,
          "lng": 3.349130920107278
        }
      },
      "formatted_address": "33 ISOLO ROAD ONILEGOGORO BUS STOP MUSHIN MUSHIN, Mushin, Lagos, Nigeria",
      "google_map_url": "https://maps.google.com?q=6.527985,3.3504655",
      "google_place_id": "ChIJ9V_yW96NOxAR46ttMtYgmgs"
    }
  },
  {
    "id": "121558",
    "name": "18, MUMUNI ST.",
    "registration_area_id": "6034",
    "precise_location": null,
    "abbreviation": "024",
    "units": "024",
    "delimitation": "24/16/03/024",
    "remark": "EXISTING PU",
    "ward_id": "6034",
    "ward_name": "BABALOSA",
    "local_government_id": "521",
    "local_government_name": "MUSHIN",
    "state_id": "24",
    "state_name": "LAGOS",
    "location": {
      "latitude": 6.5302966,
      "longitude": 3.3567128,
      "viewport": {
        "northeast": {
          "lat": 6.531609929892721,
          "lng": 3.358075679892723
        },
        "southwest": {
          "lat": 6.528910270107277,
          "lng": 3.355376020107278
        }
      },
      "formatted_address": "18 Mumuni St, Fadeyi 102215, Lagos, Nigeria",
      "google_map_url": "https://maps.google.com?q=6.5302966,3.3567128",
      "google_place_id": "ChIJQ96wg8mNOxARuXAEbuvW54g"
    }
  },
  {
    "id": "121559",
    "name": "14, DADA IYALODE ST.",
    "registration_area_id": "6034",
    "precise_location": null,
    "abbreviation": "025",
    "units": "025",
    "delimitation": "24/16/03/025",
    "remark": "EXISTING PU",
    "ward_id": "6034",
    "ward_name": "BABALOSA",
    "local_government_id": "521",
    "local_government_name": "MUSHIN",
    "state_id": "24",
    "state_name": "LAGOS",
    "location": {
      "latitude": 6.5297073,
      "longitude": 3.3552008,
      "viewport": {
        "northeast": {
          "lat": 6.531148129892722,
          "lng": 3.356568979892722
        },
        "southwest": {
          "lat": 6.528448470107278,
          "lng": 3.353869320107278
        }
      },
      "formatted_address": "14 Dada Iyalode St, Fadeyi 102215, Lagos, Nigeria",
      "google_map_url": "https://maps.google.com?q=6.5297073,3.3552008",
      "google_place_id": "EjExNCBEYWRhIEl5YWxvZGUgU3QsIEZhZGV5aSAxMDIyMTUsIExhZ29zLCBOaWdlcmlhIjASLgoUChIJ_3yKWMmNOxARJyDR7TKcjbsQDioUChIJu7VzVsmNOxARqf-dpvSWjCg"
    }
  },
  {
    "id": "121560",
    "name": "6, OLAPADE ST.",
    "registration_area_id": "6034",
    "precise_location": null,
    "abbreviation": "026",
    "units": "026",
    "delimitation": "24/16/03/026",
    "remark": "EXISTING PU",
    "ward_id": "6034",
    "ward_name": "BABALOSA",
    "local_government_id": "521",
    "local_government_name": "MUSHIN",
    "state_id": "24",
    "state_name": "LAGOS",
    "location": {
      "latitude": 6.5289041,
      "longitude": 3.3560756,
      "viewport": {
        "northeast": {
          "lat": 6.530240379892722,
          "lng": 3.357533129892722
        },
        "southwest": {
          "lat": 6.527540720107278,
          "lng": 3.354833470107278
        }
      },
      "formatted_address": "6 Olapade St, Fadeyi 102215, Lagos, Nigeria",
      "google_map_url": "https://maps.google.com?q=6.5289041,3.3560756",
      "google_place_id": "Eis2IE9sYXBhZGUgU3QsIEZhZGV5aSAxMDIyMTUsIExhZ29zLCBOaWdlcmlhIjASLgoUChIJdcVSyMuNOxARJC6KpF6-hIsQBioUChIJdcVSyMuNOxARzaOcGirflEA"
    }
  },
  {
    "id": "121561",
    "name": "AGANRAN/AKAMU LANE I",
    "registration_area_id": "6034",
    "precise_location": null,
    "abbreviation": "027",
    "units": "027",
    "delimitation": "24/16/03/027",
    "remark": "EXISTING PU",
    "ward_id": "6034",
    "ward_name": "BABALOSA",
    "local_government_id": "521",
    "local_government_name": "MUSHIN",
    "state_id": "24",
    "state_name": "LAGOS",
    "location": {
      "latitude": 6.5287212,
      "longitude": 3.3561726,
      "viewport": {
        "northeast": {
          "lat": 6.530065329892721,
          "lng": 3.357581879892721
        },
        "southwest": {
          "lat": 6.527365670107277,
          "lng": 3.354882220107277
        }
      },
      "formatted_address": "off aganran, 10 Olapade St, Mushin, Lagos, Nigeria",
      "google_map_url": "https://maps.google.com?q=6.5287212,3.3561726",
      "google_place_id": "ChIJk4DKzcuNOxARSm8HXLsWg9g"
    }
  },
  {
    "id": "121562",
    "name": "AGANRAN/AKAMU LANE II",
    "registration_area_id": "6034",
    "precise_location": null,
    "abbreviation": "028",
    "units": "028",
    "delimitation": "24/16/03/028",
    "remark": "EXISTING PU",
    "ward_id": "6034",
    "ward_name": "BABALOSA",
    "local_government_id": "521",
    "local_government_name": "MUSHIN",
    "state_id": "24",
    "state_name": "LAGOS",
    "location": {
      "latitude": 6.5287586,
      "longitude": 3.3561227,
      "viewport": {
        "northeast": {
          "lat": 6.530096329892721,
          "lng": 3.357544879892723
        },
        "southwest": {
          "lat": 6.527396670107277,
          "lng": 3.354845220107278
        }
      },
      "formatted_address": "10 Olapade St, Mushin 102215, Lagos, Nigeria",
      "google_map_url": "https://maps.google.com?q=6.5287586,3.3561227",
      "google_place_id": "ChIJLVAuZoyNOxARFO_NQknDWMk"
    }
  },
  {
    "id": "121563",
    "name": "BESIDE MOSQUE, OJUWOYE ST. I",
    "registration_area_id": "6034",
    "precise_location": null,
    "abbreviation": "029",
    "units": "029",
    "delimitation": "24/16/03/029",
    "remark": "EXISTING PU",
    "ward_id": "6034",
    "ward_name": "BABALOSA",
    "local_government_id": "521",
    "local_government_name": "MUSHIN",
    "state_id": "24",
    "state_name": "LAGOS",
    "location": {
      "latitude": 6.5283492,
      "longitude": 3.3549153,
      "viewport": {
        "northeast": {
          "lat": 6.529681879892721,
          "lng": 3.356211879892722
        },
        "southwest": {
          "lat": 6.526982220107278,
          "lng": 3.353512220107278
        }
      },
      "formatted_address": "5/7 Ojuwoye St, Fadeyi 102215, Lagos, Nigeria",
      "google_map_url": "https://maps.google.com?q=6.5283492,3.3549153",
      "google_place_id": "ChIJX6rCHcuNOxARKp8TBVGBpP4"
    }
  },
  {
    "id": "121564",
    "name": "BESIDE MOSQUE, OJUWOYE ST. II",
    "registration_area_id": "6034",
    "precise_location": null,
    "abbreviation": "030",
    "units": "030",
    "delimitation": "24/16/03/030",
    "remark": "EXISTING PU",
    "ward_id": "6034",
    "ward_name": "BABALOSA",
    "local_government_id": "521",
    "local_government_name": "MUSHIN",
    "state_id": "24",
    "state_name": "LAGOS",
    "location": {
      "latitude": 6.5283492,
      "longitude": 3.3549153,
      "viewport": {
        "northeast": {
          "lat": 6.529681879892721,
          "lng": 3.356211879892722
        },
        "southwest": {
          "lat": 6.526982220107278,
          "lng": 3.353512220107278
        }
      },
      "formatted_address": "5/7 Ojuwoye St, Fadeyi 102215, Lagos, Nigeria",
      "google_map_url": "https://maps.google.com?q=6.5283492,3.3549153",
      "google_place_id": "ChIJX6rCHcuNOxARKp8TBVGBpP4"
    }
  },
  {
    "id": "121565",
    "name": "OJUWOYE/DADA IYALODE JUNCTION",
    "registration_area_id": "6034",
    "precise_location": null,
    "abbreviation": "031",
    "units": "031",
    "delimitation": "24/16/03/031",
    "remark": "EXISTING PU",
    "ward_id": "6034",
    "ward_name": "BABALOSA",
    "local_government_id": "521",
    "local_government_name": "MUSHIN",
    "state_id": "24",
    "state_name": "LAGOS",
    "location": {
      "latitude": 6.529132499999999,
      "longitude": 3.3568171,
      "viewport": {
        "northeast": {
          "lat": 6.530486629892722,
          "lng": 3.358200229892723
        },
        "southwest": {
          "lat": 6.527786970107278,
          "lng": 3.355500570107278
        }
      },
      "formatted_address": "3 Abolade St, Mushin 102215, Lagos, Nigeria",
      "google_map_url": "https://maps.google.com?q=6.529132499999999,3.3568171",
      "google_place_id": "ChIJBfWnMcqNOxARMc1LhbjYlNc"
    }
  },
  {
    "id": "121566",
    "name": "I/3, AJIBORE ST.",
    "registration_area_id": "6034",
    "precise_location": null,
    "abbreviation": "032",
    "units": "032",
    "delimitation": "24/16/03/032",
    "remark": "EXISTING PU",
    "ward_id": "6034",
    "ward_name": "BABALOSA",
    "local_government_id": "521",
    "local_government_name": "MUSHIN",
    "state_id": "24",
    "state_name": "LAGOS",
    "location": null
  },
  {
    "id": "121567",
    "name": "IN FRONT OF REGINA MUNDI CATHOLIC CHURCH",
    "registration_area_id": "6034",
    "precise_location": null,
    "abbreviation": "033",
    "units": "033",
    "delimitation": "24/16/03/033",
    "remark": "EXISTING PU",
    "ward_id": "6034",
    "ward_name": "BABALOSA",
    "local_government_id": "521",
    "local_government_name": "MUSHIN",
    "state_id": "24",
    "state_name": "LAGOS",
    "location": {
      "latitude": 6.5269881,
      "longitude": 3.356303800000001,
      "viewport": {
        "northeast": {
          "lat": 6.528178779892722,
          "lng": 3.357617729892723
        },
        "southwest": {
          "lat": 6.525479120107278,
          "lng": 3.354918070107278
        }
      },
      "formatted_address": "142/144 Agege Motor Rd, Fadeyi 102215, Lagos, Nigeria",
      "google_map_url": "https://maps.google.com?q=6.5269881,3.356303800000001",
      "google_place_id": "ChIJczqa_cqNOxARqu1xEXEbFIM"
    }
  },
  {
    "id": "121568",
    "name": "3, COKER ST.",
    "registration_area_id": "6034",
    "precise_location": null,
    "abbreviation": "034",
    "units": "034",
    "delimitation": "24/16/03/034",
    "remark": "EXISTING PU",
    "ward_id": "6034",
    "ward_name": "BABALOSA",
    "local_government_id": "521",
    "local_government_name": "MUSHIN",
    "state_id": "24",
    "state_name": "LAGOS",
    "location": {
      "latitude": 6.5287164,
      "longitude": 3.3578413,
      "viewport": {
        "northeast": {
          "lat": 6.530033779892721,
          "lng": 3.359272629892722
        },
        "southwest": {
          "lat": 6.527334120107278,
          "lng": 3.356572970107277
        }
      },
      "formatted_address": "3 Coker St, Mushin 102215, Lagos, Nigeria",
      "google_map_url": "https://maps.google.com?q=6.5287164,3.3578413",
      "google_place_id": "ChIJ1Va0XMqNOxARuqNygguPY98"
    }
  },
  {
    "id": "121569",
    "name": "ABIODUN PRIMARY SCHOOL GATE",
    "registration_area_id": "6034",
    "precise_location": null,
    "abbreviation": "035",
    "units": "035",
    "delimitation": "24/16/03/035",
    "remark": "NEW PU",
    "ward_id": "6034",
    "ward_name": "BABALOSA",
    "local_government_id": "521",
    "local_government_name": "MUSHIN",
    "state_id": "24",
    "state_name": "LAGOS",
    "location": {
      "latitude": 6.5278243,
      "longitude": 3.3557264,
      "viewport": {
        "northeast": {
          "lat": 6.529213679892722,
          "lng": 3.357087679892722
        },
        "southwest": {
          "lat": 6.526514020107278,
          "lng": 3.354388020107278
        }
      },
      "formatted_address": "G9H4+47H, Abiodun Street, Mushin 102215, Lagos, Nigeria",
      "google_map_url": "https://maps.google.com?q=6.5278243,3.3557264",
      "google_place_id": "ChIJB6tFn6WNOxARILf_TOHeVNo"
    }
  }
]