[
  {
    "id": "107736",
    "name": "AIYETEJU LGEA/ECWA SCHOOL",
    "registration_area_id": "5564",
    "precise_location": null,
    "abbreviation": "001",
    "units": "001",
    "delimitation": "22/13/09/001",
    "remark": "EXISTING PU",
    "ward_id": "5564",
    "ward_name": "AGBAFOGUN",
    "local_government_id": "481",
    "local_government_name": "MOPA MORO",
    "state_id": "22",
    "state_name": "KOGI",
    "location": {
      "latitude": 8.1104959,
      "longitude": 5.890794,
      "viewport": {
        "northeast": {
          "lat": 8.111868829892723,
          "lng": 5.891858679892722
        },
        "southwest": {
          "lat": 8.109169170107279,
          "lng": 5.889159020107278
        }
      },
      "formatted_address": "4V6R+58V, 262101, Mopa, Nigeria",
      "google_map_url": "https://maps.google.com?q=8.1104959,5.890794",
      "google_place_id": "ChIJIcwtxdPzSBAR1Wn881N66r4"
    }
  },
  {
    "id": "107737",
    "name": "AIYETEJU OLD MARKET AREA",
    "registration_area_id": "5564",
    "precise_location": null,
    "abbreviation": "002",
    "units": "002",
    "delimitation": "22/13/09/002",
    "remark": "EXISTING PU",
    "ward_id": "5564",
    "ward_name": "AGBAFOGUN",
    "local_government_id": "481",
    "local_government_name": "MOPA MORO",
    "state_id": "22",
    "state_name": "KOGI",
    "location": {
      "latitude": 8.103049,
      "longitude": 5.893485,
      "viewport": {
        "northeast": {
          "lat": 8.104406379892724,
          "lng": 5.894701379892721
        },
        "southwest": {
          "lat": 8.10170672010728,
          "lng": 5.892001720107277
        }
      },
      "formatted_address": "4V3V+699, 262101, Mopa, Nigeria",
      "google_map_url": "https://maps.google.com?q=8.103049,5.893485",
      "google_place_id": "ChIJ1-uJtfjzSBARdnevoNHTK7s"
    }
  },
  {
    "id": "107738",
    "name": "AIYETEJU UNDER WHISTLING PAN",
    "registration_area_id": "5564",
    "precise_location": null,
    "abbreviation": "003",
    "units": "003",
    "delimitation": "22/13/09/003",
    "remark": "EXISTING PU",
    "ward_id": "5564",
    "ward_name": "AGBAFOGUN",
    "local_government_id": "481",
    "local_government_name": "MOPA MORO",
    "state_id": "22",
    "state_name": "KOGI",
    "location": {
      "latitude": 8.1104959,
      "longitude": 5.890794,
      "viewport": {
        "northeast": {
          "lat": 8.111868829892723,
          "lng": 5.891858679892722
        },
        "southwest": {
          "lat": 8.109169170107279,
          "lng": 5.889159020107278
        }
      },
      "formatted_address": "4V6R+58V, 262101, Mopa, Nigeria",
      "google_map_url": "https://maps.google.com?q=8.1104959,5.890794",
      "google_place_id": "ChIJIcwtxdPzSBAR1Wn881N66r4"
    }
  },
  {
    "id": "107739",
    "name": "AIYETEJU A.C.S.S. AMURO",
    "registration_area_id": "5564",
    "precise_location": null,
    "abbreviation": "004",
    "units": "004",
    "delimitation": "22/13/09/004",
    "remark": "EXISTING PU",
    "ward_id": "5564",
    "ward_name": "AGBAFOGUN",
    "local_government_id": "481",
    "local_government_name": "MOPA MORO",
    "state_id": "22",
    "state_name": "KOGI",
    "location": {
      "latitude": 8.103049,
      "longitude": 5.893485,
      "viewport": {
        "northeast": {
          "lat": 8.104406379892724,
          "lng": 5.894701379892721
        },
        "southwest": {
          "lat": 8.10170672010728,
          "lng": 5.892001720107277
        }
      },
      "formatted_address": "4V3V+699, 262101, Mopa, Nigeria",
      "google_map_url": "https://maps.google.com?q=8.103049,5.893485",
      "google_place_id": "ChIJ1-uJtfjzSBARdnevoNHTK7s"
    }
  },
  {
    "id": "107740",
    "name": "OPEN SPACE, AIYETEJU",
    "registration_area_id": "5564",
    "precise_location": null,
    "abbreviation": "005",
    "units": "005",
    "delimitation": "22/13/09/005",
    "remark": "EXISTING PU",
    "ward_id": "5564",
    "ward_name": "AGBAFOGUN",
    "local_government_id": "481",
    "local_government_name": "MOPA MORO",
    "state_id": "22",
    "state_name": "KOGI",
    "location": {
      "latitude": 8.1104959,
      "longitude": 5.890794,
      "viewport": {
        "northeast": {
          "lat": 8.111868829892723,
          "lng": 5.891858679892722
        },
        "southwest": {
          "lat": 8.109169170107279,
          "lng": 5.889159020107278
        }
      },
      "formatted_address": "4V6R+58V, 262101, Mopa, Nigeria",
      "google_map_url": "https://maps.google.com?q=8.1104959,5.890794",
      "google_place_id": "ChIJIcwtxdPzSBAR1Wn881N66r4"
    }
  }
]