[
  {
    "id": "35673",
    "name": "NGURO I",
    "registration_area_id": "1940",
    "precise_location": null,
    "abbreviation": "001",
    "units": "001",
    "delimitation": "08/25/05/001",
    "remark": "EXISTING PU",
    "ward_id": "1940",
    "ward_name": "LOGUMANE",
    "local_government_id": "166",
    "local_government_name": "NGALA",
    "state_id": "8",
    "state_name": "BORNO",
    "location": {
      "latitude": 12.1896263,
      "longitude": 14.0304535,
      "viewport": {
        "northeast": {
          "lat": 12.3159546,
          "lng": 14.1226609
        },
        "southwest": {
          "lat": 12.1283419,
          "lng": 13.9630345
        }
      },
      "formatted_address": "Logumane, Nigeria",
      "google_map_url": "https://maps.google.com?q=12.1896263,14.0304535",
      "google_place_id": "ChIJGR8JpvoQGxERic-j4jJBACk"
    }
  },
  {
    "id": "35674",
    "name": "NGURO II",
    "registration_area_id": "1940",
    "precise_location": null,
    "abbreviation": "002",
    "units": "002",
    "delimitation": "08/25/05/002",
    "remark": "EXISTING PU",
    "ward_id": "1940",
    "ward_name": "LOGUMANE",
    "local_government_id": "166",
    "local_government_name": "NGALA",
    "state_id": "8",
    "state_name": "BORNO",
    "location": {
      "latitude": 12.1896263,
      "longitude": 14.0304535,
      "viewport": {
        "northeast": {
          "lat": 12.3159546,
          "lng": 14.1226609
        },
        "southwest": {
          "lat": 12.1283419,
          "lng": 13.9630345
        }
      },
      "formatted_address": "Logumane, Nigeria",
      "google_map_url": "https://maps.google.com?q=12.1896263,14.0304535",
      "google_place_id": "ChIJGR8JpvoQGxERic-j4jJBACk"
    }
  },
  {
    "id": "35675",
    "name": "LOGOMANE I",
    "registration_area_id": "1940",
    "precise_location": null,
    "abbreviation": "003",
    "units": "003",
    "delimitation": "08/25/05/003",
    "remark": "EXISTING PU",
    "ward_id": "1940",
    "ward_name": "LOGUMANE",
    "local_government_id": "166",
    "local_government_name": "NGALA",
    "state_id": "8",
    "state_name": "BORNO",
    "location": {
      "latitude": 12.1896263,
      "longitude": 14.0304535,
      "viewport": {
        "northeast": {
          "lat": 12.3159546,
          "lng": 14.1226609
        },
        "southwest": {
          "lat": 12.1283419,
          "lng": 13.9630345
        }
      },
      "formatted_address": "Logumane, Nigeria",
      "google_map_url": "https://maps.google.com?q=12.1896263,14.0304535",
      "google_place_id": "ChIJGR8JpvoQGxERic-j4jJBACk"
    }
  },
  {
    "id": "35676",
    "name": "LOGOMANE II",
    "registration_area_id": "1940",
    "precise_location": null,
    "abbreviation": "004",
    "units": "004",
    "delimitation": "08/25/05/004",
    "remark": "EXISTING PU",
    "ward_id": "1940",
    "ward_name": "LOGUMANE",
    "local_government_id": "166",
    "local_government_name": "NGALA",
    "state_id": "8",
    "state_name": "BORNO",
    "location": {
      "latitude": 12.1896263,
      "longitude": 14.0304535,
      "viewport": {
        "northeast": {
          "lat": 12.3159546,
          "lng": 14.1226609
        },
        "southwest": {
          "lat": 12.1283419,
          "lng": 13.9630345
        }
      },
      "formatted_address": "Logumane, Nigeria",
      "google_map_url": "https://maps.google.com?q=12.1896263,14.0304535",
      "google_place_id": "ChIJGR8JpvoQGxERic-j4jJBACk"
    }
  },
  {
    "id": "35677",
    "name": "GUMSHE",
    "registration_area_id": "1940",
    "precise_location": null,
    "abbreviation": "005",
    "units": "005",
    "delimitation": "08/25/05/005",
    "remark": "EXISTING PU",
    "ward_id": "1940",
    "ward_name": "LOGUMANE",
    "local_government_id": "166",
    "local_government_name": "NGALA",
    "state_id": "8",
    "state_name": "BORNO",
    "location": {
      "latitude": 12.1896263,
      "longitude": 14.0304535,
      "viewport": {
        "northeast": {
          "lat": 12.3159546,
          "lng": 14.1226609
        },
        "southwest": {
          "lat": 12.1283419,
          "lng": 13.9630345
        }
      },
      "formatted_address": "Logumane, Nigeria",
      "google_map_url": "https://maps.google.com?q=12.1896263,14.0304535",
      "google_place_id": "ChIJGR8JpvoQGxERic-j4jJBACk"
    }
  },
  {
    "id": "35678",
    "name": "MAGARE",
    "registration_area_id": "1940",
    "precise_location": null,
    "abbreviation": "006",
    "units": "006",
    "delimitation": "08/25/05/006",
    "remark": "EXISTING PU",
    "ward_id": "1940",
    "ward_name": "LOGUMANE",
    "local_government_id": "166",
    "local_government_name": "NGALA",
    "state_id": "8",
    "state_name": "BORNO",
    "location": {
      "latitude": 12.3467184,
      "longitude": 14.195501,
      "viewport": {
        "northeast": {
          "lat": 12.34804672989272,
          "lng": 14.19684487989272
        },
        "southwest": {
          "lat": 12.34534707010728,
          "lng": 14.19414522010728
        }
      },
      "formatted_address": "85WW+M6J, 611102, Ngala, Nigeria",
      "google_map_url": "https://maps.google.com?q=12.3467184,14.195501",
      "google_place_id": "ChIJ8TTI4IMBGxERZ7J05v_3uKs"
    }
  },
  {
    "id": "35679",
    "name": "AJIWA",
    "registration_area_id": "1940",
    "precise_location": null,
    "abbreviation": "007",
    "units": "007",
    "delimitation": "08/25/05/007",
    "remark": "EXISTING PU",
    "ward_id": "1940",
    "ward_name": "LOGUMANE",
    "local_government_id": "166",
    "local_government_name": "NGALA",
    "state_id": "8",
    "state_name": "BORNO",
    "location": {
      "latitude": 12.3420676,
      "longitude": 14.1858272,
      "viewport": {
        "northeast": {
          "lat": 12.3515911,
          "lng": 14.198824
        },
        "southwest": {
          "lat": 12.3363131,
          "lng": 14.171447
        }
      },
      "formatted_address": "611102, Ngala, Nigeria",
      "google_map_url": "https://maps.google.com?q=12.3420676,14.1858272",
      "google_place_id": "ChIJHdjxMPkDGxER5vqbwyoWDJA"
    }
  },
  {
    "id": "35680",
    "name": "ADA PRI. SCH.",
    "registration_area_id": "1940",
    "precise_location": null,
    "abbreviation": "008",
    "units": "008",
    "delimitation": "08/25/05/008",
    "remark": "NEW PU",
    "ward_id": "1940",
    "ward_name": "LOGUMANE",
    "local_government_id": "166",
    "local_government_name": "NGALA",
    "state_id": "8",
    "state_name": "BORNO",
    "location": {
      "latitude": 12.3467184,
      "longitude": 14.195501,
      "viewport": {
        "northeast": {
          "lat": 12.34804672989272,
          "lng": 14.19684487989272
        },
        "southwest": {
          "lat": 12.34534707010728,
          "lng": 14.19414522010728
        }
      },
      "formatted_address": "85WW+M6J, 611102, Ngala, Nigeria",
      "google_map_url": "https://maps.google.com?q=12.3467184,14.195501",
      "google_place_id": "ChIJ8TTI4IMBGxERZ7J05v_3uKs"
    }
  }
]