[
  {
    "id": "73435",
    "name": "UNG. KATUKA/ K/GIDAN SARKI",
    "registration_area_id": "4007",
    "precise_location": null,
    "abbreviation": "001",
    "units": "001",
    "delimitation": "18/06/08/001",
    "remark": "EXISTING PU",
    "ward_id": "4007",
    "ward_name": "CHORI",
    "local_government_id": "352",
    "local_government_name": "JABA",
    "state_id": "18",
    "state_name": "KADUNA",
    "location": null
  },
  {
    "id": "73436",
    "name": "UNG. DAUJI/TSAUNI/ K/GIDAN MAIANGUWA I",
    "registration_area_id": "4007",
    "precise_location": null,
    "abbreviation": "002",
    "units": "002",
    "delimitation": "18/06/08/002",
    "remark": "EXISTING PU",
    "ward_id": "4007",
    "ward_name": "CHORI",
    "local_government_id": "352",
    "local_government_name": "JABA",
    "state_id": "18",
    "state_name": "KADUNA",
    "location": null
  },
  {
    "id": "73437",
    "name": "UNG. BUWARYE/ K/GIDAN MAIANGUWA",
    "registration_area_id": "4007",
    "precise_location": null,
    "abbreviation": "003",
    "units": "003",
    "delimitation": "18/06/08/003",
    "remark": "EXISTING PU",
    "ward_id": "4007",
    "ward_name": "CHORI",
    "local_government_id": "352",
    "local_government_name": "JABA",
    "state_id": "18",
    "state_name": "KADUNA",
    "location": {
      "latitude": 10.5431385,
      "longitude": 7.468659799999999,
      "viewport": {
        "northeast": {
          "lat": 10.54450482989272,
          "lng": 7.470041029892721
        },
        "southwest": {
          "lat": 10.54180517010728,
          "lng": 7.467341370107277
        }
      },
      "formatted_address": "GFV9+7F2, Uguwan Rimi 802125, Kaduna, Nigeria",
      "google_map_url": "https://maps.google.com?q=10.5431385,7.468659799999999",
      "google_place_id": "ChIJM4BjhTq1shERcua9pwElKOU"
    }
  },
  {
    "id": "73438",
    "name": "UNG. BARAKI/ PRIMARY SCHOOL",
    "registration_area_id": "4007",
    "precise_location": null,
    "abbreviation": "004",
    "units": "004",
    "delimitation": "18/06/08/004",
    "remark": "EXISTING PU",
    "ward_id": "4007",
    "ward_name": "CHORI",
    "local_government_id": "352",
    "local_government_name": "JABA",
    "state_id": "18",
    "state_name": "KADUNA",
    "location": {
      "latitude": 9.6626497,
      "longitude": 7.8788513,
      "viewport": {
        "northeast": {
          "lat": 9.663999529892722,
          "lng": 7.880201129892722
        },
        "southwest": {
          "lat": 9.661299870107278,
          "lng": 7.877501470107278
        }
      },
      "formatted_address": "6FX9MV7H+3G2 Ungwan Jaba ARIBI Kaduna, Kurmin Jatau, Nigeria",
      "google_map_url": "https://maps.google.com?q=9.6626497,7.8788513",
      "google_place_id": "ChIJgc7nmVl7UhARag8hSHjGcL4"
    }
  },
  {
    "id": "73439",
    "name": "UNG. GALADIMA I/ K/GIDAN MAIANGUWA II",
    "registration_area_id": "4007",
    "precise_location": null,
    "abbreviation": "005",
    "units": "005",
    "delimitation": "18/06/08/005",
    "remark": "EXISTING PU",
    "ward_id": "4007",
    "ward_name": "CHORI",
    "local_government_id": "352",
    "local_government_name": "JABA",
    "state_id": "18",
    "state_name": "KADUNA",
    "location": null
  },
  {
    "id": "73440",
    "name": "UNG. FADEIK/ PRIMARY SCHOOL",
    "registration_area_id": "4007",
    "precise_location": null,
    "abbreviation": "006",
    "units": "006",
    "delimitation": "18/06/08/006",
    "remark": "EXISTING PU",
    "ward_id": "4007",
    "ward_name": "CHORI",
    "local_government_id": "352",
    "local_government_name": "JABA",
    "state_id": "18",
    "state_name": "KADUNA",
    "location": {
      "latitude": 9.4518772,
      "longitude": 8.0122727,
      "viewport": {
        "northeast": {
          "lat": 9.453075029892723,
          "lng": 8.01350487989272
        },
        "southwest": {
          "lat": 9.45037537010728,
          "lng": 8.010805220107276
        }
      },
      "formatted_address": "6FXCF226+QW4 U/Duhu Sab-chem Kaduna, 801119, Kwoi, Nigeria",
      "google_map_url": "https://maps.google.com?q=9.4518772,8.0122727",
      "google_place_id": "ChIJqfp4mkETUhARFAJuswk1sYE"
    }
  },
  {
    "id": "73441",
    "name": "UNG. MAKAMA/ K/GIDAN MAKAMA",
    "registration_area_id": "4007",
    "precise_location": null,
    "abbreviation": "007",
    "units": "007",
    "delimitation": "18/06/08/007",
    "remark": "EXISTING PU",
    "ward_id": "4007",
    "ward_name": "CHORI",
    "local_government_id": "352",
    "local_government_name": "JABA",
    "state_id": "18",
    "state_name": "KADUNA",
    "location": {
      "latitude": 9.4988948,
      "longitude": 8.032268499999999,
      "viewport": {
        "northeast": {
          "lat": 9.500245879892722,
          "lng": 8.033601879892721
        },
        "southwest": {
          "lat": 9.497546220107278,
          "lng": 8.030902220107278
        }
      },
      "formatted_address": "F2XJ+HW2, 802111, Kaduna, Nigeria",
      "google_map_url": "https://maps.google.com?q=9.4988948,8.032268499999999",
      "google_place_id": "ChIJTSC_XGJsUhAR4D528Oxo2yA"
    }
  },
  {
    "id": "73442",
    "name": "UNG. ARZUKA/ K/GIDAN SARKI",
    "registration_area_id": "4007",
    "precise_location": null,
    "abbreviation": "008",
    "units": "008",
    "delimitation": "18/06/08/008",
    "remark": "EXISTING PU",
    "ward_id": "4007",
    "ward_name": "CHORI",
    "local_government_id": "352",
    "local_government_name": "JABA",
    "state_id": "18",
    "state_name": "KADUNA",
    "location": {
      "latitude": 10.5259871,
      "longitude": 7.409349499999999,
      "viewport": {
        "northeast": {
          "lat": 10.52745322989272,
          "lng": 7.410684429892722
        },
        "southwest": {
          "lat": 10.52475357010728,
          "lng": 7.407984770107278
        }
      },
      "formatted_address": "GCG5+9PQ, Ungwan Sanusi 800282, Kaduna, Nigeria",
      "google_map_url": "https://maps.google.com?q=10.5259871,7.409349499999999",
      "google_place_id": "ChIJfbkElSA1TRAR3BZPL7F7HrU"
    }
  },
  {
    "id": "73443",
    "name": "UNG. MAKAMA CHIROMA/ K/GIDAN CHIROMA",
    "registration_area_id": "4007",
    "precise_location": null,
    "abbreviation": "009",
    "units": "009",
    "delimitation": "18/06/08/009",
    "remark": "EXISTING PU",
    "ward_id": "4007",
    "ward_name": "CHORI",
    "local_government_id": "352",
    "local_government_name": "JABA",
    "state_id": "18",
    "state_name": "KADUNA",
    "location": {
      "latitude": 10.5168475,
      "longitude": 7.451105399999999,
      "viewport": {
        "northeast": {
          "lat": 10.51823482989272,
          "lng": 7.452444879892723
        },
        "southwest": {
          "lat": 10.51553517010728,
          "lng": 7.449745220107279
        }
      },
      "formatted_address": "State University, Entrepreneurship Research and Development Centre, Kaduna State Kaduna, 800221, Unguwan Rimi, Nigeria",
      "google_map_url": "https://maps.google.com?q=10.5168475,7.451105399999999",
      "google_place_id": "ChIJFz1RJwtLTRARmu1NVVH_2Qk"
    }
  },
  {
    "id": "73444",
    "name": "UNG. SARKIN FADEIK/ K/GIDAN SARKI",
    "registration_area_id": "4007",
    "precise_location": null,
    "abbreviation": "010",
    "units": "010",
    "delimitation": "18/06/08/010",
    "remark": "EXISTING PU",
    "ward_id": "4007",
    "ward_name": "CHORI",
    "local_government_id": "352",
    "local_government_name": "JABA",
    "state_id": "18",
    "state_name": "KADUNA",
    "location": {
      "latitude": 10.5259871,
      "longitude": 7.409349499999999,
      "viewport": {
        "northeast": {
          "lat": 10.52745322989272,
          "lng": 7.410684429892722
        },
        "southwest": {
          "lat": 10.52475357010728,
          "lng": 7.407984770107278
        }
      },
      "formatted_address": "GCG5+9PQ, Ungwan Sanusi 800282, Kaduna, Nigeria",
      "google_map_url": "https://maps.google.com?q=10.5259871,7.409349499999999",
      "google_place_id": "ChIJfbkElSA1TRAR3BZPL7F7HrU"
    }
  },
  {
    "id": "73445",
    "name": "UNG. DAUJI/TSAUNI II/ K/GIDAN MAIANGUWA II",
    "registration_area_id": "4007",
    "precise_location": null,
    "abbreviation": "011",
    "units": "011",
    "delimitation": "18/06/08/011",
    "remark": "EXISTING PU",
    "ward_id": "4007",
    "ward_name": "CHORI",
    "local_government_id": "352",
    "local_government_name": "JABA",
    "state_id": "18",
    "state_name": "KADUNA",
    "location": null
  },
  {
    "id": "73446",
    "name": "UNG. GALADIMA II/ K/GIDAN GALADIMA II",
    "registration_area_id": "4007",
    "precise_location": null,
    "abbreviation": "012",
    "units": "012",
    "delimitation": "18/06/08/012",
    "remark": "EXISTING PU",
    "ward_id": "4007",
    "ward_name": "CHORI",
    "local_government_id": "352",
    "local_government_name": "JABA",
    "state_id": "18",
    "state_name": "KADUNA",
    "location": null
  },
  {
    "id": "73447",
    "name": "UNG. KATUKA II",
    "registration_area_id": "4007",
    "precise_location": null,
    "abbreviation": "013",
    "units": "013",
    "delimitation": "18/06/08/013",
    "remark": "NEW PU",
    "ward_id": "4007",
    "ward_name": "CHORI",
    "local_government_id": "352",
    "local_government_name": "JABA",
    "state_id": "18",
    "state_name": "KADUNA",
    "location": null
  }
]