[
  {
    "id": "6827",
    "name": "DAJA/ KOFAR KAIGAMA YAKUBU",
    "registration_area_id": "345",
    "precise_location": null,
    "abbreviation": "001",
    "units": "001",
    "delimitation": "02/15/08/001",
    "remark": "EXISTING PU",
    "ward_id": "345",
    "ward_name": "MUGULBU/ YADAFA",
    "local_government_id": "32",
    "local_government_name": "MUBI SOUTH",
    "state_id": "2",
    "state_name": "ADAMAWA",
    "location": {
      "latitude": 10.1783816,
      "longitude": 13.254805,
      "viewport": {
        "northeast": {
          "lat": 10.2023313,
          "lng": 13.2781214
        },
        "southwest": {
          "lat": 10.1622351,
          "lng": 13.2187366
        }
      },
      "formatted_address": "Mugulbu/ Yadafa, 650211, Nigeria",
      "google_map_url": "https://maps.google.com?q=10.1783816,13.254805",
      "google_place_id": "ChIJnU67Zblc_RARmnWDVeew9DY"
    }
  },
  {
    "id": "6828",
    "name": "GIRJI/ KOFAR JAURO BUBA",
    "registration_area_id": "345",
    "precise_location": null,
    "abbreviation": "002",
    "units": "002",
    "delimitation": "02/15/08/002",
    "remark": "EXISTING PU",
    "ward_id": "345",
    "ward_name": "MUGULBU/ YADAFA",
    "local_government_id": "32",
    "local_government_name": "MUBI SOUTH",
    "state_id": "2",
    "state_name": "ADAMAWA",
    "location": {
      "latitude": 10.1783816,
      "longitude": 13.254805,
      "viewport": {
        "northeast": {
          "lat": 10.2023313,
          "lng": 13.2781214
        },
        "southwest": {
          "lat": 10.1622351,
          "lng": 13.2187366
        }
      },
      "formatted_address": "Mugulbu/ Yadafa, 650211, Nigeria",
      "google_map_url": "https://maps.google.com?q=10.1783816,13.254805",
      "google_place_id": "ChIJnU67Zblc_RARmnWDVeew9DY"
    }
  },
  {
    "id": "6829",
    "name": "LUGDIRA/ KOFAR JAURO MAMRE",
    "registration_area_id": "345",
    "precise_location": null,
    "abbreviation": "003",
    "units": "003",
    "delimitation": "02/15/08/003",
    "remark": "EXISTING PU",
    "ward_id": "345",
    "ward_name": "MUGULBU/ YADAFA",
    "local_government_id": "32",
    "local_government_name": "MUBI SOUTH",
    "state_id": "2",
    "state_name": "ADAMAWA",
    "location": {
      "latitude": 10.1783816,
      "longitude": 13.254805,
      "viewport": {
        "northeast": {
          "lat": 10.2023313,
          "lng": 13.2781214
        },
        "southwest": {
          "lat": 10.1622351,
          "lng": 13.2187366
        }
      },
      "formatted_address": "Mugulbu/ Yadafa, 650211, Nigeria",
      "google_map_url": "https://maps.google.com?q=10.1783816,13.254805",
      "google_place_id": "ChIJnU67Zblc_RARmnWDVeew9DY"
    }
  },
  {
    "id": "6830",
    "name": "MBILLA/ KOFAR JAURO SA'ADU",
    "registration_area_id": "345",
    "precise_location": null,
    "abbreviation": "004",
    "units": "004",
    "delimitation": "02/15/08/004",
    "remark": "EXISTING PU",
    "ward_id": "345",
    "ward_name": "MUGULBU/ YADAFA",
    "local_government_id": "32",
    "local_government_name": "MUBI SOUTH",
    "state_id": "2",
    "state_name": "ADAMAWA",
    "location": {
      "latitude": 10.2800641,
      "longitude": 13.2773629,
      "viewport": {
        "northeast": {
          "lat": 10.28136667989272,
          "lng": 13.27884482989272
        },
        "southwest": {
          "lat": 10.27866702010728,
          "lng": 13.27614517010728
        }
      },
      "formatted_address": "650101, Mubi, Nigeria",
      "google_map_url": "https://maps.google.com?q=10.2800641,13.2773629",
      "google_place_id": "ChIJoZhphjlZ_RARqkX4zzyNOLA"
    }
  },
  {
    "id": "6831",
    "name": "MUDA/ MUDA PRI. SCH. I",
    "registration_area_id": "345",
    "precise_location": null,
    "abbreviation": "005",
    "units": "005",
    "delimitation": "02/15/08/005",
    "remark": "EXISTING PU",
    "ward_id": "345",
    "ward_name": "MUGULBU/ YADAFA",
    "local_government_id": "32",
    "local_government_name": "MUBI SOUTH",
    "state_id": "2",
    "state_name": "ADAMAWA",
    "location": {
      "latitude": 10.1783816,
      "longitude": 13.254805,
      "viewport": {
        "northeast": {
          "lat": 10.2023313,
          "lng": 13.2781214
        },
        "southwest": {
          "lat": 10.1622351,
          "lng": 13.2187366
        }
      },
      "formatted_address": "Mugulbu/ Yadafa, 650211, Nigeria",
      "google_map_url": "https://maps.google.com?q=10.1783816,13.254805",
      "google_place_id": "ChIJnU67Zblc_RARmnWDVeew9DY"
    }
  },
  {
    "id": "6832",
    "name": "MUDA/ MUDA PRI. SCH. II",
    "registration_area_id": "345",
    "precise_location": null,
    "abbreviation": "006",
    "units": "006",
    "delimitation": "02/15/08/006",
    "remark": "EXISTING PU",
    "ward_id": "345",
    "ward_name": "MUGULBU/ YADAFA",
    "local_government_id": "32",
    "local_government_name": "MUBI SOUTH",
    "state_id": "2",
    "state_name": "ADAMAWA",
    "location": {
      "latitude": 10.2707543,
      "longitude": 13.2817639,
      "viewport": {
        "northeast": {
          "lat": 10.27222417989272,
          "lng": 13.28295002989272
        },
        "southwest": {
          "lat": 10.26952452010728,
          "lng": 13.28025037010728
        }
      },
      "formatted_address": "Lokuwa Primary School, 650101, Mubi, Nigeria",
      "google_map_url": "https://maps.google.com?q=10.2707543,13.2817639",
      "google_place_id": "ChIJY7mtnkZZ_RARNvgVNqUkWG8"
    }
  },
  {
    "id": "6833",
    "name": "MUCHAMI/ KOFAR JAURO SA'ADU",
    "registration_area_id": "345",
    "precise_location": null,
    "abbreviation": "007",
    "units": "007",
    "delimitation": "02/15/08/007",
    "remark": "EXISTING PU",
    "ward_id": "345",
    "ward_name": "MUGULBU/ YADAFA",
    "local_government_id": "32",
    "local_government_name": "MUBI SOUTH",
    "state_id": "2",
    "state_name": "ADAMAWA",
    "location": {
      "latitude": 10.2800641,
      "longitude": 13.2773629,
      "viewport": {
        "northeast": {
          "lat": 10.28136667989272,
          "lng": 13.27884482989272
        },
        "southwest": {
          "lat": 10.27866702010728,
          "lng": 13.27614517010728
        }
      },
      "formatted_address": "650101, Mubi, Nigeria",
      "google_map_url": "https://maps.google.com?q=10.2800641,13.2773629",
      "google_place_id": "ChIJoZhphjlZ_RARqkX4zzyNOLA"
    }
  },
  {
    "id": "6834",
    "name": "MUGULBU/ MUGULBU DISPENSARY",
    "registration_area_id": "345",
    "precise_location": null,
    "abbreviation": "008",
    "units": "008",
    "delimitation": "02/15/08/008",
    "remark": "EXISTING PU",
    "ward_id": "345",
    "ward_name": "MUGULBU/ YADAFA",
    "local_government_id": "32",
    "local_government_name": "MUBI SOUTH",
    "state_id": "2",
    "state_name": "ADAMAWA",
    "location": {
      "latitude": 10.2000024,
      "longitude": 13.2233334,
      "viewport": {
        "northeast": {
          "lat": 10.20132322989272,
          "lng": 13.22468322989272
        },
        "southwest": {
          "lat": 10.19862357010728,
          "lng": 13.22198357010727
        }
      },
      "formatted_address": "662F+284, 650211, Mugulbu, Nigeria",
      "google_map_url": "https://maps.google.com?q=10.2000024,13.2233334",
      "google_place_id": "ChIJuznoHuNc_RARFLHA_r7Eeow"
    }
  },
  {
    "id": "6835",
    "name": "NGABDA/ KOFAR JAURO BUBA",
    "registration_area_id": "345",
    "precise_location": null,
    "abbreviation": "009",
    "units": "009",
    "delimitation": "02/15/08/009",
    "remark": "EXISTING PU",
    "ward_id": "345",
    "ward_name": "MUGULBU/ YADAFA",
    "local_government_id": "32",
    "local_government_name": "MUBI SOUTH",
    "state_id": "2",
    "state_name": "ADAMAWA",
    "location": {
      "latitude": 10.2800641,
      "longitude": 13.2773629,
      "viewport": {
        "northeast": {
          "lat": 10.28136667989272,
          "lng": 13.27884482989272
        },
        "southwest": {
          "lat": 10.27866702010728,
          "lng": 13.27614517010728
        }
      },
      "formatted_address": "650101, Mubi, Nigeria",
      "google_map_url": "https://maps.google.com?q=10.2800641,13.2773629",
      "google_place_id": "ChIJoZhphjlZ_RARqkX4zzyNOLA"
    }
  },
  {
    "id": "6836",
    "name": "BULADEGA",
    "registration_area_id": "345",
    "precise_location": null,
    "abbreviation": "010",
    "units": "010",
    "delimitation": "02/15/08/010",
    "remark": "NEW PU",
    "ward_id": "345",
    "ward_name": "MUGULBU/ YADAFA",
    "local_government_id": "32",
    "local_government_name": "MUBI SOUTH",
    "state_id": "2",
    "state_name": "ADAMAWA",
    "location": {
      "latitude": 10.2093144,
      "longitude": 13.1433991,
      "viewport": {
        "northeast": {
          "lat": 10.2099241,
          "lng": 13.155769
        },
        "southwest": {
          "lat": 10.198535,
          "lng": 13.1424351
        }
      },
      "formatted_address": "650106, Buladega, Nigeria",
      "google_map_url": "https://maps.google.com?q=10.2093144,13.1433991",
      "google_place_id": "ChIJZWFEMb1n_RARepepMlaoklU"
    }
  }
]