[
  {
    "id": "5582",
    "name": "ALH. MAYINE/ KOFAR J. ALH. MAYINE",
    "registration_area_id": "268",
    "precise_location": null,
    "abbreviation": "001",
    "units": "001",
    "delimitation": "02/08/11/001",
    "remark": "EXISTING PU",
    "ward_id": "268",
    "ward_name": "YELLI",
    "local_government_id": "25",
    "local_government_name": "JADA",
    "state_id": "2",
    "state_name": "ADAMAWA",
    "location": null
  },
  {
    "id": "5583",
    "name": "ALH. JATAU/ KOFAR J. ALH. JATAU",
    "registration_area_id": "268",
    "precise_location": null,
    "abbreviation": "002",
    "units": "002",
    "delimitation": "02/08/11/002",
    "remark": "EXISTING PU",
    "ward_id": "268",
    "ward_name": "YELLI",
    "local_government_id": "25",
    "local_government_name": "JADA",
    "state_id": "2",
    "state_name": "ADAMAWA",
    "location": null
  },
  {
    "id": "5584",
    "name": "BELLO NDAMBA/ WURO USMAN PRY. SCH.",
    "registration_area_id": "268",
    "precise_location": null,
    "abbreviation": "003",
    "units": "003",
    "delimitation": "02/08/11/003",
    "remark": "EXISTING PU",
    "ward_id": "268",
    "ward_name": "YELLI",
    "local_government_id": "25",
    "local_government_name": "JADA",
    "state_id": "2",
    "state_name": "ADAMAWA",
    "location": {
      "latitude": 9.05922,
      "longitude": 12.06217,
      "viewport": {
        "northeast": {
          "lat": 9.06056022989272,
          "lng": 12.06348547989272
        },
        "southwest": {
          "lat": 9.057860570107277,
          "lng": 12.06078582010728
        }
      },
      "formatted_address": "5 T JUNCTION MAYO BELWA, ADAMAWA STATE #, Mayo Belwa, Nigeria",
      "google_map_url": "https://maps.google.com?q=9.05922,12.06217",
      "google_place_id": "ChIJv7Mj8gGr_hARjOVFmjOoVmg"
    }
  },
  {
    "id": "5585",
    "name": "KOJOLI 2 PRY SCH (BIKKOI KAJI)",
    "registration_area_id": "268",
    "precise_location": null,
    "abbreviation": "004",
    "units": "004",
    "delimitation": "02/08/11/004",
    "remark": "EXISTING PU",
    "ward_id": "268",
    "ward_name": "YELLI",
    "local_government_id": "25",
    "local_government_name": "JADA",
    "state_id": "2",
    "state_name": "ADAMAWA",
    "location": {
      "latitude": 8.7454685,
      "longitude": 12.1611997,
      "viewport": {
        "northeast": {
          "lat": 8.747260279892721,
          "lng": 12.16245462989272
        },
        "southwest": {
          "lat": 8.744560620107277,
          "lng": 12.15975497010728
        }
      },
      "formatted_address": "Along kojoli road, Jada, Nigeria",
      "google_map_url": "https://maps.google.com?q=8.7454685,12.1611997",
      "google_place_id": "ChIJAzWMuvXj-xARkJEHf2icm3w"
    }
  },
  {
    "id": "5586",
    "name": "MBOJU MAJADU",
    "registration_area_id": "268",
    "precise_location": null,
    "abbreviation": "005",
    "units": "005",
    "delimitation": "02/08/11/005",
    "remark": "EXISTING PU",
    "ward_id": "268",
    "ward_name": "YELLI",
    "local_government_id": "25",
    "local_government_name": "JADA",
    "state_id": "2",
    "state_name": "ADAMAWA",
    "location": {
      "latitude": 8.7653111,
      "longitude": 12.1575544,
      "viewport": {
        "northeast": {
          "lat": 8.775801900000001,
          "lng": 12.169727
        },
        "southwest": {
          "lat": 8.732424,
          "lng": 12.1427131
        }
      },
      "formatted_address": "641107, Jada, Nigeria",
      "google_map_url": "https://maps.google.com?q=8.7653111,12.1575544",
      "google_place_id": "ChIJx7dkTozj-xARTEnkA8TLVRw"
    }
  },
  {
    "id": "5587",
    "name": "BORKONO/ BORKONO PRY. SCH.",
    "registration_area_id": "268",
    "precise_location": null,
    "abbreviation": "006",
    "units": "006",
    "delimitation": "02/08/11/006",
    "remark": "EXISTING PU",
    "ward_id": "268",
    "ward_name": "YELLI",
    "local_government_id": "25",
    "local_government_name": "JADA",
    "state_id": "2",
    "state_name": "ADAMAWA",
    "location": {
      "latitude": 8.7566331,
      "longitude": 12.1676729,
      "viewport": {
        "northeast": {
          "lat": 8.757934879892721,
          "lng": 12.16868727989272
        },
        "southwest": {
          "lat": 8.755235220107277,
          "lng": 12.16598762010728
        }
      },
      "formatted_address": "Q549+M33, 641107, Jada, Nigeria",
      "google_map_url": "https://maps.google.com?q=8.7566331,12.1676729",
      "google_place_id": "ChIJQSlC3nbk-xARaQ60LjIMm88"
    }
  },
  {
    "id": "5588",
    "name": "DAGGA/ JAGGI/ KOFAR JAURO DAGGA",
    "registration_area_id": "268",
    "precise_location": null,
    "abbreviation": "007",
    "units": "007",
    "delimitation": "02/08/11/007",
    "remark": "EXISTING PU",
    "ward_id": "268",
    "ward_name": "YELLI",
    "local_government_id": "25",
    "local_government_name": "JADA",
    "state_id": "2",
    "state_name": "ADAMAWA",
    "location": null
  },
  {
    "id": "5589",
    "name": "GADJO/ GADJO PRY. SCH.",
    "registration_area_id": "268",
    "precise_location": null,
    "abbreviation": "008",
    "units": "008",
    "delimitation": "02/08/11/008",
    "remark": "EXISTING PU",
    "ward_id": "268",
    "ward_name": "YELLI",
    "local_government_id": "25",
    "local_government_name": "JADA",
    "state_id": "2",
    "state_name": "ADAMAWA",
    "location": {
      "latitude": 8.749243900000002,
      "longitude": 12.1464315,
      "viewport": {
        "northeast": {
          "lat": 8.750820779892722,
          "lng": 12.14816067989272
        },
        "southwest": {
          "lat": 8.748121120107278,
          "lng": 12.14546102010728
        }
      },
      "formatted_address": "P4XW+PHM, 641107, Jada, Nigeria",
      "google_map_url": "https://maps.google.com?q=8.749243900000002,12.1464315",
      "google_place_id": "ChIJ-R-ZrOzj-xARC8RukS1q5jk"
    }
  },
  {
    "id": "5590",
    "name": "KALI/ BAYERO/ KOFAR JAURO KALI",
    "registration_area_id": "268",
    "precise_location": null,
    "abbreviation": "009",
    "units": "009",
    "delimitation": "02/08/11/009",
    "remark": "EXISTING PU",
    "ward_id": "268",
    "ward_name": "YELLI",
    "local_government_id": "25",
    "local_government_name": "JADA",
    "state_id": "2",
    "state_name": "ADAMAWA",
    "location": null
  },
  {
    "id": "5591",
    "name": "KOJOLI I/ KOJOLI PRY. SCH.",
    "registration_area_id": "268",
    "precise_location": null,
    "abbreviation": "010",
    "units": "010",
    "delimitation": "02/08/11/010",
    "remark": "EXISTING PU",
    "ward_id": "268",
    "ward_name": "YELLI",
    "local_government_id": "25",
    "local_government_name": "JADA",
    "state_id": "2",
    "state_name": "ADAMAWA",
    "location": {
      "latitude": 8.7454685,
      "longitude": 12.1611997,
      "viewport": {
        "northeast": {
          "lat": 8.747260279892721,
          "lng": 12.16245462989272
        },
        "southwest": {
          "lat": 8.744560620107277,
          "lng": 12.15975497010728
        }
      },
      "formatted_address": "Along kojoli road, Jada, Nigeria",
      "google_map_url": "https://maps.google.com?q=8.7454685,12.1611997",
      "google_place_id": "ChIJAzWMuvXj-xARkJEHf2icm3w"
    }
  },
  {
    "id": "5592",
    "name": "KOJOLI II/ KOFAR JAURO FULANI",
    "registration_area_id": "268",
    "precise_location": null,
    "abbreviation": "011",
    "units": "011",
    "delimitation": "02/08/11/011",
    "remark": "EXISTING PU",
    "ward_id": "268",
    "ward_name": "YELLI",
    "local_government_id": "25",
    "local_government_name": "JADA",
    "state_id": "2",
    "state_name": "ADAMAWA",
    "location": {
      "latitude": 9.3264751,
      "longitude": 12.3983853,
      "viewport": {
        "northeast": {
          "lat": 9.327353779892722,
          "lng": 12.39933772989272
        },
        "southwest": {
          "lat": 9.324654120107278,
          "lng": 12.39663807010728
        }
      },
      "formatted_address": "9 Ardo Usman Road, 640284, Jada, Nigeria",
      "google_map_url": "https://maps.google.com?q=9.3264751,12.3983853",
      "google_place_id": "ChIJ4dCBvkE__BAR_uPIR-GDN-A"
    }
  },
  {
    "id": "5593",
    "name": "NAMBERU/ NAMBERU PRY. SCH.",
    "registration_area_id": "268",
    "precise_location": null,
    "abbreviation": "012",
    "units": "012",
    "delimitation": "02/08/11/012",
    "remark": "EXISTING PU",
    "ward_id": "268",
    "ward_name": "YELLI",
    "local_government_id": "25",
    "local_government_name": "JADA",
    "state_id": "2",
    "state_name": "ADAMAWA",
    "location": {
      "latitude": 8.7566331,
      "longitude": 12.1676729,
      "viewport": {
        "northeast": {
          "lat": 8.757934879892721,
          "lng": 12.16868727989272
        },
        "southwest": {
          "lat": 8.755235220107277,
          "lng": 12.16598762010728
        }
      },
      "formatted_address": "Q549+M33, 641107, Jada, Nigeria",
      "google_map_url": "https://maps.google.com?q=8.7566331,12.1676729",
      "google_place_id": "ChIJQSlC3nbk-xARaQ60LjIMm88"
    }
  },
  {
    "id": "5594",
    "name": "SAPEO/ SAPEO PRY. SCH.",
    "registration_area_id": "268",
    "precise_location": null,
    "abbreviation": "013",
    "units": "013",
    "delimitation": "02/08/11/013",
    "remark": "EXISTING PU",
    "ward_id": "268",
    "ward_name": "YELLI",
    "local_government_id": "25",
    "local_government_name": "JADA",
    "state_id": "2",
    "state_name": "ADAMAWA",
    "location": {
      "latitude": 8.7566331,
      "longitude": 12.1676729,
      "viewport": {
        "northeast": {
          "lat": 8.757934879892721,
          "lng": 12.16868727989272
        },
        "southwest": {
          "lat": 8.755235220107277,
          "lng": 12.16598762010728
        }
      },
      "formatted_address": "Q549+M33, 641107, Jada, Nigeria",
      "google_map_url": "https://maps.google.com?q=8.7566331,12.1676729",
      "google_place_id": "ChIJQSlC3nbk-xARaQ60LjIMm88"
    }
  },
  {
    "id": "5595",
    "name": "SUDI CHEDE/ KOFAR JAURO SUDI",
    "registration_area_id": "268",
    "precise_location": null,
    "abbreviation": "014",
    "units": "014",
    "delimitation": "02/08/11/014",
    "remark": "EXISTING PU",
    "ward_id": "268",
    "ward_name": "YELLI",
    "local_government_id": "25",
    "local_government_name": "JADA",
    "state_id": "2",
    "state_name": "ADAMAWA",
    "location": null
  },
  {
    "id": "5596",
    "name": "KOJOLI 3 PRY SCH",
    "registration_area_id": "268",
    "precise_location": null,
    "abbreviation": "015",
    "units": "015",
    "delimitation": "02/08/11/015",
    "remark": "EXISTING PU",
    "ward_id": "268",
    "ward_name": "YELLI",
    "local_government_id": "25",
    "local_government_name": "JADA",
    "state_id": "2",
    "state_name": "ADAMAWA",
    "location": {
      "latitude": 8.7653789,
      "longitude": 12.1574859,
      "viewport": {
        "northeast": {
          "lat": 8.766678829892722,
          "lng": 12.15883047989272
        },
        "southwest": {
          "lat": 8.763979170107278,
          "lng": 12.15613082010728
        }
      },
      "formatted_address": "Local Government Area, Near Mararraba Kojoli, Jada, Nigeria",
      "google_map_url": "https://maps.google.com?q=8.7653789,12.1574859",
      "google_place_id": "ChIJg79yT0vj-xAR2u1or67-i8Y"
    }
  }
]