[
  {
    "id": "95134",
    "name": "KURAMI - PRI SCH.",
    "registration_area_id": "4831",
    "precise_location": null,
    "abbreviation": "001",
    "units": "001",
    "delimitation": "20/01/03/001",
    "remark": "EXISTING PU",
    "ward_id": "4831",
    "ward_name": "KURAMI/YANKWANI",
    "local_government_id": "414",
    "local_government_name": "BAKORI",
    "state_id": "20",
    "state_name": "KATSINA",
    "location": {
      "latitude": 11.5377036,
      "longitude": 7.3626708,
      "viewport": {
        "northeast": {
          "lat": 11.53902317989272,
          "lng": 7.363922329892723
        },
        "southwest": {
          "lat": 11.53632352010728,
          "lng": 7.361222670107279
        }
      },
      "formatted_address": "Kurami Primary School, 831101, Kurani, Nigeria",
      "google_map_url": "https://maps.google.com?q=11.5377036,7.3626708",
      "google_place_id": "ChIJy_eWiUVBshER4eKeRGMSGJg"
    }
  },
  {
    "id": "95135",
    "name": "KURAMI GARI - T.V. CENTRE",
    "registration_area_id": "4831",
    "precise_location": null,
    "abbreviation": "002",
    "units": "002",
    "delimitation": "20/01/03/002",
    "remark": "EXISTING PU",
    "ward_id": "4831",
    "ward_name": "KURAMI/YANKWANI",
    "local_government_id": "414",
    "local_government_name": "BAKORI",
    "state_id": "20",
    "state_name": "KATSINA",
    "location": {
      "latitude": 12.9736159,
      "longitude": 7.5810965,
      "viewport": {
        "northeast": {
          "lat": 12.97504327989272,
          "lng": 7.582383229892721
        },
        "southwest": {
          "lat": 12.97234362010728,
          "lng": 7.579683570107277
        }
      },
      "formatted_address": "XHFJ+CCX, Batsari Rd, 820252, Katsina, Nigeria",
      "google_map_url": "https://maps.google.com?q=12.9736159,7.5810965",
      "google_place_id": "ChIJx1T3KVs9sBERHj_-KC24Cps"
    }
  },
  {
    "id": "95136",
    "name": "NABUKKA 1- PRI SCH.",
    "registration_area_id": "4831",
    "precise_location": null,
    "abbreviation": "003",
    "units": "003",
    "delimitation": "20/01/03/003",
    "remark": "EXISTING PU",
    "ward_id": "4831",
    "ward_name": "KURAMI/YANKWANI",
    "local_government_id": "414",
    "local_government_name": "BAKORI",
    "state_id": "20",
    "state_name": "KATSINA",
    "location": {
      "latitude": 11.5457005,
      "longitude": 7.3360015,
      "viewport": {
        "northeast": {
          "lat": 11.54704112989272,
          "lng": 7.337371129892722
        },
        "southwest": {
          "lat": 11.54434147010728,
          "lng": 7.334671470107278
        }
      },
      "formatted_address": "Nabukka Primary School, 831101, Funtua, Nigeria",
      "google_map_url": "https://maps.google.com?q=11.5457005,7.3360015",
      "google_place_id": "ChIJn3xbqLhGshERqiTjL_WPFXI"
    }
  },
  {
    "id": "95137",
    "name": "NABUKKA II - K/G MAI UNG",
    "registration_area_id": "4831",
    "precise_location": null,
    "abbreviation": "004",
    "units": "004",
    "delimitation": "20/01/03/004",
    "remark": "EXISTING PU",
    "ward_id": "4831",
    "ward_name": "KURAMI/YANKWANI",
    "local_government_id": "414",
    "local_government_name": "BAKORI",
    "state_id": "20",
    "state_name": "KATSINA",
    "location": {
      "latitude": 11.5457005,
      "longitude": 7.3360015,
      "viewport": {
        "northeast": {
          "lat": 11.54704112989272,
          "lng": 7.337371129892722
        },
        "southwest": {
          "lat": 11.54434147010728,
          "lng": 7.334671470107278
        }
      },
      "formatted_address": "Nabukka Primary School, 831101, Funtua, Nigeria",
      "google_map_url": "https://maps.google.com?q=11.5457005,7.3360015",
      "google_place_id": "ChIJn3xbqLhGshERqiTjL_WPFXI"
    }
  },
  {
    "id": "95138",
    "name": "KAFI AWO - K/G MAI UNG",
    "registration_area_id": "4831",
    "precise_location": null,
    "abbreviation": "005",
    "units": "005",
    "delimitation": "20/01/03/005",
    "remark": "EXISTING PU",
    "ward_id": "4831",
    "ward_name": "KURAMI/YANKWANI",
    "local_government_id": "414",
    "local_government_name": "BAKORI",
    "state_id": "20",
    "state_name": "KATSINA",
    "location": null
  },
  {
    "id": "95139",
    "name": "MASHANYA - K/G ALH. AMINU",
    "registration_area_id": "4831",
    "precise_location": null,
    "abbreviation": "006",
    "units": "006",
    "delimitation": "20/01/03/006",
    "remark": "EXISTING PU",
    "ward_id": "4831",
    "ward_name": "KURAMI/YANKWANI",
    "local_government_id": "414",
    "local_government_name": "BAKORI",
    "state_id": "20",
    "state_name": "KATSINA",
    "location": null
  },
  {
    "id": "95140",
    "name": "DOKA - K/G MAI UNG",
    "registration_area_id": "4831",
    "precise_location": null,
    "abbreviation": "007",
    "units": "007",
    "delimitation": "20/01/03/007",
    "remark": "EXISTING PU",
    "ward_id": "4831",
    "ward_name": "KURAMI/YANKWANI",
    "local_government_id": "414",
    "local_government_name": "BAKORI",
    "state_id": "20",
    "state_name": "KATSINA",
    "location": null
  },
  {
    "id": "95141",
    "name": "TARZANA - K/G MAI UNG",
    "registration_area_id": "4831",
    "precise_location": null,
    "abbreviation": "008",
    "units": "008",
    "delimitation": "20/01/03/008",
    "remark": "EXISTING PU",
    "ward_id": "4831",
    "ward_name": "KURAMI/YANKWANI",
    "local_government_id": "414",
    "local_government_name": "BAKORI",
    "state_id": "20",
    "state_name": "KATSINA",
    "location": null
  },
  {
    "id": "95142",
    "name": "SAJO I K/G  MAI UNG.",
    "registration_area_id": "4831",
    "precise_location": null,
    "abbreviation": "009",
    "units": "009",
    "delimitation": "20/01/03/009",
    "remark": "EXISTING PU",
    "ward_id": "4831",
    "ward_name": "KURAMI/YANKWANI",
    "local_government_id": "414",
    "local_government_name": "BAKORI",
    "state_id": "20",
    "state_name": "KATSINA",
    "location": null
  },
  {
    "id": "95143",
    "name": "SAJO II PRI SCHOOL",
    "registration_area_id": "4831",
    "precise_location": null,
    "abbreviation": "010",
    "units": "010",
    "delimitation": "20/01/03/010",
    "remark": "EXISTING PU",
    "ward_id": "4831",
    "ward_name": "KURAMI/YANKWANI",
    "local_government_id": "414",
    "local_government_name": "BAKORI",
    "state_id": "20",
    "state_name": "KATSINA",
    "location": {
      "latitude": 11.5188624,
      "longitude": 7.3142563,
      "viewport": {
        "northeast": {
          "lat": 11.52018717989272,
          "lng": 7.315615429892723
        },
        "southwest": {
          "lat": 11.51748752010728,
          "lng": 7.312915770107279
        }
      },
      "formatted_address": "G897+HM5, 830101, Funtua, Nigeria",
      "google_map_url": "https://maps.google.com?q=11.5188624,7.3142563",
      "google_place_id": "ChIJjfcLrJVFshER0l3gQqvmsio"
    }
  },
  {
    "id": "95144",
    "name": "SAJO III - K/G ALH. ALI",
    "registration_area_id": "4831",
    "precise_location": null,
    "abbreviation": "011",
    "units": "011",
    "delimitation": "20/01/03/011",
    "remark": "EXISTING PU",
    "ward_id": "4831",
    "ward_name": "KURAMI/YANKWANI",
    "local_government_id": "414",
    "local_government_name": "BAKORI",
    "state_id": "20",
    "state_name": "KATSINA",
    "location": null
  },
  {
    "id": "95145",
    "name": "SAJO IV - K/G MAI UNG",
    "registration_area_id": "4831",
    "precise_location": null,
    "abbreviation": "012",
    "units": "012",
    "delimitation": "20/01/03/012",
    "remark": "EXISTING PU",
    "ward_id": "4831",
    "ward_name": "KURAMI/YANKWANI",
    "local_government_id": "414",
    "local_government_name": "BAKORI",
    "state_id": "20",
    "state_name": "KATSINA",
    "location": null
  },
  {
    "id": "95146",
    "name": "TSIGI - K/GMAI UNG",
    "registration_area_id": "4831",
    "precise_location": null,
    "abbreviation": "013",
    "units": "013",
    "delimitation": "20/01/03/013",
    "remark": "EXISTING PU",
    "ward_id": "4831",
    "ward_name": "KURAMI/YANKWANI",
    "local_government_id": "414",
    "local_government_name": "BAKORI",
    "state_id": "20",
    "state_name": "KATSINA",
    "location": {
      "latitude": 11.5576678,
      "longitude": 7.424563,
      "viewport": {
        "northeast": {
          "lat": 11.55909947989272,
          "lng": 7.425883179892722
        },
        "southwest": {
          "lat": 11.55639982010728,
          "lng": 7.423183520107278
        }
      },
      "formatted_address": "No. 4 Yankwani Near Jumaat Mousqe Bakori Bakori Yankwani Ajiya Road, Katsina, Nigeria",
      "google_map_url": "https://maps.google.com?q=11.5576678,7.424563",
      "google_place_id": "ChIJyxc3JJlBshERWyZ73mmWueI"
    }
  },
  {
    "id": "95147",
    "name": "UNG. LADAN - K/G MAI UNG",
    "registration_area_id": "4831",
    "precise_location": null,
    "abbreviation": "014",
    "units": "014",
    "delimitation": "20/01/03/014",
    "remark": "EXISTING PU",
    "ward_id": "4831",
    "ward_name": "KURAMI/YANKWANI",
    "local_government_id": "414",
    "local_government_name": "BAKORI",
    "state_id": "20",
    "state_name": "KATSINA",
    "location": null
  },
  {
    "id": "95148",
    "name": "RAFIN KANYA/UNG NAINO - K/G MAI UNG",
    "registration_area_id": "4831",
    "precise_location": null,
    "abbreviation": "015",
    "units": "015",
    "delimitation": "20/01/03/015",
    "remark": "EXISTING PU",
    "ward_id": "4831",
    "ward_name": "KURAMI/YANKWANI",
    "local_government_id": "414",
    "local_government_name": "BAKORI",
    "state_id": "20",
    "state_name": "KATSINA",
    "location": null
  },
  {
    "id": "95149",
    "name": "RINJI - K/G MAI UNG",
    "registration_area_id": "4831",
    "precise_location": null,
    "abbreviation": "016",
    "units": "016",
    "delimitation": "20/01/03/016",
    "remark": "EXISTING PU",
    "ward_id": "4831",
    "ward_name": "KURAMI/YANKWANI",
    "local_government_id": "414",
    "local_government_name": "BAKORI",
    "state_id": "20",
    "state_name": "KATSINA",
    "location": null
  },
  {
    "id": "95150",
    "name": "YANKWANI GARI I - K/G MAI GARI",
    "registration_area_id": "4831",
    "precise_location": null,
    "abbreviation": "017",
    "units": "017",
    "delimitation": "20/01/03/017",
    "remark": "EXISTING PU",
    "ward_id": "4831",
    "ward_name": "KURAMI/YANKWANI",
    "local_government_id": "414",
    "local_government_name": "BAKORI",
    "state_id": "20",
    "state_name": "KATSINA",
    "location": {
      "latitude": 11.5800147,
      "longitude": 7.3712815,
      "viewport": {
        "northeast": {
          "lat": 11.58138877989272,
          "lng": 7.372604729892721
        },
        "southwest": {
          "lat": 11.57868912010728,
          "lng": 7.369905070107277
        }
      },
      "formatted_address": "Yankwani Gari Primary School, 831101, Yankwani, Nigeria",
      "google_map_url": "https://maps.google.com?q=11.5800147,7.3712815",
      "google_place_id": "ChIJpYwrw8JAshERVYh3_VyKi6s"
    }
  },
  {
    "id": "95151",
    "name": "YANKWANI GARI II PRI.SCH",
    "registration_area_id": "4831",
    "precise_location": null,
    "abbreviation": "018",
    "units": "018",
    "delimitation": "20/01/03/018",
    "remark": "EXISTING PU",
    "ward_id": "4831",
    "ward_name": "KURAMI/YANKWANI",
    "local_government_id": "414",
    "local_government_name": "BAKORI",
    "state_id": "20",
    "state_name": "KATSINA",
    "location": {
      "latitude": 11.5576678,
      "longitude": 7.424563,
      "viewport": {
        "northeast": {
          "lat": 11.55909947989272,
          "lng": 7.425883179892722
        },
        "southwest": {
          "lat": 11.55639982010728,
          "lng": 7.423183520107278
        }
      },
      "formatted_address": "No. 4 Yankwani Near Jumaat Mousqe Bakori Bakori Yankwani Ajiya Road, Katsina, Nigeria",
      "google_map_url": "https://maps.google.com?q=11.5576678,7.424563",
      "google_place_id": "ChIJyxc3JJlBshERWyZ73mmWueI"
    }
  },
  {
    "id": "95152",
    "name": "YANKWANI YAMMA - K/G MAI UNG",
    "registration_area_id": "4831",
    "precise_location": null,
    "abbreviation": "019",
    "units": "019",
    "delimitation": "20/01/03/019",
    "remark": "EXISTING PU",
    "ward_id": "4831",
    "ward_name": "KURAMI/YANKWANI",
    "local_government_id": "414",
    "local_government_name": "BAKORI",
    "state_id": "20",
    "state_name": "KATSINA",
    "location": null
  },
  {
    "id": "95153",
    "name": "LAYIN RAMA - K/G MAI UNG",
    "registration_area_id": "4831",
    "precise_location": null,
    "abbreviation": "020",
    "units": "020",
    "delimitation": "20/01/03/020",
    "remark": "EXISTING PU",
    "ward_id": "4831",
    "ward_name": "KURAMI/YANKWANI",
    "local_government_id": "414",
    "local_government_name": "BAKORI",
    "state_id": "20",
    "state_name": "KATSINA",
    "location": null
  },
  {
    "id": "95154",
    "name": "GANJAR DANGOGGO - K/G MAI UNG",
    "registration_area_id": "4831",
    "precise_location": null,
    "abbreviation": "021",
    "units": "021",
    "delimitation": "20/01/03/021",
    "remark": "EXISTING PU",
    "ward_id": "4831",
    "ward_name": "KURAMI/YANKWANI",
    "local_government_id": "414",
    "local_government_name": "BAKORI",
    "state_id": "20",
    "state_name": "KATSINA",
    "location": null
  },
  {
    "id": "95155",
    "name": "KARMA BA,AJO - K/G MAI UNG",
    "registration_area_id": "4831",
    "precise_location": null,
    "abbreviation": "022",
    "units": "022",
    "delimitation": "20/01/03/022",
    "remark": "EXISTING PU",
    "ward_id": "4831",
    "ward_name": "KURAMI/YANKWANI",
    "local_government_id": "414",
    "local_government_name": "BAKORI",
    "state_id": "20",
    "state_name": "KATSINA",
    "location": null
  },
  {
    "id": "95156",
    "name": "DANBAURE/UNG KURAMI - PRI SCHOOL",
    "registration_area_id": "4831",
    "precise_location": null,
    "abbreviation": "023",
    "units": "023",
    "delimitation": "20/01/03/023",
    "remark": "EXISTING PU",
    "ward_id": "4831",
    "ward_name": "KURAMI/YANKWANI",
    "local_government_id": "414",
    "local_government_name": "BAKORI",
    "state_id": "20",
    "state_name": "KATSINA",
    "location": {
      "latitude": 11.535346,
      "longitude": 7.349608,
      "viewport": {
        "northeast": {
          "lat": 11.53685247989272,
          "lng": 7.350912929892721
        },
        "southwest": {
          "lat": 11.53415282010728,
          "lng": 7.348213270107277
        }
      },
      "formatted_address": "G8PX+4RX, Bakori Rd, 831101, Funtua, Nigeria",
      "google_map_url": "https://maps.google.com?q=11.535346,7.349608",
      "google_place_id": "ChIJa_Z5krJGshERDQwwwiSW_Dc"
    }
  },
  {
    "id": "95157",
    "name": "MAKERA FULANI - K/G MAI UNG",
    "registration_area_id": "4831",
    "precise_location": null,
    "abbreviation": "024",
    "units": "024",
    "delimitation": "20/01/03/024",
    "remark": "EXISTING PU",
    "ward_id": "4831",
    "ward_name": "KURAMI/YANKWANI",
    "local_government_id": "414",
    "local_government_name": "BAKORI",
    "state_id": "20",
    "state_name": "KATSINA",
    "location": null
  },
  {
    "id": "95158",
    "name": "MIJIN YAWA DANDI - K/G MAI UNG",
    "registration_area_id": "4831",
    "precise_location": null,
    "abbreviation": "025",
    "units": "025",
    "delimitation": "20/01/03/025",
    "remark": "EXISTING PU",
    "ward_id": "4831",
    "ward_name": "KURAMI/YANKWANI",
    "local_government_id": "414",
    "local_government_name": "BAKORI",
    "state_id": "20",
    "state_name": "KATSINA",
    "location": null
  },
  {
    "id": "95159",
    "name": "GIDAN YAU NA TURA - K/G MAI UNG",
    "registration_area_id": "4831",
    "precise_location": null,
    "abbreviation": "026",
    "units": "026",
    "delimitation": "20/01/03/026",
    "remark": "EXISTING PU",
    "ward_id": "4831",
    "ward_name": "KURAMI/YANKWANI",
    "local_government_id": "414",
    "local_government_name": "BAKORI",
    "state_id": "20",
    "state_name": "KATSINA",
    "location": null
  },
  {
    "id": "95160",
    "name": "YANKWANI MUMINI - PRI SCH.",
    "registration_area_id": "4831",
    "precise_location": null,
    "abbreviation": "027",
    "units": "027",
    "delimitation": "20/01/03/027",
    "remark": "EXISTING PU",
    "ward_id": "4831",
    "ward_name": "KURAMI/YANKWANI",
    "local_government_id": "414",
    "local_government_name": "BAKORI",
    "state_id": "20",
    "state_name": "KATSINA",
    "location": {
      "latitude": 11.5576678,
      "longitude": 7.424563,
      "viewport": {
        "northeast": {
          "lat": 11.55909947989272,
          "lng": 7.425883179892722
        },
        "southwest": {
          "lat": 11.55639982010728,
          "lng": 7.423183520107278
        }
      },
      "formatted_address": "No. 4 Yankwani Near Jumaat Mousqe Bakori Bakori Yankwani Ajiya Road, Katsina, Nigeria",
      "google_map_url": "https://maps.google.com?q=11.5576678,7.424563",
      "google_place_id": "ChIJyxc3JJlBshERWyZ73mmWueI"
    }
  },
  {
    "id": "95161",
    "name": "SARKIN FULANI BAKA - K/G MAI UNG",
    "registration_area_id": "4831",
    "precise_location": null,
    "abbreviation": "028",
    "units": "028",
    "delimitation": "20/01/03/028",
    "remark": "EXISTING PU",
    "ward_id": "4831",
    "ward_name": "KURAMI/YANKWANI",
    "local_government_id": "414",
    "local_government_name": "BAKORI",
    "state_id": "20",
    "state_name": "KATSINA",
    "location": null
  },
  {
    "id": "95162",
    "name": "BELEN GADA - PRI SCHOOL",
    "registration_area_id": "4831",
    "precise_location": null,
    "abbreviation": "029",
    "units": "029",
    "delimitation": "20/01/03/029",
    "remark": "EXISTING PU",
    "ward_id": "4831",
    "ward_name": "KURAMI/YANKWANI",
    "local_government_id": "414",
    "local_government_name": "BAKORI",
    "state_id": "20",
    "state_name": "KATSINA",
    "location": null
  },
  {
    "id": "95163",
    "name": "KURAMI GARI I KURAMI PRI. SCH. (NEW)",
    "registration_area_id": "4831",
    "precise_location": null,
    "abbreviation": "030",
    "units": "030",
    "delimitation": "20/01/03/030",
    "remark": "NEW PU",
    "ward_id": "4831",
    "ward_name": "KURAMI/YANKWANI",
    "local_government_id": "414",
    "local_government_name": "BAKORI",
    "state_id": "20",
    "state_name": "KATSINA",
    "location": {
      "latitude": 11.555004,
      "longitude": 7.422210499999999,
      "viewport": {
        "northeast": {
          "lat": 11.55632767989272,
          "lng": 7.423582379892723
        },
        "southwest": {
          "lat": 11.55362802010728,
          "lng": 7.420882720107279
        }
      },
      "formatted_address": "Nadabo Primary School, Road 831101, Bakori, Nigeria",
      "google_map_url": "https://maps.google.com?q=11.555004,7.422210499999999",
      "google_place_id": "ChIJZbVy_8VBshERx1kKm3UDI8o"
    }
  },
  {
    "id": "95164",
    "name": "KURAMI GARI I, UNG. TUMBAU",
    "registration_area_id": "4831",
    "precise_location": null,
    "abbreviation": "031",
    "units": "031",
    "delimitation": "20/01/03/031",
    "remark": "NEW PU",
    "ward_id": "4831",
    "ward_name": "KURAMI/YANKWANI",
    "local_government_id": "414",
    "local_government_name": "BAKORI",
    "state_id": "20",
    "state_name": "KATSINA",
    "location": {
      "latitude": 11.5576678,
      "longitude": 7.424563,
      "viewport": {
        "northeast": {
          "lat": 11.55909947989272,
          "lng": 7.425883179892722
        },
        "southwest": {
          "lat": 11.55639982010728,
          "lng": 7.423183520107278
        }
      },
      "formatted_address": "No. 4 Yankwani Near Jumaat Mousqe Bakori Bakori Yankwani Ajiya Road, Katsina, Nigeria",
      "google_map_url": "https://maps.google.com?q=11.5576678,7.424563",
      "google_place_id": "ChIJyxc3JJlBshERWyZ73mmWueI"
    }
  },
  {
    "id": "95165",
    "name": "KURAMI GARI T.V CENTER",
    "registration_area_id": "4831",
    "precise_location": null,
    "abbreviation": "032",
    "units": "032",
    "delimitation": "20/01/03/032",
    "remark": "NEW PU",
    "ward_id": "4831",
    "ward_name": "KURAMI/YANKWANI",
    "local_government_id": "414",
    "local_government_name": "BAKORI",
    "state_id": "20",
    "state_name": "KATSINA",
    "location": {
      "latitude": 11.5576678,
      "longitude": 7.424563,
      "viewport": {
        "northeast": {
          "lat": 11.55909947989272,
          "lng": 7.425883179892722
        },
        "southwest": {
          "lat": 11.55639982010728,
          "lng": 7.423183520107278
        }
      },
      "formatted_address": "No. 4 Yankwani Near Jumaat Mousqe Bakori Bakori Yankwani Ajiya Road, Katsina, Nigeria",
      "google_map_url": "https://maps.google.com?q=11.5576678,7.424563",
      "google_place_id": "ChIJyxc3JJlBshERWyZ73mmWueI"
    }
  },
  {
    "id": "95166",
    "name": "YAN LEMO",
    "registration_area_id": "4831",
    "precise_location": null,
    "abbreviation": "033",
    "units": "033",
    "delimitation": "20/01/03/033",
    "remark": "NEW PU",
    "ward_id": "4831",
    "ward_name": "KURAMI/YANKWANI",
    "local_government_id": "414",
    "local_government_name": "BAKORI",
    "state_id": "20",
    "state_name": "KATSINA",
    "location": {
      "latitude": 11.7905149,
      "longitude": 7.6223989,
      "viewport": {
        "northeast": {
          "lat": 11.79181647989272,
          "lng": 7.623670579892722
        },
        "southwest": {
          "lat": 11.78911682010728,
          "lng": 7.620970920107278
        }
      },
      "formatted_address": "QJRC+6X2, layin yan goro bcga road, Malumfashi, Nigeria",
      "google_map_url": "https://maps.google.com?q=11.7905149,7.6223989",
      "google_place_id": "ChIJU0ewm1IFshERzU8abm7rvpU"
    }
  },
  {
    "id": "95167",
    "name": "SAJO I K/G MAI UNG (NEW)",
    "registration_area_id": "4831",
    "precise_location": null,
    "abbreviation": "034",
    "units": "034",
    "delimitation": "20/01/03/034",
    "remark": "NEW PU",
    "ward_id": "4831",
    "ward_name": "KURAMI/YANKWANI",
    "local_government_id": "414",
    "local_government_name": "BAKORI",
    "state_id": "20",
    "state_name": "KATSINA",
    "location": null
  },
  {
    "id": "95168",
    "name": "SAJO II PRI SCH. (NEW I)",
    "registration_area_id": "4831",
    "precise_location": null,
    "abbreviation": "035",
    "units": "035",
    "delimitation": "20/01/03/035",
    "remark": "NEW PU",
    "ward_id": "4831",
    "ward_name": "KURAMI/YANKWANI",
    "local_government_id": "414",
    "local_government_name": "BAKORI",
    "state_id": "20",
    "state_name": "KATSINA",
    "location": {
      "latitude": 11.555004,
      "longitude": 7.422210499999999,
      "viewport": {
        "northeast": {
          "lat": 11.55632767989272,
          "lng": 7.423582379892723
        },
        "southwest": {
          "lat": 11.55362802010728,
          "lng": 7.420882720107279
        }
      },
      "formatted_address": "Nadabo Primary School, Road 831101, Bakori, Nigeria",
      "google_map_url": "https://maps.google.com?q=11.555004,7.422210499999999",
      "google_place_id": "ChIJZbVy_8VBshERx1kKm3UDI8o"
    }
  },
  {
    "id": "95169",
    "name": "SAJO II PRI SCH. (NEW II)",
    "registration_area_id": "4831",
    "precise_location": null,
    "abbreviation": "036",
    "units": "036",
    "delimitation": "20/01/03/036",
    "remark": "NEW PU",
    "ward_id": "4831",
    "ward_name": "KURAMI/YANKWANI",
    "local_government_id": "414",
    "local_government_name": "BAKORI",
    "state_id": "20",
    "state_name": "KATSINA",
    "location": {
      "latitude": 11.555004,
      "longitude": 7.422210499999999,
      "viewport": {
        "northeast": {
          "lat": 11.55632767989272,
          "lng": 7.423582379892723
        },
        "southwest": {
          "lat": 11.55362802010728,
          "lng": 7.420882720107279
        }
      },
      "formatted_address": "Nadabo Primary School, Road 831101, Bakori, Nigeria",
      "google_map_url": "https://maps.google.com?q=11.555004,7.422210499999999",
      "google_place_id": "ChIJZbVy_8VBshERx1kKm3UDI8o"
    }
  },
  {
    "id": "95170",
    "name": "SAJO III K/G MAI GARIN KWANTAKWARAM",
    "registration_area_id": "4831",
    "precise_location": null,
    "abbreviation": "037",
    "units": "037",
    "delimitation": "20/01/03/037",
    "remark": "NEW PU",
    "ward_id": "4831",
    "ward_name": "KURAMI/YANKWANI",
    "local_government_id": "414",
    "local_government_name": "BAKORI",
    "state_id": "20",
    "state_name": "KATSINA",
    "location": null
  },
  {
    "id": "95171",
    "name": "SAJO III K/G MAI GARIN DUTSEN REME",
    "registration_area_id": "4831",
    "precise_location": null,
    "abbreviation": "038",
    "units": "038",
    "delimitation": "20/01/03/038",
    "remark": "NEW PU",
    "ward_id": "4831",
    "ward_name": "KURAMI/YANKWANI",
    "local_government_id": "414",
    "local_government_name": "BAKORI",
    "state_id": "20",
    "state_name": "KATSINA",
    "location": null
  },
  {
    "id": "95172",
    "name": "HOUSING AUTHORITY OFFICE",
    "registration_area_id": "4831",
    "precise_location": null,
    "abbreviation": "039",
    "units": "039",
    "delimitation": "20/01/03/039",
    "remark": "NEW PU",
    "ward_id": "4831",
    "ward_name": "KURAMI/YANKWANI",
    "local_government_id": "414",
    "local_government_name": "BAKORI",
    "state_id": "20",
    "state_name": "KATSINA",
    "location": {
      "latitude": 11.1433611,
      "longitude": 7.670704199999999,
      "viewport": {
        "northeast": {
          "lat": 11.14469677989272,
          "lng": 7.672071529892722
        },
        "southwest": {
          "lat": 11.14199712010728,
          "lng": 7.669371870107279
        }
      },
      "formatted_address": "4MVC+973, Jamaa Road, 810106, Zaria, Nigeria",
      "google_map_url": "https://maps.google.com?q=11.1433611,7.670704199999999",
      "google_place_id": "ChIJxY-7riSEshERnhcYAvN2t3k"
    }
  },
  {
    "id": "95173",
    "name": "YANKWANI GARI /MAMU SCIENCE SCHOOL",
    "registration_area_id": "4831",
    "precise_location": null,
    "abbreviation": "040",
    "units": "040",
    "delimitation": "20/01/03/040",
    "remark": "NEW PU",
    "ward_id": "4831",
    "ward_name": "KURAMI/YANKWANI",
    "local_government_id": "414",
    "local_government_name": "BAKORI",
    "state_id": "20",
    "state_name": "KATSINA",
    "location": {
      "latitude": 11.535346,
      "longitude": 7.349608,
      "viewport": {
        "northeast": {
          "lat": 11.53685247989272,
          "lng": 7.350912929892721
        },
        "southwest": {
          "lat": 11.53415282010728,
          "lng": 7.348213270107277
        }
      },
      "formatted_address": "G8PX+4RX, Bakori Rd, 831101, Funtua, Nigeria",
      "google_map_url": "https://maps.google.com?q=11.535346,7.349608",
      "google_place_id": "ChIJa_Z5krJGshERDQwwwiSW_Dc"
    }
  },
  {
    "id": "95174",
    "name": "YANKWANI GARI II COMMUNITY  DAY SECONDARY SCH.",
    "registration_area_id": "4831",
    "precise_location": null,
    "abbreviation": "041",
    "units": "041",
    "delimitation": "20/01/03/041",
    "remark": "NEW PU",
    "ward_id": "4831",
    "ward_name": "KURAMI/YANKWANI",
    "local_government_id": "414",
    "local_government_name": "BAKORI",
    "state_id": "20",
    "state_name": "KATSINA",
    "location": {
      "latitude": 11.5805119,
      "longitude": 7.372427,
      "viewport": {
        "northeast": {
          "lat": 11.58152332989272,
          "lng": 7.373627629892721
        },
        "southwest": {
          "lat": 11.57882367010728,
          "lng": 7.370927970107277
        }
      },
      "formatted_address": "H9JC+6X3, 831101, Funtua, Nigeria",
      "google_map_url": "https://maps.google.com?q=11.5805119,7.372427",
      "google_place_id": "ChIJ58Inl8JAshERYYExxAoYzvc"
    }
  },
  {
    "id": "95175",
    "name": "DANMAYAKI PRI. SCH.",
    "registration_area_id": "4831",
    "precise_location": null,
    "abbreviation": "042",
    "units": "042",
    "delimitation": "20/01/03/042",
    "remark": "NEW PU",
    "ward_id": "4831",
    "ward_name": "KURAMI/YANKWANI",
    "local_government_id": "414",
    "local_government_name": "BAKORI",
    "state_id": "20",
    "state_name": "KATSINA",
    "location": {
      "latitude": 11.555004,
      "longitude": 7.422210499999999,
      "viewport": {
        "northeast": {
          "lat": 11.55632767989272,
          "lng": 7.423582379892723
        },
        "southwest": {
          "lat": 11.55362802010728,
          "lng": 7.420882720107279
        }
      },
      "formatted_address": "Nadabo Primary School, Road 831101, Bakori, Nigeria",
      "google_map_url": "https://maps.google.com?q=11.555004,7.422210499999999",
      "google_place_id": "ChIJZbVy_8VBshERx1kKm3UDI8o"
    }
  },
  {
    "id": "95176",
    "name": "MAI KARI PRI. SCH.",
    "registration_area_id": "4831",
    "precise_location": null,
    "abbreviation": "043",
    "units": "043",
    "delimitation": "20/01/03/043",
    "remark": "NEW PU",
    "ward_id": "4831",
    "ward_name": "KURAMI/YANKWANI",
    "local_government_id": "414",
    "local_government_name": "BAKORI",
    "state_id": "20",
    "state_name": "KATSINA",
    "location": {
      "latitude": 11.555004,
      "longitude": 7.422210499999999,
      "viewport": {
        "northeast": {
          "lat": 11.55632767989272,
          "lng": 7.423582379892723
        },
        "southwest": {
          "lat": 11.55362802010728,
          "lng": 7.420882720107279
        }
      },
      "formatted_address": "Nadabo Primary School, Road 831101, Bakori, Nigeria",
      "google_map_url": "https://maps.google.com?q=11.555004,7.422210499999999",
      "google_place_id": "ChIJZbVy_8VBshERx1kKm3UDI8o"
    }
  }
]