[
  {
    "id": "59034",
    "name": "NKWELLE TOWN HALL I",
    "registration_area_id": "3221",
    "precise_location": null,
    "abbreviation": "001",
    "units": "001",
    "delimitation": "14/17/03/001",
    "remark": "EXISTING PU",
    "ward_id": "3221",
    "ward_name": "UMULOKPA",
    "local_government_id": "275",
    "local_government_name": "UZO-UWANI",
    "state_id": "14",
    "state_name": "ENUGU",
    "location": {
      "latitude": 6.504999199999999,
      "longitude": 7.0967576,
      "viewport": {
        "northeast": {
          "lat": 6.506368129892723,
          "lng": 7.098114079892722
        },
        "southwest": {
          "lat": 6.503668470107279,
          "lng": 7.095414420107278
        }
      },
      "formatted_address": "G33W+XPR, Nkwelle, Akiyi, Umulokpa, Nigeria",
      "google_map_url": "https://maps.google.com?q=6.504999199999999,7.0967576",
      "google_place_id": "ChIJ3ZZ-2CSHRBARMt6rj3WthO0"
    }
  },
  {
    "id": "59035",
    "name": "NKWELLE TOWN HALL II",
    "registration_area_id": "3221",
    "precise_location": null,
    "abbreviation": "002",
    "units": "002",
    "delimitation": "14/17/03/002",
    "remark": "EXISTING PU",
    "ward_id": "3221",
    "ward_name": "UMULOKPA",
    "local_government_id": "275",
    "local_government_name": "UZO-UWANI",
    "state_id": "14",
    "state_name": "ENUGU",
    "location": null
  },
  {
    "id": "59036",
    "name": "UNION PRIMARY SCHOOL UMULOKPA I",
    "registration_area_id": "3221",
    "precise_location": null,
    "abbreviation": "003",
    "units": "003",
    "delimitation": "14/17/03/003",
    "remark": "EXISTING PU",
    "ward_id": "3221",
    "ward_name": "UMULOKPA",
    "local_government_id": "275",
    "local_government_name": "UZO-UWANI",
    "state_id": "14",
    "state_name": "ENUGU",
    "location": {
      "latitude": 6.5001866,
      "longitude": 7.091179899999999,
      "viewport": {
        "northeast": {
          "lat": 6.501792179892722,
          "lng": 7.092188929892722
        },
        "southwest": {
          "lat": 6.499092520107278,
          "lng": 7.089489270107278
        }
      },
      "formatted_address": "G32R+3FF, Eziora Road, Akiyi, Umulokpa, Nigeria",
      "google_map_url": "https://maps.google.com?q=6.5001866,7.091179899999999",
      "google_place_id": "ChIJJQhjVz59RBARzb9RBvsD0Nc"
    }
  },
  {
    "id": "59037",
    "name": "UNION PRIMARY SCHOOL UMULOKPA II",
    "registration_area_id": "3221",
    "precise_location": null,
    "abbreviation": "004",
    "units": "004",
    "delimitation": "14/17/03/004",
    "remark": "EXISTING PU",
    "ward_id": "3221",
    "ward_name": "UMULOKPA",
    "local_government_id": "275",
    "local_government_name": "UZO-UWANI",
    "state_id": "14",
    "state_name": "ENUGU",
    "location": {
      "latitude": 6.5001866,
      "longitude": 7.091179899999999,
      "viewport": {
        "northeast": {
          "lat": 6.501792179892722,
          "lng": 7.092188929892722
        },
        "southwest": {
          "lat": 6.499092520107278,
          "lng": 7.089489270107278
        }
      },
      "formatted_address": "G32R+3FF, Eziora Road, Akiyi, Umulokpa, Nigeria",
      "google_map_url": "https://maps.google.com?q=6.5001866,7.091179899999999",
      "google_place_id": "ChIJJQhjVz59RBARzb9RBvsD0Nc"
    }
  },
  {
    "id": "59038",
    "name": "UNION PRIMARY SCHOOL UMULOKPA II",
    "registration_area_id": "3221",
    "precise_location": null,
    "abbreviation": "005",
    "units": "005",
    "delimitation": "14/17/03/005",
    "remark": "EXISTING PU",
    "ward_id": "3221",
    "ward_name": "UMULOKPA",
    "local_government_id": "275",
    "local_government_name": "UZO-UWANI",
    "state_id": "14",
    "state_name": "ENUGU",
    "location": {
      "latitude": 6.5001866,
      "longitude": 7.091179899999999,
      "viewport": {
        "northeast": {
          "lat": 6.501792179892722,
          "lng": 7.092188929892722
        },
        "southwest": {
          "lat": 6.499092520107278,
          "lng": 7.089489270107278
        }
      },
      "formatted_address": "G32R+3FF, Eziora Road, Akiyi, Umulokpa, Nigeria",
      "google_map_url": "https://maps.google.com?q=6.5001866,7.091179899999999",
      "google_place_id": "ChIJJQhjVz59RBARzb9RBvsD0Nc"
    }
  },
  {
    "id": "59039",
    "name": "CENTRAL SCHOOL UMULOKPA I",
    "registration_area_id": "3221",
    "precise_location": null,
    "abbreviation": "006",
    "units": "006",
    "delimitation": "14/17/03/006",
    "remark": "EXISTING PU",
    "ward_id": "3221",
    "ward_name": "UMULOKPA",
    "local_government_id": "275",
    "local_government_name": "UZO-UWANI",
    "state_id": "14",
    "state_name": "ENUGU",
    "location": {
      "latitude": 6.5179756,
      "longitude": 7.1034013,
      "viewport": {
        "northeast": {
          "lat": 6.519380879892722,
          "lng": 7.104710879892721
        },
        "southwest": {
          "lat": 6.516681220107278,
          "lng": 7.102011220107277
        }
      },
      "formatted_address": "G493+59R, Akiyi, Umulokpa, Nigeria",
      "google_map_url": "https://maps.google.com?q=6.5179756,7.1034013",
      "google_place_id": "ChIJJ26Sq_qHRBARvlmFG-Nadf0"
    }
  },
  {
    "id": "59040",
    "name": "CENTRAL SCHOOL UMULOKPA II",
    "registration_area_id": "3221",
    "precise_location": null,
    "abbreviation": "007",
    "units": "007",
    "delimitation": "14/17/03/007",
    "remark": "EXISTING PU",
    "ward_id": "3221",
    "ward_name": "UMULOKPA",
    "local_government_id": "275",
    "local_government_name": "UZO-UWANI",
    "state_id": "14",
    "state_name": "ENUGU",
    "location": {
      "latitude": 6.5179756,
      "longitude": 7.1034013,
      "viewport": {
        "northeast": {
          "lat": 6.519380879892722,
          "lng": 7.104710879892721
        },
        "southwest": {
          "lat": 6.516681220107278,
          "lng": 7.102011220107277
        }
      },
      "formatted_address": "G493+59R, Akiyi, Umulokpa, Nigeria",
      "google_map_url": "https://maps.google.com?q=6.5179756,7.1034013",
      "google_place_id": "ChIJJ26Sq_qHRBARvlmFG-Nadf0"
    }
  },
  {
    "id": "59041",
    "name": "COMMUNITY PRIMARY SCHOOL OGBOSU",
    "registration_area_id": "3221",
    "precise_location": null,
    "abbreviation": "008",
    "units": "008",
    "delimitation": "14/17/03/008",
    "remark": "EXISTING PU",
    "ward_id": "3221",
    "ward_name": "UMULOKPA",
    "local_government_id": "275",
    "local_government_name": "UZO-UWANI",
    "state_id": "14",
    "state_name": "ENUGU",
    "location": {
      "latitude": 6.323997899999999,
      "longitude": 7.182119999999999,
      "viewport": {
        "northeast": {
          "lat": 6.325347979892721,
          "lng": 7.183468729892722
        },
        "southwest": {
          "lat": 6.322648320107278,
          "lng": 7.180769070107278
        }
      },
      "formatted_address": "85FJ+HRX, Uzo Motor Umumba, 401127, Enugu, Nigeria",
      "google_map_url": "https://maps.google.com?q=6.323997899999999,7.182119999999999",
      "google_place_id": "ChIJ5eswBNd9QxARmcp8YKJa2fk"
    }
  },
  {
    "id": "59042",
    "name": "TOWN HALL UMUAKOR",
    "registration_area_id": "3221",
    "precise_location": null,
    "abbreviation": "009",
    "units": "009",
    "delimitation": "14/17/03/009",
    "remark": "EXISTING PU",
    "ward_id": "3221",
    "ward_name": "UMULOKPA",
    "local_government_id": "275",
    "local_government_name": "UZO-UWANI",
    "state_id": "14",
    "state_name": "ENUGU",
    "location": {
      "latitude": 6.5198516,
      "longitude": 7.1101068,
      "viewport": {
        "northeast": {
          "lat": 6.520924129892722,
          "lng": 7.11175147989272
        },
        "southwest": {
          "lat": 6.518224470107278,
          "lng": 7.109051820107276
        }
      },
      "formatted_address": "G496+W2X, 411111, Umulokpa, Nigeria",
      "google_map_url": "https://maps.google.com?q=6.5198516,7.1101068",
      "google_place_id": "ChIJ29G4ZuaHRBARYcU6r3iqAng"
    }
  },
  {
    "id": "59043",
    "name": "AMULU VILLAGE SQUARE",
    "registration_area_id": "3221",
    "precise_location": null,
    "abbreviation": "010",
    "units": "010",
    "delimitation": "14/17/03/010",
    "remark": "EXISTING PU",
    "ward_id": "3221",
    "ward_name": "UMULOKPA",
    "local_government_id": "275",
    "local_government_name": "UZO-UWANI",
    "state_id": "14",
    "state_name": "ENUGU",
    "location": {
      "latitude": 6.5094426,
      "longitude": 7.0965897,
      "viewport": {
        "northeast": {
          "lat": 6.51076852989272,
          "lng": 7.097929279892722
        },
        "southwest": {
          "lat": 6.508068870107277,
          "lng": 7.095229620107278
        }
      },
      "formatted_address": "G35W+QJQ, Akiyi, Umulokpa, Nigeria",
      "google_map_url": "https://maps.google.com?q=6.5094426,7.0965897",
      "google_place_id": "ChIJ______KHRBAR8cyQl6lWHR4"
    }
  },
  {
    "id": "59044",
    "name": "COMMUNITY PRIMARY SCHOOL AWKUNITOR",
    "registration_area_id": "3221",
    "precise_location": null,
    "abbreviation": "011",
    "units": "011",
    "delimitation": "14/17/03/011",
    "remark": "EXISTING PU",
    "ward_id": "3221",
    "ward_name": "UMULOKPA",
    "local_government_id": "275",
    "local_government_name": "UZO-UWANI",
    "state_id": "14",
    "state_name": "ENUGU",
    "location": {
      "latitude": 6.5001866,
      "longitude": 7.091179899999999,
      "viewport": {
        "northeast": {
          "lat": 6.501792179892722,
          "lng": 7.092188929892722
        },
        "southwest": {
          "lat": 6.499092520107278,
          "lng": 7.089489270107278
        }
      },
      "formatted_address": "G32R+3FF, Eziora Road, Akiyi, Umulokpa, Nigeria",
      "google_map_url": "https://maps.google.com?q=6.5001866,7.091179899999999",
      "google_place_id": "ChIJJQhjVz59RBARzb9RBvsD0Nc"
    }
  },
  {
    "id": "59045",
    "name": "E.P.S. EZIORA I",
    "registration_area_id": "3221",
    "precise_location": null,
    "abbreviation": "012",
    "units": "012",
    "delimitation": "14/17/03/012",
    "remark": "EXISTING PU",
    "ward_id": "3221",
    "ward_name": "UMULOKPA",
    "local_government_id": "275",
    "local_government_name": "UZO-UWANI",
    "state_id": "14",
    "state_name": "ENUGU",
    "location": {
      "latitude": 6.5198516,
      "longitude": 7.1101068,
      "viewport": {
        "northeast": {
          "lat": 6.520924129892722,
          "lng": 7.11175147989272
        },
        "southwest": {
          "lat": 6.518224470107278,
          "lng": 7.109051820107276
        }
      },
      "formatted_address": "G496+W2X, 411111, Umulokpa, Nigeria",
      "google_map_url": "https://maps.google.com?q=6.5198516,7.1101068",
      "google_place_id": "ChIJ29G4ZuaHRBARYcU6r3iqAng"
    }
  },
  {
    "id": "59046",
    "name": "E.P.S. EZIORA II",
    "registration_area_id": "3221",
    "precise_location": null,
    "abbreviation": "013",
    "units": "013",
    "delimitation": "14/17/03/013",
    "remark": "EXISTING PU",
    "ward_id": "3221",
    "ward_name": "UMULOKPA",
    "local_government_id": "275",
    "local_government_name": "UZO-UWANI",
    "state_id": "14",
    "state_name": "ENUGU",
    "location": {
      "latitude": 6.5198516,
      "longitude": 7.1101068,
      "viewport": {
        "northeast": {
          "lat": 6.520924129892722,
          "lng": 7.11175147989272
        },
        "southwest": {
          "lat": 6.518224470107278,
          "lng": 7.109051820107276
        }
      },
      "formatted_address": "G496+W2X, 411111, Umulokpa, Nigeria",
      "google_map_url": "https://maps.google.com?q=6.5198516,7.1101068",
      "google_place_id": "ChIJ29G4ZuaHRBARYcU6r3iqAng"
    }
  },
  {
    "id": "59047",
    "name": "OGBOSU TOWN HALL",
    "registration_area_id": "3221",
    "precise_location": null,
    "abbreviation": "014",
    "units": "014",
    "delimitation": "14/17/03/014",
    "remark": "EXISTING PU",
    "ward_id": "3221",
    "ward_name": "UMULOKPA",
    "local_government_id": "275",
    "local_government_name": "UZO-UWANI",
    "state_id": "14",
    "state_name": "ENUGU",
    "location": {
      "latitude": 6.5198516,
      "longitude": 7.1101068,
      "viewport": {
        "northeast": {
          "lat": 6.520924129892722,
          "lng": 7.11175147989272
        },
        "southwest": {
          "lat": 6.518224470107278,
          "lng": 7.109051820107276
        }
      },
      "formatted_address": "G496+W2X, 411111, Umulokpa, Nigeria",
      "google_map_url": "https://maps.google.com?q=6.5198516,7.1101068",
      "google_place_id": "ChIJ29G4ZuaHRBARYcU6r3iqAng"
    }
  },
  {
    "id": "59048",
    "name": "CENTRAL SCHOOL UMULOKPA III",
    "registration_area_id": "3221",
    "precise_location": null,
    "abbreviation": "015",
    "units": "015",
    "delimitation": "14/17/03/015",
    "remark": "EXISTING PU",
    "ward_id": "3221",
    "ward_name": "UMULOKPA",
    "local_government_id": "275",
    "local_government_name": "UZO-UWANI",
    "state_id": "14",
    "state_name": "ENUGU",
    "location": {
      "latitude": 6.5179756,
      "longitude": 7.1034013,
      "viewport": {
        "northeast": {
          "lat": 6.519380879892722,
          "lng": 7.104710879892721
        },
        "southwest": {
          "lat": 6.516681220107278,
          "lng": 7.102011220107277
        }
      },
      "formatted_address": "G493+59R, Akiyi, Umulokpa, Nigeria",
      "google_map_url": "https://maps.google.com?q=6.5179756,7.1034013",
      "google_place_id": "ChIJJ26Sq_qHRBARvlmFG-Nadf0"
    }
  },
  {
    "id": "59049",
    "name": "OGBOSU TOWN HALL II",
    "registration_area_id": "3221",
    "precise_location": null,
    "abbreviation": "016",
    "units": "016",
    "delimitation": "14/17/03/016",
    "remark": "EXISTING PU",
    "ward_id": "3221",
    "ward_name": "UMULOKPA",
    "local_government_id": "275",
    "local_government_name": "UZO-UWANI",
    "state_id": "14",
    "state_name": "ENUGU",
    "location": {
      "latitude": 6.5198516,
      "longitude": 7.1101068,
      "viewport": {
        "northeast": {
          "lat": 6.520924129892722,
          "lng": 7.11175147989272
        },
        "southwest": {
          "lat": 6.518224470107278,
          "lng": 7.109051820107276
        }
      },
      "formatted_address": "G496+W2X, 411111, Umulokpa, Nigeria",
      "google_map_url": "https://maps.google.com?q=6.5198516,7.1101068",
      "google_place_id": "ChIJ29G4ZuaHRBARYcU6r3iqAng"
    }
  },
  {
    "id": "59050",
    "name": "U.P.S. UMULOKPA IV",
    "registration_area_id": "3221",
    "precise_location": null,
    "abbreviation": "017",
    "units": "017",
    "delimitation": "14/17/03/017",
    "remark": "EXISTING PU",
    "ward_id": "3221",
    "ward_name": "UMULOKPA",
    "local_government_id": "275",
    "local_government_name": "UZO-UWANI",
    "state_id": "14",
    "state_name": "ENUGU",
    "location": {
      "latitude": 6.5198516,
      "longitude": 7.1101068,
      "viewport": {
        "northeast": {
          "lat": 6.520924129892722,
          "lng": 7.11175147989272
        },
        "southwest": {
          "lat": 6.518224470107278,
          "lng": 7.109051820107276
        }
      },
      "formatted_address": "G496+W2X, 411111, Umulokpa, Nigeria",
      "google_map_url": "https://maps.google.com?q=6.5198516,7.1101068",
      "google_place_id": "ChIJ29G4ZuaHRBARYcU6r3iqAng"
    }
  },
  {
    "id": "59051",
    "name": "DUUR RIVER P.S UMULOKPA",
    "registration_area_id": "3221",
    "precise_location": null,
    "abbreviation": "018",
    "units": "018",
    "delimitation": "14/17/03/018",
    "remark": "NEW PU",
    "ward_id": "3221",
    "ward_name": "UMULOKPA",
    "local_government_id": "275",
    "local_government_name": "UZO-UWANI",
    "state_id": "14",
    "state_name": "ENUGU",
    "location": null
  }
]