[
  {
    "id": "60451",
    "name": "UNG. MAI GANA, KOFAR MAIGANA",
    "registration_area_id": "3280",
    "precise_location": null,
    "abbreviation": "001",
    "units": "001",
    "delimitation": "15/05/04/001",
    "remark": "EXISTING PU",
    "ward_id": "3280",
    "ward_name": "BAJOGA EAST",
    "local_government_id": "286",
    "local_government_name": "FUNAKAYE",
    "state_id": "15",
    "state_name": "GOMBE",
    "location": {
      "latitude": 10.8445557,
      "longitude": 11.4182352,
      "viewport": {
        "northeast": {
          "lat": 10.84602937989272,
          "lng": 11.41950887989272
        },
        "southwest": {
          "lat": 10.84332972010728,
          "lng": 11.41680922010728
        }
      },
      "formatted_address": "RCV9+R7H, 762102, Bajoga, Nigeria",
      "google_map_url": "https://maps.google.com?q=10.8445557,11.4182352",
      "google_place_id": "ChIJIfo-01S1ARER_OKydkz-1bU"
    }
  },
  {
    "id": "60452",
    "name": "UNG. MAI ZARA, KOFAR MAIZARA",
    "registration_area_id": "3280",
    "precise_location": null,
    "abbreviation": "002",
    "units": "002",
    "delimitation": "15/05/04/002",
    "remark": "EXISTING PU",
    "ward_id": "3280",
    "ward_name": "BAJOGA EAST",
    "local_government_id": "286",
    "local_government_name": "FUNAKAYE",
    "state_id": "15",
    "state_name": "GOMBE",
    "location": null
  },
  {
    "id": "60453",
    "name": "UNG. MAI ZARA, KOFAR BUKARI",
    "registration_area_id": "3280",
    "precise_location": null,
    "abbreviation": "003",
    "units": "003",
    "delimitation": "15/05/04/003",
    "remark": "EXISTING PU",
    "ward_id": "3280",
    "ward_name": "BAJOGA EAST",
    "local_government_id": "286",
    "local_government_name": "FUNAKAYE",
    "state_id": "15",
    "state_name": "GOMBE",
    "location": {
      "latitude": 10.8346214,
      "longitude": 11.4311254,
      "viewport": {
        "northeast": {
          "lat": 10.83613317989272,
          "lng": 11.43244497989272
        },
        "southwest": {
          "lat": 10.83343352010728,
          "lng": 11.42974532010728
        }
      },
      "formatted_address": "762102, Bajoga, Nigeria",
      "google_map_url": "https://maps.google.com?q=10.8346214,11.4311254",
      "google_place_id": "ChIJ4Qto1qa1ARER6tSlBPS9RW8"
    }
  },
  {
    "id": "60454",
    "name": "UNG. MAKAMA, KOFAR MAKAMA",
    "registration_area_id": "3280",
    "precise_location": null,
    "abbreviation": "004",
    "units": "004",
    "delimitation": "15/05/04/004",
    "remark": "EXISTING PU",
    "ward_id": "3280",
    "ward_name": "BAJOGA EAST",
    "local_government_id": "286",
    "local_government_name": "FUNAKAYE",
    "state_id": "15",
    "state_name": "GOMBE",
    "location": {
      "latitude": 11.9887832,
      "longitude": 8.521037,
      "viewport": {
        "northeast": {
          "lat": 11.99017327989272,
          "lng": 8.522377579892723
        },
        "southwest": {
          "lat": 11.98747362010728,
          "lng": 8.519677920107279
        }
      },
      "formatted_address": "Emir Palace Rd, Wudilawa 700103, Kano, Nigeria",
      "google_map_url": "https://maps.google.com?q=11.9887832,8.521037",
      "google_place_id": "ChIJdQGJvPiArhERt5bnkI8X1ck"
    }
  },
  {
    "id": "60455",
    "name": "GENERAL HOSPITAL, POST OFFICE",
    "registration_area_id": "3280",
    "precise_location": null,
    "abbreviation": "005",
    "units": "005",
    "delimitation": "15/05/04/005",
    "remark": "EXISTING PU",
    "ward_id": "3280",
    "ward_name": "BAJOGA EAST",
    "local_government_id": "286",
    "local_government_name": "FUNAKAYE",
    "state_id": "15",
    "state_name": "GOMBE",
    "location": {
      "latitude": 10.8536745,
      "longitude": 11.4381945,
      "viewport": {
        "northeast": {
          "lat": 10.85498887989272,
          "lng": 11.43952712989272
        },
        "southwest": {
          "lat": 10.85228922010728,
          "lng": 11.43682747010728
        }
      },
      "formatted_address": "VC3Q+F78, 762102, Bajoga, Nigeria",
      "google_map_url": "https://maps.google.com?q=10.8536745,11.4381945",
      "google_place_id": "ChIJMyqJn6u2ARERRi_WTYVYwUw"
    }
  },
  {
    "id": "60456",
    "name": "GENERAL HOSPITAL, GENERAL HOSIPTAL",
    "registration_area_id": "3280",
    "precise_location": null,
    "abbreviation": "006",
    "units": "006",
    "delimitation": "15/05/04/006",
    "remark": "EXISTING PU",
    "ward_id": "3280",
    "ward_name": "BAJOGA EAST",
    "local_government_id": "286",
    "local_government_name": "FUNAKAYE",
    "state_id": "15",
    "state_name": "GOMBE",
    "location": {
      "latitude": 10.8536745,
      "longitude": 11.4381945,
      "viewport": {
        "northeast": {
          "lat": 10.85498887989272,
          "lng": 11.43952712989272
        },
        "southwest": {
          "lat": 10.85228922010728,
          "lng": 11.43682747010728
        }
      },
      "formatted_address": "VC3Q+F78, 762102, Bajoga, Nigeria",
      "google_map_url": "https://maps.google.com?q=10.8536745,11.4381945",
      "google_place_id": "ChIJMyqJn6u2ARERRi_WTYVYwUw"
    }
  },
  {
    "id": "60457",
    "name": "UNG. BAMALUM, KOFAR BAMALUM",
    "registration_area_id": "3280",
    "precise_location": null,
    "abbreviation": "007",
    "units": "007",
    "delimitation": "15/05/04/007",
    "remark": "EXISTING PU",
    "ward_id": "3280",
    "ward_name": "BAJOGA EAST",
    "local_government_id": "286",
    "local_government_name": "FUNAKAYE",
    "state_id": "15",
    "state_name": "GOMBE",
    "location": {
      "latitude": 10.8346214,
      "longitude": 11.4311254,
      "viewport": {
        "northeast": {
          "lat": 10.83613317989272,
          "lng": 11.43244497989272
        },
        "southwest": {
          "lat": 10.83343352010728,
          "lng": 11.42974532010728
        }
      },
      "formatted_address": "762102, Bajoga, Nigeria",
      "google_map_url": "https://maps.google.com?q=10.8346214,11.4311254",
      "google_place_id": "ChIJ4Qto1qa1ARER6tSlBPS9RW8"
    }
  },
  {
    "id": "60458",
    "name": "UNG. BAMALUM, KOFAR A. G. Z.",
    "registration_area_id": "3280",
    "precise_location": null,
    "abbreviation": "008",
    "units": "008",
    "delimitation": "15/05/04/008",
    "remark": "EXISTING PU",
    "ward_id": "3280",
    "ward_name": "BAJOGA EAST",
    "local_government_id": "286",
    "local_government_name": "FUNAKAYE",
    "state_id": "15",
    "state_name": "GOMBE",
    "location": null
  },
  {
    "id": "60459",
    "name": "UNG. BAMALUM, RAILWAY",
    "registration_area_id": "3280",
    "precise_location": null,
    "abbreviation": "009",
    "units": "009",
    "delimitation": "15/05/04/009",
    "remark": "EXISTING PU",
    "ward_id": "3280",
    "ward_name": "BAJOGA EAST",
    "local_government_id": "286",
    "local_government_name": "FUNAKAYE",
    "state_id": "15",
    "state_name": "GOMBE",
    "location": {
      "latitude": 10.8457928,
      "longitude": 11.4378083,
      "viewport": {
        "northeast": {
          "lat": 10.84715922989272,
          "lng": 11.43912242989272
        },
        "southwest": {
          "lat": 10.84445957010728,
          "lng": 11.43642277010728
        }
      },
      "formatted_address": "338, 762102, Bajoga, Nigeria",
      "google_map_url": "https://maps.google.com?q=10.8457928,11.4378083",
      "google_place_id": "ChIJdf8CnKi2ARER8O8B0wKQvTc"
    }
  },
  {
    "id": "60460",
    "name": "SABON LAYI, KOFAR DANDARA",
    "registration_area_id": "3280",
    "precise_location": null,
    "abbreviation": "010",
    "units": "010",
    "delimitation": "15/05/04/010",
    "remark": "EXISTING PU",
    "ward_id": "3280",
    "ward_name": "BAJOGA EAST",
    "local_government_id": "286",
    "local_government_name": "FUNAKAYE",
    "state_id": "15",
    "state_name": "GOMBE",
    "location": null
  },
  {
    "id": "60461",
    "name": "UNG. ARI, KOFAR MAI UNG.",
    "registration_area_id": "3280",
    "precise_location": null,
    "abbreviation": "011",
    "units": "011",
    "delimitation": "15/05/04/011",
    "remark": "EXISTING PU",
    "ward_id": "3280",
    "ward_name": "BAJOGA EAST",
    "local_government_id": "286",
    "local_government_name": "FUNAKAYE",
    "state_id": "15",
    "state_name": "GOMBE",
    "location": null
  },
  {
    "id": "60462",
    "name": "UNG. BELLO,  KOFAR MAI UNG.",
    "registration_area_id": "3280",
    "precise_location": null,
    "abbreviation": "012",
    "units": "012",
    "delimitation": "15/05/04/012",
    "remark": "EXISTING PU",
    "ward_id": "3280",
    "ward_name": "BAJOGA EAST",
    "local_government_id": "286",
    "local_government_name": "FUNAKAYE",
    "state_id": "15",
    "state_name": "GOMBE",
    "location": {
      "latitude": 10.8445557,
      "longitude": 11.4182352,
      "viewport": {
        "northeast": {
          "lat": 10.84602937989272,
          "lng": 11.41950887989272
        },
        "southwest": {
          "lat": 10.84332972010728,
          "lng": 11.41680922010728
        }
      },
      "formatted_address": "RCV9+R7H, 762102, Bajoga, Nigeria",
      "google_map_url": "https://maps.google.com?q=10.8445557,11.4182352",
      "google_place_id": "ChIJIfo-01S1ARER_OKydkz-1bU"
    }
  },
  {
    "id": "60463",
    "name": "SANGARU, PRIMARY SCHOOL",
    "registration_area_id": "3280",
    "precise_location": null,
    "abbreviation": "013",
    "units": "013",
    "delimitation": "15/05/04/013",
    "remark": "EXISTING PU",
    "ward_id": "3280",
    "ward_name": "BAJOGA EAST",
    "local_government_id": "286",
    "local_government_name": "FUNAKAYE",
    "state_id": "15",
    "state_name": "GOMBE",
    "location": {
      "latitude": 10.8491201,
      "longitude": 11.4448281,
      "viewport": {
        "northeast": {
          "lat": 10.85040642989272,
          "lng": 11.44618682989272
        },
        "southwest": {
          "lat": 10.84770677010728,
          "lng": 11.44348717010728
        }
      },
      "formatted_address": "Sangaru Primary School, 762102, Bajoga, Nigeria",
      "google_map_url": "https://maps.google.com?q=10.8491201,11.4448281",
      "google_place_id": "ChIJAXvzI662ARER1OktVAEcdpY"
    }
  },
  {
    "id": "60464",
    "name": "SANGARU, KOFAR SARKI",
    "registration_area_id": "3280",
    "precise_location": null,
    "abbreviation": "014",
    "units": "014",
    "delimitation": "15/05/04/014",
    "remark": "EXISTING PU",
    "ward_id": "3280",
    "ward_name": "BAJOGA EAST",
    "local_government_id": "286",
    "local_government_name": "FUNAKAYE",
    "state_id": "15",
    "state_name": "GOMBE",
    "location": {
      "latitude": 10.8491201,
      "longitude": 11.4448281,
      "viewport": {
        "northeast": {
          "lat": 10.85040642989272,
          "lng": 11.44618682989272
        },
        "southwest": {
          "lat": 10.84770677010728,
          "lng": 11.44348717010728
        }
      },
      "formatted_address": "Sangaru Primary School, 762102, Bajoga, Nigeria",
      "google_map_url": "https://maps.google.com?q=10.8491201,11.4448281",
      "google_place_id": "ChIJAXvzI662ARER1OktVAEcdpY"
    }
  },
  {
    "id": "60465",
    "name": "GARIN ABA, KOFAR SARKI",
    "registration_area_id": "3280",
    "precise_location": null,
    "abbreviation": "015",
    "units": "015",
    "delimitation": "15/05/04/015",
    "remark": "EXISTING PU",
    "ward_id": "3280",
    "ward_name": "BAJOGA EAST",
    "local_government_id": "286",
    "local_government_name": "FUNAKAYE",
    "state_id": "15",
    "state_name": "GOMBE",
    "location": null
  },
  {
    "id": "60466",
    "name": "SHUWARIN, KOFAR JAURO",
    "registration_area_id": "3280",
    "precise_location": null,
    "abbreviation": "016",
    "units": "016",
    "delimitation": "15/05/04/016",
    "remark": "EXISTING PU",
    "ward_id": "3280",
    "ward_name": "BAJOGA EAST",
    "local_government_id": "286",
    "local_government_name": "FUNAKAYE",
    "state_id": "15",
    "state_name": "GOMBE",
    "location": null
  },
  {
    "id": "60467",
    "name": "JAURO YUGUDA, PRIMARY SCHOOL",
    "registration_area_id": "3280",
    "precise_location": null,
    "abbreviation": "017",
    "units": "017",
    "delimitation": "15/05/04/017",
    "remark": "EXISTING PU",
    "ward_id": "3280",
    "ward_name": "BAJOGA EAST",
    "local_government_id": "286",
    "local_government_name": "FUNAKAYE",
    "state_id": "15",
    "state_name": "GOMBE",
    "location": {
      "latitude": 10.3001756,
      "longitude": 11.1702351,
      "viewport": {
        "northeast": {
          "lat": 10.30140642989272,
          "lng": 11.17154482989272
        },
        "southwest": {
          "lat": 10.29870677010728,
          "lng": 11.16884517010728
        }
      },
      "formatted_address": "852C+33H, 760253, Gombe, Nigeria",
      "google_map_url": "https://maps.google.com?q=10.3001756,11.1702351",
      "google_place_id": "ChIJ18K0AcbR_xARgtXx_FIyNWE"
    }
  },
  {
    "id": "60468",
    "name": "NAYINAWA, KOFAR JAURO",
    "registration_area_id": "3280",
    "precise_location": null,
    "abbreviation": "018",
    "units": "018",
    "delimitation": "15/05/04/018",
    "remark": "EXISTING PU",
    "ward_id": "3280",
    "ward_name": "BAJOGA EAST",
    "local_government_id": "286",
    "local_government_name": "FUNAKAYE",
    "state_id": "15",
    "state_name": "GOMBE",
    "location": {
      "latitude": 10.6541667,
      "longitude": 11.0849167,
      "viewport": {
        "northeast": {
          "lat": 10.65551607989272,
          "lng": 11.08626852989272
        },
        "southwest": {
          "lat": 10.65281642010728,
          "lng": 11.08356887010728
        }
      },
      "formatted_address": "10°39.250'N, 11°05.095'E, Nigeria",
      "google_map_url": "https://maps.google.com?q=10.6541667,11.0849167",
      "google_place_id": "ChIJZ12Sc5s7ABERlVAlztOWpUQ"
    }
  },
  {
    "id": "60469",
    "name": "DINDI JAURO BABA, KOFAR JAURO",
    "registration_area_id": "3280",
    "precise_location": null,
    "abbreviation": "019",
    "units": "019",
    "delimitation": "15/05/04/019",
    "remark": "EXISTING PU",
    "ward_id": "3280",
    "ward_name": "BAJOGA EAST",
    "local_government_id": "286",
    "local_government_name": "FUNAKAYE",
    "state_id": "15",
    "state_name": "GOMBE",
    "location": null
  },
  {
    "id": "60470",
    "name": "JAJAMI, MUHAMMED BUKAR",
    "registration_area_id": "3280",
    "precise_location": null,
    "abbreviation": "020",
    "units": "020",
    "delimitation": "15/05/04/020",
    "remark": "EXISTING PU",
    "ward_id": "3280",
    "ward_name": "BAJOGA EAST",
    "local_government_id": "286",
    "local_government_name": "FUNAKAYE",
    "state_id": "15",
    "state_name": "GOMBE",
    "location": {
      "latitude": 10.279142,
      "longitude": 11.1730615,
      "viewport": {
        "northeast": {
          "lat": 10.325844,
          "lng": 11.2241649
        },
        "southwest": {
          "lat": 10.2387281,
          "lng": 11.115407
        }
      },
      "formatted_address": "Gombe, Nigeria",
      "google_map_url": "https://maps.google.com?q=10.279142,11.1730615",
      "google_place_id": "ChIJD7p65mTQ_xAR74mSKefZckw"
    }
  },
  {
    "id": "60471",
    "name": "UNG MAI GANA, GLO MAST SARIKIN RUWA BOREHOLE",
    "registration_area_id": "3280",
    "precise_location": null,
    "abbreviation": "021",
    "units": "021",
    "delimitation": "15/05/04/021",
    "remark": "NEW PU",
    "ward_id": "3280",
    "ward_name": "BAJOGA EAST",
    "local_government_id": "286",
    "local_government_name": "FUNAKAYE",
    "state_id": "15",
    "state_name": "GOMBE",
    "location": {
      "latitude": 10.8346214,
      "longitude": 11.4311254,
      "viewport": {
        "northeast": {
          "lat": 10.83613317989272,
          "lng": 11.43244497989272
        },
        "southwest": {
          "lat": 10.83343352010728,
          "lng": 11.42974532010728
        }
      },
      "formatted_address": "762102, Bajoga, Nigeria",
      "google_map_url": "https://maps.google.com?q=10.8346214,11.4311254",
      "google_place_id": "ChIJ4Qto1qa1ARER6tSlBPS9RW8"
    }
  },
  {
    "id": "60472",
    "name": "UNG. MAI ZARA MADU MAI-RAKE BOREHOLE",
    "registration_area_id": "3280",
    "precise_location": null,
    "abbreviation": "022",
    "units": "022",
    "delimitation": "15/05/04/022",
    "remark": "NEW PU",
    "ward_id": "3280",
    "ward_name": "BAJOGA EAST",
    "local_government_id": "286",
    "local_government_name": "FUNAKAYE",
    "state_id": "15",
    "state_name": "GOMBE",
    "location": {
      "latitude": 10.8536745,
      "longitude": 11.4381945,
      "viewport": {
        "northeast": {
          "lat": 10.85498887989272,
          "lng": 11.43952712989272
        },
        "southwest": {
          "lat": 10.85228922010728,
          "lng": 11.43682747010728
        }
      },
      "formatted_address": "VC3Q+F78, 762102, Bajoga, Nigeria",
      "google_map_url": "https://maps.google.com?q=10.8536745,11.4381945",
      "google_place_id": "ChIJMyqJn6u2ARERRi_WTYVYwUw"
    }
  },
  {
    "id": "60473",
    "name": "UNG. GANDU PRI. SCHOOL",
    "registration_area_id": "3280",
    "precise_location": null,
    "abbreviation": "023",
    "units": "023",
    "delimitation": "15/05/04/023",
    "remark": "NEW PU",
    "ward_id": "3280",
    "ward_name": "BAJOGA EAST",
    "local_government_id": "286",
    "local_government_name": "FUNAKAYE",
    "state_id": "15",
    "state_name": "GOMBE",
    "location": {
      "latitude": 10.8486861,
      "longitude": 11.4438021,
      "viewport": {
        "northeast": {
          "lat": 10.85000802989272,
          "lng": 11.44510962989272
        },
        "southwest": {
          "lat": 10.84730837010728,
          "lng": 11.44240997010728
        }
      },
      "formatted_address": "RCXV+GG2, 762102, Bajoga, Nigeria",
      "google_map_url": "https://maps.google.com?q=10.8486861,11.4438021",
      "google_place_id": "ChIJN4boR662ARERns8htfux6Kk"
    }
  },
  {
    "id": "60474",
    "name": "UNG. GANDU BOREHOLE",
    "registration_area_id": "3280",
    "precise_location": null,
    "abbreviation": "024",
    "units": "024",
    "delimitation": "15/05/04/024",
    "remark": "NEW PU",
    "ward_id": "3280",
    "ward_name": "BAJOGA EAST",
    "local_government_id": "286",
    "local_government_name": "FUNAKAYE",
    "state_id": "15",
    "state_name": "GOMBE",
    "location": {
      "latitude": 10.8346214,
      "longitude": 11.4311254,
      "viewport": {
        "northeast": {
          "lat": 10.83613317989272,
          "lng": 11.43244497989272
        },
        "southwest": {
          "lat": 10.83343352010728,
          "lng": 11.42974532010728
        }
      },
      "formatted_address": "762102, Bajoga, Nigeria",
      "google_map_url": "https://maps.google.com?q=10.8346214,11.4311254",
      "google_place_id": "ChIJ4Qto1qa1ARER6tSlBPS9RW8"
    }
  },
  {
    "id": "60475",
    "name": "UNG. YOBE, GIDAN SHANU",
    "registration_area_id": "3280",
    "precise_location": null,
    "abbreviation": "025",
    "units": "025",
    "delimitation": "15/05/04/025",
    "remark": "NEW PU",
    "ward_id": "3280",
    "ward_name": "BAJOGA EAST",
    "local_government_id": "286",
    "local_government_name": "FUNAKAYE",
    "state_id": "15",
    "state_name": "GOMBE",
    "location": {
      "latitude": 10.8346214,
      "longitude": 11.4311254,
      "viewport": {
        "northeast": {
          "lat": 10.83613317989272,
          "lng": 11.43244497989272
        },
        "southwest": {
          "lat": 10.83343352010728,
          "lng": 11.42974532010728
        }
      },
      "formatted_address": "762102, Bajoga, Nigeria",
      "google_map_url": "https://maps.google.com?q=10.8346214,11.4311254",
      "google_place_id": "ChIJ4Qto1qa1ARER6tSlBPS9RW8"
    }
  },
  {
    "id": "60476",
    "name": "UNG. YOBE GARBA KOLORI BOREHOLE",
    "registration_area_id": "3280",
    "precise_location": null,
    "abbreviation": "026",
    "units": "026",
    "delimitation": "15/05/04/026",
    "remark": "NEW PU",
    "ward_id": "3280",
    "ward_name": "BAJOGA EAST",
    "local_government_id": "286",
    "local_government_name": "FUNAKAYE",
    "state_id": "15",
    "state_name": "GOMBE",
    "location": null
  },
  {
    "id": "60477",
    "name": "UNG. YOBE , LAYIN ALH. KARI, ALH. YA'U OPEN SPACE",
    "registration_area_id": "3280",
    "precise_location": null,
    "abbreviation": "027",
    "units": "027",
    "delimitation": "15/05/04/027",
    "remark": "NEW PU",
    "ward_id": "3280",
    "ward_name": "BAJOGA EAST",
    "local_government_id": "286",
    "local_government_name": "FUNAKAYE",
    "state_id": "15",
    "state_name": "GOMBE",
    "location": null
  },
  {
    "id": "60478",
    "name": "UNG. BAMALUM TSOHUWAR TASHAR MOTA",
    "registration_area_id": "3280",
    "precise_location": null,
    "abbreviation": "028",
    "units": "028",
    "delimitation": "15/05/04/028",
    "remark": "NEW PU",
    "ward_id": "3280",
    "ward_name": "BAJOGA EAST",
    "local_government_id": "286",
    "local_government_name": "FUNAKAYE",
    "state_id": "15",
    "state_name": "GOMBE",
    "location": {
      "latitude": 10.8346214,
      "longitude": 11.4311254,
      "viewport": {
        "northeast": {
          "lat": 10.83613317989272,
          "lng": 11.43244497989272
        },
        "southwest": {
          "lat": 10.83343352010728,
          "lng": 11.42974532010728
        }
      },
      "formatted_address": "762102, Bajoga, Nigeria",
      "google_map_url": "https://maps.google.com?q=10.8346214,11.4311254",
      "google_place_id": "ChIJ4Qto1qa1ARER6tSlBPS9RW8"
    }
  },
  {
    "id": "60479",
    "name": "UNG. BAMALUM, BUKAR MAI-GORONGO OPEN SPACE",
    "registration_area_id": "3280",
    "precise_location": null,
    "abbreviation": "029",
    "units": "029",
    "delimitation": "15/05/04/029",
    "remark": "NEW PU",
    "ward_id": "3280",
    "ward_name": "BAJOGA EAST",
    "local_government_id": "286",
    "local_government_name": "FUNAKAYE",
    "state_id": "15",
    "state_name": "GOMBE",
    "location": {
      "latitude": 10.8536745,
      "longitude": 11.4381945,
      "viewport": {
        "northeast": {
          "lat": 10.85498887989272,
          "lng": 11.43952712989272
        },
        "southwest": {
          "lat": 10.85228922010728,
          "lng": 11.43682747010728
        }
      },
      "formatted_address": "VC3Q+F78, 762102, Bajoga, Nigeria",
      "google_map_url": "https://maps.google.com?q=10.8536745,11.4381945",
      "google_place_id": "ChIJMyqJn6u2ARERRi_WTYVYwUw"
    }
  },
  {
    "id": "60480",
    "name": "UNG. BAMALUM ALH. HAMMAN OPEN SPACE",
    "registration_area_id": "3280",
    "precise_location": null,
    "abbreviation": "030",
    "units": "030",
    "delimitation": "15/05/04/030",
    "remark": "NEW PU",
    "ward_id": "3280",
    "ward_name": "BAJOGA EAST",
    "local_government_id": "286",
    "local_government_name": "FUNAKAYE",
    "state_id": "15",
    "state_name": "GOMBE",
    "location": {
      "latitude": 36.722898,
      "longitude": -4.418697,
      "viewport": {
        "northeast": {
          "lat": 36.72441192989272,
          "lng": -4.417234020107278
        },
        "southwest": {
          "lat": 36.72171227010727,
          "lng": -4.419933679892722
        }
      },
      "formatted_address": "C. Tomás de Cózar, 13, 29008 Málaga, Spain",
      "google_map_url": "https://maps.google.com?q=36.722898,-4.418697",
      "google_place_id": "ChIJ4zg98r_3cg0Rrv16iovWfhw"
    }
  },
  {
    "id": "60481",
    "name": "BODORIYAL PRIMARY SCHOOL",
    "registration_area_id": "3280",
    "precise_location": null,
    "abbreviation": "031",
    "units": "031",
    "delimitation": "15/05/04/031",
    "remark": "NEW PU",
    "ward_id": "3280",
    "ward_name": "BAJOGA EAST",
    "local_government_id": "286",
    "local_government_name": "FUNAKAYE",
    "state_id": "15",
    "state_name": "GOMBE",
    "location": {
      "latitude": 10.8486861,
      "longitude": 11.4438021,
      "viewport": {
        "northeast": {
          "lat": 10.85000802989272,
          "lng": 11.44510962989272
        },
        "southwest": {
          "lat": 10.84730837010728,
          "lng": 11.44240997010728
        }
      },
      "formatted_address": "RCXV+GG2, 762102, Bajoga, Nigeria",
      "google_map_url": "https://maps.google.com?q=10.8486861,11.4438021",
      "google_place_id": "ChIJN4boR662ARERns8htfux6Kk"
    }
  },
  {
    "id": "60482",
    "name": "SANGARU TSOHUWA GIDIN BOREHOLE",
    "registration_area_id": "3280",
    "precise_location": null,
    "abbreviation": "032",
    "units": "032",
    "delimitation": "15/05/04/032",
    "remark": "NEW PU",
    "ward_id": "3280",
    "ward_name": "BAJOGA EAST",
    "local_government_id": "286",
    "local_government_name": "FUNAKAYE",
    "state_id": "15",
    "state_name": "GOMBE",
    "location": {
      "latitude": 10.8346214,
      "longitude": 11.4311254,
      "viewport": {
        "northeast": {
          "lat": 10.83613317989272,
          "lng": 11.43244497989272
        },
        "southwest": {
          "lat": 10.83343352010728,
          "lng": 11.42974532010728
        }
      },
      "formatted_address": "762102, Bajoga, Nigeria",
      "google_map_url": "https://maps.google.com?q=10.8346214,11.4311254",
      "google_place_id": "ChIJ4Qto1qa1ARER6tSlBPS9RW8"
    }
  },
  {
    "id": "60483",
    "name": "SANGARU BABA ADAMU MASIN OPEN SPACE",
    "registration_area_id": "3280",
    "precise_location": null,
    "abbreviation": "033",
    "units": "033",
    "delimitation": "15/05/04/033",
    "remark": "NEW PU",
    "ward_id": "3280",
    "ward_name": "BAJOGA EAST",
    "local_government_id": "286",
    "local_government_name": "FUNAKAYE",
    "state_id": "15",
    "state_name": "GOMBE",
    "location": {
      "latitude": 10.8491201,
      "longitude": 11.4448281,
      "viewport": {
        "northeast": {
          "lat": 10.85040642989272,
          "lng": 11.44618682989272
        },
        "southwest": {
          "lat": 10.84770677010728,
          "lng": 11.44348717010728
        }
      },
      "formatted_address": "Sangaru Primary School, 762102, Bajoga, Nigeria",
      "google_map_url": "https://maps.google.com?q=10.8491201,11.4448281",
      "google_place_id": "ChIJAXvzI662ARER1OktVAEcdpY"
    }
  },
  {
    "id": "60484",
    "name": "MAI UNG. HARAMJI OPEN SPACE",
    "registration_area_id": "3280",
    "precise_location": null,
    "abbreviation": "034",
    "units": "034",
    "delimitation": "15/05/04/034",
    "remark": "NEW PU",
    "ward_id": "3280",
    "ward_name": "BAJOGA EAST",
    "local_government_id": "286",
    "local_government_name": "FUNAKAYE",
    "state_id": "15",
    "state_name": "GOMBE",
    "location": {
      "latitude": 10.8536745,
      "longitude": 11.4381945,
      "viewport": {
        "northeast": {
          "lat": 10.85498887989272,
          "lng": 11.43952712989272
        },
        "southwest": {
          "lat": 10.85228922010728,
          "lng": 11.43682747010728
        }
      },
      "formatted_address": "VC3Q+F78, 762102, Bajoga, Nigeria",
      "google_map_url": "https://maps.google.com?q=10.8536745,11.4381945",
      "google_place_id": "ChIJMyqJn6u2ARERRi_WTYVYwUw"
    }
  },
  {
    "id": "60485",
    "name": "SANGARU, BUBA UJILI OPEN SPACE",
    "registration_area_id": "3280",
    "precise_location": null,
    "abbreviation": "035",
    "units": "035",
    "delimitation": "15/05/04/035",
    "remark": "NEW PU",
    "ward_id": "3280",
    "ward_name": "BAJOGA EAST",
    "local_government_id": "286",
    "local_government_name": "FUNAKAYE",
    "state_id": "15",
    "state_name": "GOMBE",
    "location": {
      "latitude": 10.8491201,
      "longitude": 11.4448281,
      "viewport": {
        "northeast": {
          "lat": 10.85040642989272,
          "lng": 11.44618682989272
        },
        "southwest": {
          "lat": 10.84770677010728,
          "lng": 11.44348717010728
        }
      },
      "formatted_address": "Sangaru Primary School, 762102, Bajoga, Nigeria",
      "google_map_url": "https://maps.google.com?q=10.8491201,11.4448281",
      "google_place_id": "ChIJAXvzI662ARER1OktVAEcdpY"
    }
  },
  {
    "id": "60486",
    "name": "SANGARU MAI UNG. BABAYO OPEN SPACE",
    "registration_area_id": "3280",
    "precise_location": null,
    "abbreviation": "036",
    "units": "036",
    "delimitation": "15/05/04/036",
    "remark": "NEW PU",
    "ward_id": "3280",
    "ward_name": "BAJOGA EAST",
    "local_government_id": "286",
    "local_government_name": "FUNAKAYE",
    "state_id": "15",
    "state_name": "GOMBE",
    "location": {
      "latitude": 10.8491201,
      "longitude": 11.4448281,
      "viewport": {
        "northeast": {
          "lat": 10.85040642989272,
          "lng": 11.44618682989272
        },
        "southwest": {
          "lat": 10.84770677010728,
          "lng": 11.44348717010728
        }
      },
      "formatted_address": "Sangaru Primary School, 762102, Bajoga, Nigeria",
      "google_map_url": "https://maps.google.com?q=10.8491201,11.4448281",
      "google_place_id": "ChIJAXvzI662ARER1OktVAEcdpY"
    }
  },
  {
    "id": "60487",
    "name": "KORAGO CINEMA",
    "registration_area_id": "3280",
    "precise_location": null,
    "abbreviation": "037",
    "units": "037",
    "delimitation": "15/05/04/037",
    "remark": "NEW PU",
    "ward_id": "3280",
    "ward_name": "BAJOGA EAST",
    "local_government_id": "286",
    "local_government_name": "FUNAKAYE",
    "state_id": "15",
    "state_name": "GOMBE",
    "location": {
      "latitude": 10.8508029,
      "longitude": 11.4386012,
      "viewport": {
        "northeast": {
          "lat": 10.85217392989272,
          "lng": 11.44001102989272
        },
        "southwest": {
          "lat": 10.84947427010728,
          "lng": 11.43731137010728
        }
      },
      "formatted_address": "VC2Q+8CF, korago 762102, Bajoga, Nigeria",
      "google_map_url": "https://maps.google.com?q=10.8508029,11.4386012",
      "google_place_id": "ChIJM_rfEHm3ARER_H6IALdau0o"
    }
  },
  {
    "id": "60488",
    "name": "UNG. ARI USMAN SAJE OPEN SPACE",
    "registration_area_id": "3280",
    "precise_location": null,
    "abbreviation": "038",
    "units": "038",
    "delimitation": "15/05/04/038",
    "remark": "NEW PU",
    "ward_id": "3280",
    "ward_name": "BAJOGA EAST",
    "local_government_id": "286",
    "local_government_name": "FUNAKAYE",
    "state_id": "15",
    "state_name": "GOMBE",
    "location": null
  },
  {
    "id": "60489",
    "name": "UNG. ARI LAYIN GIDAN DANNY",
    "registration_area_id": "3280",
    "precise_location": null,
    "abbreviation": "039",
    "units": "039",
    "delimitation": "15/05/04/039",
    "remark": "NEW PU",
    "ward_id": "3280",
    "ward_name": "BAJOGA EAST",
    "local_government_id": "286",
    "local_government_name": "FUNAKAYE",
    "state_id": "15",
    "state_name": "GOMBE",
    "location": {
      "latitude": 10.3069303,
      "longitude": 10.907573,
      "viewport": {
        "northeast": {
          "lat": 10.30830857989272,
          "lng": 10.90890097989272
        },
        "southwest": {
          "lat": 10.30560892010728,
          "lng": 10.90620132010728
        }
      },
      "formatted_address": "8W45+Q25, 771104, Lawanti, Nigeria",
      "google_map_url": "https://maps.google.com?q=10.3069303,10.907573",
      "google_place_id": "ChIJk_zfQ0Hn_xARn4-RJIWKMJk"
    }
  },
  {
    "id": "60490",
    "name": "SABON LAYIN, MALAM AJUJI OPEN SPACE",
    "registration_area_id": "3280",
    "precise_location": null,
    "abbreviation": "040",
    "units": "040",
    "delimitation": "15/05/04/040",
    "remark": "NEW PU",
    "ward_id": "3280",
    "ward_name": "BAJOGA EAST",
    "local_government_id": "286",
    "local_government_name": "FUNAKAYE",
    "state_id": "15",
    "state_name": "GOMBE",
    "location": null
  }
]