[
  {
    "id": "84269",
    "name": "DANEJI",
    "registration_area_id": "4367",
    "precise_location": null,
    "abbreviation": "001",
    "units": "001",
    "delimitation": "19/03/03/001",
    "remark": "EXISTING PU",
    "ward_id": "4367",
    "ward_name": "GADANYA",
    "local_government_id": "372",
    "local_government_name": "BAGWAI",
    "state_id": "19",
    "state_name": "KANO",
    "location": {
      "latitude": 11.5650269,
      "longitude": 7.8561757,
      "viewport": {
        "northeast": {
          "lat": 11.5696461,
          "lng": 7.856602099999999
        },
        "southwest": {
          "lat": 11.5613129,
          "lng": 7.850769099999999
        }
      },
      "formatted_address": "704105, Daneji, Nigeria",
      "google_map_url": "https://maps.google.com?q=11.5650269,7.8561757",
      "google_place_id": "ChIJ59jOenKLrRERQcbTmRWgu7s"
    }
  },
  {
    "id": "84270",
    "name": "DAGANYA KAROFI I",
    "registration_area_id": "4367",
    "precise_location": null,
    "abbreviation": "002",
    "units": "002",
    "delimitation": "19/03/03/002",
    "remark": "EXISTING PU",
    "ward_id": "4367",
    "ward_name": "GADANYA",
    "local_government_id": "372",
    "local_government_name": "BAGWAI",
    "state_id": "19",
    "state_name": "KANO",
    "location": {
      "latitude": 21.0181218,
      "longitude": 105.816246,
      "viewport": {
        "northeast": {
          "lat": 21.01950417989272,
          "lng": 105.8175400798927
        },
        "southwest": {
          "lat": 21.01680452010728,
          "lng": 105.8148404201073
        }
      },
      "formatted_address": "83 P. Láng Hạ, Chợ Dừa, Đống Đa, Hà Nội, Vietnam",
      "google_map_url": "https://maps.google.com?q=21.0181218,105.816246",
      "google_place_id": "ChIJ6ecTQXOrNTERhY2hDTl4ED8"
    }
  },
  {
    "id": "84271",
    "name": "DAGANYA KAROFI II",
    "registration_area_id": "4367",
    "precise_location": null,
    "abbreviation": "003",
    "units": "003",
    "delimitation": "19/03/03/003",
    "remark": "EXISTING PU",
    "ward_id": "4367",
    "ward_name": "GADANYA",
    "local_government_id": "372",
    "local_government_name": "BAGWAI",
    "state_id": "19",
    "state_name": "KANO",
    "location": {
      "latitude": 12.1934738,
      "longitude": 8.1635553,
      "viewport": {
        "northeast": {
          "lat": 12.19521297989272,
          "lng": 8.164953829892722
        },
        "southwest": {
          "lat": 12.19251332010728,
          "lng": 8.162254170107278
        }
      },
      "formatted_address": "55V7+9CM, 701104, Bagwai, Nigeria",
      "google_map_url": "https://maps.google.com?q=12.1934738,8.1635553",
      "google_place_id": "ChIJ2z8CBO9srhERRBBv-JowC0o"
    }
  },
  {
    "id": "84272",
    "name": "GADANYA KOFAR GABAS I",
    "registration_area_id": "4367",
    "precise_location": null,
    "abbreviation": "004",
    "units": "004",
    "delimitation": "19/03/03/004",
    "remark": "EXISTING PU",
    "ward_id": "4367",
    "ward_name": "GADANYA",
    "local_government_id": "372",
    "local_government_name": "BAGWAI",
    "state_id": "19",
    "state_name": "KANO",
    "location": {
      "latitude": 11.9851165,
      "longitude": 8.481825500000001,
      "viewport": {
        "northeast": {
          "lat": 11.98644787989272,
          "lng": 8.483100929892721
        },
        "southwest": {
          "lat": 11.98374822010728,
          "lng": 8.480401270107278
        }
      },
      "formatted_address": "Plot 14/15, Gamco House, BUK Road, Kofar Kabuga 700282, Kano, Nigeria",
      "google_map_url": "https://maps.google.com?q=11.9851165,8.481825500000001",
      "google_place_id": "ChIJb_9QG9F_rhER5z2pG_ZYOjI"
    }
  },
  {
    "id": "84273",
    "name": "GADANYA KOFAR GABAS II",
    "registration_area_id": "4367",
    "precise_location": null,
    "abbreviation": "005",
    "units": "005",
    "delimitation": "19/03/03/005",
    "remark": "EXISTING PU",
    "ward_id": "4367",
    "ward_name": "GADANYA",
    "local_government_id": "372",
    "local_government_name": "BAGWAI",
    "state_id": "19",
    "state_name": "KANO",
    "location": null
  },
  {
    "id": "84274",
    "name": "GADANYA CPS I (GADANYA KOFAR YAMMA I)",
    "registration_area_id": "4367",
    "precise_location": null,
    "abbreviation": "006",
    "units": "006",
    "delimitation": "19/03/03/006",
    "remark": "EXISTING PU",
    "ward_id": "4367",
    "ward_name": "GADANYA",
    "local_government_id": "372",
    "local_government_name": "BAGWAI",
    "state_id": "19",
    "state_name": "KANO",
    "location": {
      "latitude": 11.9851165,
      "longitude": 8.481825500000001,
      "viewport": {
        "northeast": {
          "lat": 11.98644787989272,
          "lng": 8.483100929892721
        },
        "southwest": {
          "lat": 11.98374822010728,
          "lng": 8.480401270107278
        }
      },
      "formatted_address": "Plot 14/15, Gamco House, BUK Road, Kofar Kabuga 700282, Kano, Nigeria",
      "google_map_url": "https://maps.google.com?q=11.9851165,8.481825500000001",
      "google_place_id": "ChIJb_9QG9F_rhER5z2pG_ZYOjI"
    }
  },
  {
    "id": "84275",
    "name": "GADANYA CPS II (GADANYA KOFAR YAMMA II)",
    "registration_area_id": "4367",
    "precise_location": null,
    "abbreviation": "007",
    "units": "007",
    "delimitation": "19/03/03/007",
    "remark": "EXISTING PU",
    "ward_id": "4367",
    "ward_name": "GADANYA",
    "local_government_id": "372",
    "local_government_name": "BAGWAI",
    "state_id": "19",
    "state_name": "KANO",
    "location": null
  },
  {
    "id": "84276",
    "name": "KWANGWAI PRI. SCH. I (GADANYA KWANGWAI I)",
    "registration_area_id": "4367",
    "precise_location": null,
    "abbreviation": "008",
    "units": "008",
    "delimitation": "19/03/03/008",
    "remark": "EXISTING PU",
    "ward_id": "4367",
    "ward_name": "GADANYA",
    "local_government_id": "372",
    "local_government_name": "BAGWAI",
    "state_id": "19",
    "state_name": "KANO",
    "location": {
      "latitude": 12.0719553,
      "longitude": 8.022395,
      "viewport": {
        "northeast": {
          "lat": 12.07330357989272,
          "lng": 8.023768229892722
        },
        "southwest": {
          "lat": 12.07060392010728,
          "lng": 8.021068570107278
        }
      },
      "formatted_address": "7F4C32CC+RXF Kwangwai Primary School, 701104, Gadanya, Nigeria",
      "google_map_url": "https://maps.google.com?q=12.0719553,8.022395",
      "google_place_id": "ChIJgYbeDjoPrhERwWiSQTiZEhk"
    }
  },
  {
    "id": "84277",
    "name": "KWANGWAI PRI. SCH. II (GADANYA KWANGWAI II)",
    "registration_area_id": "4367",
    "precise_location": null,
    "abbreviation": "009",
    "units": "009",
    "delimitation": "19/03/03/009",
    "remark": "EXISTING PU",
    "ward_id": "4367",
    "ward_name": "GADANYA",
    "local_government_id": "372",
    "local_government_name": "BAGWAI",
    "state_id": "19",
    "state_name": "KANO",
    "location": {
      "latitude": 12.0719553,
      "longitude": 8.022395,
      "viewport": {
        "northeast": {
          "lat": 12.07330357989272,
          "lng": 8.023768229892722
        },
        "southwest": {
          "lat": 12.07060392010728,
          "lng": 8.021068570107278
        }
      },
      "formatted_address": "7F4C32CC+RXF Kwangwai Primary School, 701104, Gadanya, Nigeria",
      "google_map_url": "https://maps.google.com?q=12.0719553,8.022395",
      "google_place_id": "ChIJgYbeDjoPrhERwWiSQTiZEhk"
    }
  },
  {
    "id": "84278",
    "name": "J/YAMMA PRI. SCH. I (JAUBEN YAMMA I)",
    "registration_area_id": "4367",
    "precise_location": null,
    "abbreviation": "010",
    "units": "010",
    "delimitation": "19/03/03/010",
    "remark": "EXISTING PU",
    "ward_id": "4367",
    "ward_name": "GADANYA",
    "local_government_id": "372",
    "local_government_name": "BAGWAI",
    "state_id": "19",
    "state_name": "KANO",
    "location": {
      "latitude": 12.06668,
      "longitude": 8.0561511,
      "viewport": {
        "northeast": {
          "lat": 12.06798712989272,
          "lng": 8.057458479892722
        },
        "southwest": {
          "lat": 12.06528747010728,
          "lng": 8.054758820107278
        }
      },
      "formatted_address": "Jauben Yamma Primary School, 701104, Gadanya, Nigeria",
      "google_map_url": "https://maps.google.com?q=12.06668,8.0561511",
      "google_place_id": "ChIJSVVFNRgMrhERObWk5wkmcjo"
    }
  },
  {
    "id": "84279",
    "name": "J/YAMMA PRI. SCH. II (JAUBEN YAMMA II)",
    "registration_area_id": "4367",
    "precise_location": null,
    "abbreviation": "011",
    "units": "011",
    "delimitation": "19/03/03/011",
    "remark": "EXISTING PU",
    "ward_id": "4367",
    "ward_name": "GADANYA",
    "local_government_id": "372",
    "local_government_name": "BAGWAI",
    "state_id": "19",
    "state_name": "KANO",
    "location": {
      "latitude": 12.1059591,
      "longitude": 8.078467,
      "viewport": {
        "northeast": {
          "lat": 12.10730062989272,
          "lng": 8.079815729892722
        },
        "southwest": {
          "lat": 12.10460097010728,
          "lng": 8.077116070107278
        }
      },
      "formatted_address": "7F4C434H+9CJ Nassarawa Gadanya Kano, Gadanya, Nigeria",
      "google_map_url": "https://maps.google.com?q=12.1059591,8.078467",
      "google_place_id": "ChIJ_d3Iq2oNrhERTDBED5-SqNE"
    }
  },
  {
    "id": "84280",
    "name": "MOJIN-KANAWA I",
    "registration_area_id": "4367",
    "precise_location": null,
    "abbreviation": "012",
    "units": "012",
    "delimitation": "19/03/03/012",
    "remark": "EXISTING PU",
    "ward_id": "4367",
    "ward_name": "GADANYA",
    "local_government_id": "372",
    "local_government_name": "BAGWAI",
    "state_id": "19",
    "state_name": "KANO",
    "location": {
      "latitude": 12.1934738,
      "longitude": 8.1635553,
      "viewport": {
        "northeast": {
          "lat": 12.19521297989272,
          "lng": 8.164953829892722
        },
        "southwest": {
          "lat": 12.19251332010728,
          "lng": 8.162254170107278
        }
      },
      "formatted_address": "55V7+9CM, 701104, Bagwai, Nigeria",
      "google_map_url": "https://maps.google.com?q=12.1934738,8.1635553",
      "google_place_id": "ChIJ2z8CBO9srhERRBBv-JowC0o"
    }
  },
  {
    "id": "84281",
    "name": "MOJIN-KANAWA II",
    "registration_area_id": "4367",
    "precise_location": null,
    "abbreviation": "013",
    "units": "013",
    "delimitation": "19/03/03/013",
    "remark": "EXISTING PU",
    "ward_id": "4367",
    "ward_name": "GADANYA",
    "local_government_id": "372",
    "local_government_name": "BAGWAI",
    "state_id": "19",
    "state_name": "KANO",
    "location": null
  },
  {
    "id": "84282",
    "name": "RIGAR-RIJIYA I",
    "registration_area_id": "4367",
    "precise_location": null,
    "abbreviation": "014",
    "units": "014",
    "delimitation": "19/03/03/014",
    "remark": "EXISTING PU",
    "ward_id": "4367",
    "ward_name": "GADANYA",
    "local_government_id": "372",
    "local_government_name": "BAGWAI",
    "state_id": "19",
    "state_name": "KANO",
    "location": null
  },
  {
    "id": "84283",
    "name": "RIGAR-RIJIYA II",
    "registration_area_id": "4367",
    "precise_location": null,
    "abbreviation": "015",
    "units": "015",
    "delimitation": "19/03/03/015",
    "remark": "EXISTING PU",
    "ward_id": "4367",
    "ward_name": "GADANYA",
    "local_government_id": "372",
    "local_government_name": "BAGWAI",
    "state_id": "19",
    "state_name": "KANO",
    "location": null
  },
  {
    "id": "84284",
    "name": "TUDARA PRI. SCH. (TUDARA C/GARI)",
    "registration_area_id": "4367",
    "precise_location": null,
    "abbreviation": "016",
    "units": "016",
    "delimitation": "19/03/03/016",
    "remark": "EXISTING PU",
    "ward_id": "4367",
    "ward_name": "GADANYA",
    "local_government_id": "372",
    "local_government_name": "BAGWAI",
    "state_id": "19",
    "state_name": "KANO",
    "location": {
      "latitude": 12.031816,
      "longitude": 8.1380382,
      "viewport": {
        "northeast": {
          "lat": 12.03305322989272,
          "lng": 8.139365629892723
        },
        "southwest": {
          "lat": 12.03035357010728,
          "lng": 8.136665970107279
        }
      },
      "formatted_address": "7F4C24JQ+P5F Jibaga Primary School, Dangada 701104, Dan Gada, Nigeria",
      "google_map_url": "https://maps.google.com?q=12.031816,8.1380382",
      "google_place_id": "ChIJkXoSpAd1rhERzJNIcnxt6gs"
    }
  },
  {
    "id": "84285",
    "name": "RIGAR FAKO PRI. SCH",
    "registration_area_id": "4367",
    "precise_location": null,
    "abbreviation": "017",
    "units": "017",
    "delimitation": "19/03/03/017",
    "remark": "NEW PU",
    "ward_id": "4367",
    "ward_name": "GADANYA",
    "local_government_id": "372",
    "local_government_name": "BAGWAI",
    "state_id": "19",
    "state_name": "KANO",
    "location": {
      "latitude": 12.1059591,
      "longitude": 8.078467,
      "viewport": {
        "northeast": {
          "lat": 12.10730062989272,
          "lng": 8.079815729892722
        },
        "southwest": {
          "lat": 12.10460097010728,
          "lng": 8.077116070107278
        }
      },
      "formatted_address": "7F4C434H+9CJ Nassarawa Gadanya Kano, Gadanya, Nigeria",
      "google_map_url": "https://maps.google.com?q=12.1059591,8.078467",
      "google_place_id": "ChIJ_d3Iq2oNrhERTDBED5-SqNE"
    }
  }
]