[
  {
    "id": "2915",
    "name": "AMAPUIPE COMM. SCHOOL",
    "registration_area_id": "118",
    "precise_location": null,
    "abbreviation": "001",
    "units": "001",
    "delimitation": "01/11/08/001",
    "remark": "EXISTING PU",
    "ward_id": "118",
    "ward_name": "AMATOR",
    "local_government_id": "11",
    "local_government_name": "OSISIOMA",
    "state_id": "1",
    "state_name": "ABIA",
    "location": {
      "latitude": 5.1664083,
      "longitude": 7.300360400000001,
      "viewport": {
        "northeast": {
          "lat": 5.168145329892721,
          "lng": 7.301546879892723
        },
        "southwest": {
          "lat": 5.165445670107277,
          "lng": 7.298847220107279
        }
      },
      "formatted_address": "Community, 453111, Umuakpara, Nigeria",
      "google_map_url": "https://maps.google.com?q=5.1664083,7.300360400000001",
      "google_place_id": "ChIJtSfVJtqbQhARlp1JCj4DP_0"
    }
  },
  {
    "id": "2916",
    "name": "EKE NA AFOR SQUARE",
    "registration_area_id": "118",
    "precise_location": null,
    "abbreviation": "002",
    "units": "002",
    "delimitation": "01/11/08/002",
    "remark": "EXISTING PU",
    "ward_id": "118",
    "ward_name": "AMATOR",
    "local_government_id": "11",
    "local_government_name": "OSISIOMA",
    "state_id": "1",
    "state_name": "ABIA",
    "location": {
      "latitude": 5.172978,
      "longitude": 7.314144799999999,
      "viewport": {
        "northeast": {
          "lat": 5.174341179892722,
          "lng": 7.315577879892723
        },
        "southwest": {
          "lat": 5.171641520107278,
          "lng": 7.31287822010728
        }
      },
      "formatted_address": "58F7+5MR, 453111, Umuakpara, Nigeria",
      "google_map_url": "https://maps.google.com?q=5.172978,7.314144799999999",
      "google_place_id": "ChIJq5AADrGbQhAR0XASn_v1lXk"
    }
  },
  {
    "id": "2917",
    "name": "UMUOKORO UKWU SQUARE",
    "registration_area_id": "118",
    "precise_location": null,
    "abbreviation": "003",
    "units": "003",
    "delimitation": "01/11/08/003",
    "remark": "EXISTING PU",
    "ward_id": "118",
    "ward_name": "AMATOR",
    "local_government_id": "11",
    "local_government_name": "OSISIOMA",
    "state_id": "1",
    "state_name": "ABIA",
    "location": {
      "latitude": 5.1538072,
      "longitude": 7.372080299999999,
      "viewport": {
        "northeast": {
          "lat": 5.155164929892722,
          "lng": 7.373399329892723
        },
        "southwest": {
          "lat": 5.152465270107278,
          "lng": 7.370699670107279
        }
      },
      "formatted_address": "593C+HRR, 453102, Aba, Nigeria",
      "google_map_url": "https://maps.google.com?q=5.1538072,7.372080299999999",
      "google_place_id": "ChIJ40jsb6mZQhARu15_EPP0Pw8"
    }
  },
  {
    "id": "2918",
    "name": "UMUOYORO SQUARE",
    "registration_area_id": "118",
    "precise_location": null,
    "abbreviation": "004",
    "units": "004",
    "delimitation": "01/11/08/004",
    "remark": "EXISTING PU",
    "ward_id": "118",
    "ward_name": "AMATOR",
    "local_government_id": "11",
    "local_government_name": "OSISIOMA",
    "state_id": "1",
    "state_name": "ABIA",
    "location": {
      "latitude": 5.189954,
      "longitude": 7.336016000000001,
      "viewport": {
        "northeast": {
          "lat": 5.191307179892721,
          "lng": 7.337363879892723
        },
        "southwest": {
          "lat": 5.188607520107277,
          "lng": 7.334664220107279
        }
      },
      "formatted_address": "58QP+XCJ, 453119, Aba, Nigeria",
      "google_map_url": "https://maps.google.com?q=5.189954,7.336016000000001",
      "google_place_id": "ChIJcTqFD6SQQhARxpHwe03hBqg"
    }
  },
  {
    "id": "2919",
    "name": "UMUAGBAI COMM. SCHOOL",
    "registration_area_id": "118",
    "precise_location": null,
    "abbreviation": "005",
    "units": "005",
    "delimitation": "01/11/08/005",
    "remark": "EXISTING PU",
    "ward_id": "118",
    "ward_name": "AMATOR",
    "local_government_id": "11",
    "local_government_name": "OSISIOMA",
    "state_id": "1",
    "state_name": "ABIA",
    "location": {
      "latitude": 5.1664083,
      "longitude": 7.300360400000001,
      "viewport": {
        "northeast": {
          "lat": 5.168145329892721,
          "lng": 7.301546879892723
        },
        "southwest": {
          "lat": 5.165445670107277,
          "lng": 7.298847220107279
        }
      },
      "formatted_address": "Community, 453111, Umuakpara, Nigeria",
      "google_map_url": "https://maps.google.com?q=5.1664083,7.300360400000001",
      "google_place_id": "ChIJtSfVJtqbQhARlp1JCj4DP_0"
    }
  },
  {
    "id": "2920",
    "name": "AMAOGWUGWU VILLAGE SQUARE",
    "registration_area_id": "118",
    "precise_location": null,
    "abbreviation": "006",
    "units": "006",
    "delimitation": "01/11/08/006",
    "remark": "EXISTING PU",
    "ward_id": "118",
    "ward_name": "AMATOR",
    "local_government_id": "11",
    "local_government_name": "OSISIOMA",
    "state_id": "1",
    "state_name": "ABIA",
    "location": null
  },
  {
    "id": "2921",
    "name": "UMUOKIRI VILLAGE SQUARE",
    "registration_area_id": "118",
    "precise_location": null,
    "abbreviation": "007",
    "units": "007",
    "delimitation": "01/11/08/007",
    "remark": "EXISTING PU",
    "ward_id": "118",
    "ward_name": "AMATOR",
    "local_government_id": "11",
    "local_government_name": "OSISIOMA",
    "state_id": "1",
    "state_name": "ABIA",
    "location": {
      "latitude": 5.189954,
      "longitude": 7.336016000000001,
      "viewport": {
        "northeast": {
          "lat": 5.191307179892721,
          "lng": 7.337363879892723
        },
        "southwest": {
          "lat": 5.188607520107277,
          "lng": 7.334664220107279
        }
      },
      "formatted_address": "58QP+XCJ, 453119, Aba, Nigeria",
      "google_map_url": "https://maps.google.com?q=5.189954,7.336016000000001",
      "google_place_id": "ChIJcTqFD6SQQhARxpHwe03hBqg"
    }
  },
  {
    "id": "2922",
    "name": "UMUODU VILLAGE SQUARE",
    "registration_area_id": "118",
    "precise_location": null,
    "abbreviation": "008",
    "units": "008",
    "delimitation": "01/11/08/008",
    "remark": "EXISTING PU",
    "ward_id": "118",
    "ward_name": "AMATOR",
    "local_government_id": "11",
    "local_government_name": "OSISIOMA",
    "state_id": "1",
    "state_name": "ABIA",
    "location": {
      "latitude": 5.189954,
      "longitude": 7.336016000000001,
      "viewport": {
        "northeast": {
          "lat": 5.191307179892721,
          "lng": 7.337363879892723
        },
        "southwest": {
          "lat": 5.188607520107277,
          "lng": 7.334664220107279
        }
      },
      "formatted_address": "58QP+XCJ, 453119, Aba, Nigeria",
      "google_map_url": "https://maps.google.com?q=5.189954,7.336016000000001",
      "google_place_id": "ChIJcTqFD6SQQhARxpHwe03hBqg"
    }
  },
  {
    "id": "2923",
    "name": "UMUOKORO CIVIC HALL",
    "registration_area_id": "118",
    "precise_location": null,
    "abbreviation": "009",
    "units": "009",
    "delimitation": "01/11/08/009",
    "remark": "EXISTING PU",
    "ward_id": "118",
    "ward_name": "AMATOR",
    "local_government_id": "11",
    "local_government_name": "OSISIOMA",
    "state_id": "1",
    "state_name": "ABIA",
    "location": {
      "latitude": 5.189954,
      "longitude": 7.336016000000001,
      "viewport": {
        "northeast": {
          "lat": 5.191307179892721,
          "lng": 7.337363879892723
        },
        "southwest": {
          "lat": 5.188607520107277,
          "lng": 7.334664220107279
        }
      },
      "formatted_address": "58QP+XCJ, 453119, Aba, Nigeria",
      "google_map_url": "https://maps.google.com?q=5.189954,7.336016000000001",
      "google_place_id": "ChIJcTqFD6SQQhARxpHwe03hBqg"
    }
  },
  {
    "id": "2924",
    "name": "UMUOKIRI VILLAGE SQUARE",
    "registration_area_id": "118",
    "precise_location": null,
    "abbreviation": "010",
    "units": "010",
    "delimitation": "01/11/08/010",
    "remark": "EXISTING PU",
    "ward_id": "118",
    "ward_name": "AMATOR",
    "local_government_id": "11",
    "local_government_name": "OSISIOMA",
    "state_id": "1",
    "state_name": "ABIA",
    "location": {
      "latitude": 5.189954,
      "longitude": 7.336016000000001,
      "viewport": {
        "northeast": {
          "lat": 5.191307179892721,
          "lng": 7.337363879892723
        },
        "southwest": {
          "lat": 5.188607520107277,
          "lng": 7.334664220107279
        }
      },
      "formatted_address": "58QP+XCJ, 453119, Aba, Nigeria",
      "google_map_url": "https://maps.google.com?q=5.189954,7.336016000000001",
      "google_place_id": "ChIJcTqFD6SQQhARxpHwe03hBqg"
    }
  },
  {
    "id": "2925",
    "name": "UMUIGBE VILLAGE SQUARE",
    "registration_area_id": "118",
    "precise_location": null,
    "abbreviation": "011",
    "units": "011",
    "delimitation": "01/11/08/011",
    "remark": "EXISTING PU",
    "ward_id": "118",
    "ward_name": "AMATOR",
    "local_government_id": "11",
    "local_government_name": "OSISIOMA",
    "state_id": "1",
    "state_name": "ABIA",
    "location": {
      "latitude": 5.189954,
      "longitude": 7.336016000000001,
      "viewport": {
        "northeast": {
          "lat": 5.191307179892721,
          "lng": 7.337363879892723
        },
        "southwest": {
          "lat": 5.188607520107277,
          "lng": 7.334664220107279
        }
      },
      "formatted_address": "58QP+XCJ, 453119, Aba, Nigeria",
      "google_map_url": "https://maps.google.com?q=5.189954,7.336016000000001",
      "google_place_id": "ChIJcTqFD6SQQhARxpHwe03hBqg"
    }
  },
  {
    "id": "2926",
    "name": "UMUDIKE VILLAGE HALL",
    "registration_area_id": "118",
    "precise_location": null,
    "abbreviation": "012",
    "units": "012",
    "delimitation": "01/11/08/012",
    "remark": "EXISTING PU",
    "ward_id": "118",
    "ward_name": "AMATOR",
    "local_government_id": "11",
    "local_government_name": "OSISIOMA",
    "state_id": "1",
    "state_name": "ABIA",
    "location": {
      "latitude": 5.189954,
      "longitude": 7.336016000000001,
      "viewport": {
        "northeast": {
          "lat": 5.191307179892721,
          "lng": 7.337363879892723
        },
        "southwest": {
          "lat": 5.188607520107277,
          "lng": 7.334664220107279
        }
      },
      "formatted_address": "58QP+XCJ, 453119, Aba, Nigeria",
      "google_map_url": "https://maps.google.com?q=5.189954,7.336016000000001",
      "google_place_id": "ChIJcTqFD6SQQhARxpHwe03hBqg"
    }
  },
  {
    "id": "2927",
    "name": "UMUOKIRI / UMUODU PRIMARY SCHOOL",
    "registration_area_id": "118",
    "precise_location": null,
    "abbreviation": "013",
    "units": "013",
    "delimitation": "01/11/08/013",
    "remark": "EXISTING PU",
    "ward_id": "118",
    "ward_name": "AMATOR",
    "local_government_id": "11",
    "local_government_name": "OSISIOMA",
    "state_id": "1",
    "state_name": "ABIA",
    "location": {
      "latitude": 5.1267593,
      "longitude": 7.327265499999999,
      "viewport": {
        "northeast": {
          "lat": 5.128097979892721,
          "lng": 7.328590679892723
        },
        "southwest": {
          "lat": 5.125398320107277,
          "lng": 7.325891020107279
        }
      },
      "formatted_address": "48GG+JWF umuode village, Abayi 453111, Aba, Nigeria",
      "google_map_url": "https://maps.google.com?q=5.1267593,7.327265499999999",
      "google_place_id": "ChIJ9-I_2L6bQhARlDk-Z8ptwzk"
    }
  },
  {
    "id": "2928",
    "name": "UMUOSIAMA  CIVIC CENTRE",
    "registration_area_id": "118",
    "precise_location": null,
    "abbreviation": "014",
    "units": "014",
    "delimitation": "01/11/08/014",
    "remark": "NEW PU",
    "ward_id": "118",
    "ward_name": "AMATOR",
    "local_government_id": "11",
    "local_government_name": "OSISIOMA",
    "state_id": "1",
    "state_name": "ABIA",
    "location": {
      "latitude": 5.189954,
      "longitude": 7.336016000000001,
      "viewport": {
        "northeast": {
          "lat": 5.191307179892721,
          "lng": 7.337363879892723
        },
        "southwest": {
          "lat": 5.188607520107277,
          "lng": 7.334664220107279
        }
      },
      "formatted_address": "58QP+XCJ, 453119, Aba, Nigeria",
      "google_map_url": "https://maps.google.com?q=5.189954,7.336016000000001",
      "google_place_id": "ChIJcTqFD6SQQhARxpHwe03hBqg"
    }
  },
  {
    "id": "2929",
    "name": "MIGRANT FARMERS' PRIMARY SCHOOL",
    "registration_area_id": "118",
    "precise_location": null,
    "abbreviation": "015",
    "units": "015",
    "delimitation": "01/11/08/015",
    "remark": "NEW PU",
    "ward_id": "118",
    "ward_name": "AMATOR",
    "local_government_id": "11",
    "local_government_name": "OSISIOMA",
    "state_id": "1",
    "state_name": "ABIA",
    "location": {
      "latitude": 5.009452899999999,
      "longitude": 7.318070899999999,
      "viewport": {
        "northeast": {
          "lat": 5.010830279892723,
          "lng": 7.319405779892722
        },
        "southwest": {
          "lat": 5.008130620107279,
          "lng": 7.316706120107278
        }
      },
      "formatted_address": "Azumini - Obehie Rd, 453120, Umuokwor, Nigeria",
      "google_map_url": "https://maps.google.com?q=5.009452899999999,7.318070899999999",
      "google_place_id": "ChIJWaV7AFsnaBARDVgwM8WS5cg"
    }
  },
  {
    "id": "2930",
    "name": "COMMUNITY PRIMARY SCHOOL, UMUOYORO VILLAGE",
    "registration_area_id": "118",
    "precise_location": null,
    "abbreviation": "016",
    "units": "016",
    "delimitation": "01/11/08/016",
    "remark": "NEW PU",
    "ward_id": "118",
    "ward_name": "AMATOR",
    "local_government_id": "11",
    "local_government_name": "OSISIOMA",
    "state_id": "1",
    "state_name": "ABIA",
    "location": {
      "latitude": 5.1267593,
      "longitude": 7.327265499999999,
      "viewport": {
        "northeast": {
          "lat": 5.128097979892721,
          "lng": 7.328590679892723
        },
        "southwest": {
          "lat": 5.125398320107277,
          "lng": 7.325891020107279
        }
      },
      "formatted_address": "48GG+JWF umuode village, Abayi 453111, Aba, Nigeria",
      "google_map_url": "https://maps.google.com?q=5.1267593,7.327265499999999",
      "google_place_id": "ChIJ9-I_2L6bQhARlDk-Z8ptwzk"
    }
  },
  {
    "id": "2931",
    "name": "UMULE VILLAGE HALL UMUAGBAI, AMATOR",
    "registration_area_id": "118",
    "precise_location": null,
    "abbreviation": "017",
    "units": "017",
    "delimitation": "01/11/08/017",
    "remark": "NEW PU",
    "ward_id": "118",
    "ward_name": "AMATOR",
    "local_government_id": "11",
    "local_government_name": "OSISIOMA",
    "state_id": "1",
    "state_name": "ABIA",
    "location": {
      "latitude": 5.189954,
      "longitude": 7.336016000000001,
      "viewport": {
        "northeast": {
          "lat": 5.191307179892721,
          "lng": 7.337363879892723
        },
        "southwest": {
          "lat": 5.188607520107277,
          "lng": 7.334664220107279
        }
      },
      "formatted_address": "58QP+XCJ, 453119, Aba, Nigeria",
      "google_map_url": "https://maps.google.com?q=5.189954,7.336016000000001",
      "google_place_id": "ChIJcTqFD6SQQhARxpHwe03hBqg"
    }
  },
  {
    "id": "2932",
    "name": "UMUOKIRI HEALTH CENTRE",
    "registration_area_id": "118",
    "precise_location": null,
    "abbreviation": "018",
    "units": "018",
    "delimitation": "01/11/08/018",
    "remark": "NEW PU",
    "ward_id": "118",
    "ward_name": "AMATOR",
    "local_government_id": "11",
    "local_government_name": "OSISIOMA",
    "state_id": "1",
    "state_name": "ABIA",
    "location": {
      "latitude": 5.2749,
      "longitude": 7.1461,
      "viewport": {
        "northeast": {
          "lat": 5.276321529892722,
          "lng": 7.147443729892721
        },
        "southwest": {
          "lat": 5.273621870107278,
          "lng": 7.144744070107278
        }
      },
      "formatted_address": "74FW+XC9, 470108, Elelem, Nigeria",
      "google_map_url": "https://maps.google.com?q=5.2749,7.1461",
      "google_place_id": "ChIJs4g0rtCLQhARfU0AXTcB14c"
    }
  }
]