[
  {
    "id": "122562",
    "name": "OPEN SPACE NEAR OBA'S PALACE IBA TOWN",
    "registration_area_id": "6050",
    "precise_location": null,
    "abbreviation": "001",
    "units": "001",
    "delimitation": "24/17/05/001",
    "remark": "EXISTING PU",
    "ward_id": "6050",
    "ward_name": "IBA",
    "local_government_id": "522",
    "local_government_name": "OJO",
    "state_id": "24",
    "state_name": "LAGOS",
    "location": {
      "latitude": 6.4850138,
      "longitude": 3.2005239,
      "viewport": {
        "northeast": {
          "lat": 6.486350779892723,
          "lng": 3.201873079892723
        },
        "southwest": {
          "lat": 6.483651120107279,
          "lng": 3.199173420107278
        }
      },
      "formatted_address": "NAOWA MEGA PLAZA, Iba Town Rd, Ojo, Lagos, Nigeria",
      "google_map_url": "https://maps.google.com?q=6.4850138,3.2005239",
      "google_place_id": "ChIJwS8kq5CFOxARMNxx4ApuI_I"
    }
  },
  {
    "id": "122563",
    "name": "L.A. PRY. SCH., IBA TOWN I",
    "registration_area_id": "6050",
    "precise_location": null,
    "abbreviation": "002",
    "units": "002",
    "delimitation": "24/17/05/002",
    "remark": "EXISTING PU",
    "ward_id": "6050",
    "ward_name": "IBA",
    "local_government_id": "522",
    "local_government_name": "OJO",
    "state_id": "24",
    "state_name": "LAGOS",
    "location": {
      "latitude": 6.492172699999999,
      "longitude": 3.193837,
      "viewport": {
        "northeast": {
          "lat": 6.493849479892722,
          "lng": 3.195199679892722
        },
        "southwest": {
          "lat": 6.491149820107278,
          "lng": 3.192500020107278
        }
      },
      "formatted_address": "F5RV+RGG, Ojo 102101, Lagos, Nigeria",
      "google_map_url": "https://maps.google.com?q=6.492172699999999,3.193837",
      "google_place_id": "ChIJF5-NixmEOxARktjvXgwgWuU"
    }
  },
  {
    "id": "122564",
    "name": "L.A. PRY. SCH., IBA TOWN II",
    "registration_area_id": "6050",
    "precise_location": null,
    "abbreviation": "003",
    "units": "003",
    "delimitation": "24/17/05/003",
    "remark": "EXISTING PU",
    "ward_id": "6050",
    "ward_name": "IBA",
    "local_government_id": "522",
    "local_government_name": "OJO",
    "state_id": "24",
    "state_name": "LAGOS",
    "location": {
      "latitude": 6.492172699999999,
      "longitude": 3.193837,
      "viewport": {
        "northeast": {
          "lat": 6.493849479892722,
          "lng": 3.195199679892722
        },
        "southwest": {
          "lat": 6.491149820107278,
          "lng": 3.192500020107278
        }
      },
      "formatted_address": "F5RV+RGG, Ojo 102101, Lagos, Nigeria",
      "google_map_url": "https://maps.google.com?q=6.492172699999999,3.193837",
      "google_place_id": "ChIJF5-NixmEOxARktjvXgwgWuU"
    }
  },
  {
    "id": "122565",
    "name": "ESA GARAGE IBA",
    "registration_area_id": "6050",
    "precise_location": null,
    "abbreviation": "004",
    "units": "004",
    "delimitation": "24/17/05/004",
    "remark": "EXISTING PU",
    "ward_id": "6050",
    "ward_name": "IBA",
    "local_government_id": "522",
    "local_government_name": "OJO",
    "state_id": "24",
    "state_name": "LAGOS",
    "location": {
      "latitude": 6.513270299999999,
      "longitude": 3.2011505,
      "viewport": {
        "northeast": {
          "lat": 6.514650479892722,
          "lng": 3.202493029892723
        },
        "southwest": {
          "lat": 6.511950820107278,
          "lng": 3.199793370107278
        }
      },
      "formatted_address": "G672+8F2, Ojo 102101, Lagos, Nigeria",
      "google_map_url": "https://maps.google.com?q=6.513270299999999,3.2011505",
      "google_place_id": "ChIJkePJGUOEOxAR6In0JnUWXEw"
    }
  },
  {
    "id": "122566",
    "name": "OPEN SPACE AT THE JUNCTION OF OBA YISA GORIOLA/RASAKI ST. IBA",
    "registration_area_id": "6050",
    "precise_location": null,
    "abbreviation": "005",
    "units": "005",
    "delimitation": "24/17/05/005",
    "remark": "EXISTING PU",
    "ward_id": "6050",
    "ward_name": "IBA",
    "local_government_id": "522",
    "local_government_name": "OJO",
    "state_id": "24",
    "state_name": "LAGOS",
    "location": {
      "latitude": 6.5064861,
      "longitude": 3.200731,
      "viewport": {
        "northeast": {
          "lat": 6.50783997989272,
          "lng": 3.202074629892722
        },
        "southwest": {
          "lat": 6.505140320107277,
          "lng": 3.199374970107277
        }
      },
      "formatted_address": "Ojo 102101, Lagos, Nigeria",
      "google_map_url": "https://maps.google.com?q=6.5064861,3.200731",
      "google_place_id": "ChIJFwGoA0GEOxARrV9EBZqhu-A"
    }
  },
  {
    "id": "122567",
    "name": "JUNCTION OF MOSADOLUWA ST./OBA GORIOLA ST. IBA",
    "registration_area_id": "6050",
    "precise_location": null,
    "abbreviation": "006",
    "units": "006",
    "delimitation": "24/17/05/006",
    "remark": "EXISTING PU",
    "ward_id": "6050",
    "ward_name": "IBA",
    "local_government_id": "522",
    "local_government_name": "OJO",
    "state_id": "24",
    "state_name": "LAGOS",
    "location": {
      "latitude": 6.5064861,
      "longitude": 3.200731,
      "viewport": {
        "northeast": {
          "lat": 6.50783997989272,
          "lng": 3.202074629892722
        },
        "southwest": {
          "lat": 6.505140320107277,
          "lng": 3.199374970107277
        }
      },
      "formatted_address": "Ojo 102101, Lagos, Nigeria",
      "google_map_url": "https://maps.google.com?q=6.5064861,3.200731",
      "google_place_id": "ChIJFwGoA0GEOxARrV9EBZqhu-A"
    }
  },
  {
    "id": "122568",
    "name": "OPEN SPACE AT THE LEFT SIDE OF IBA HOUSING ESTATE IN FRONT OF BLOCK 30, ZONE 'B'",
    "registration_area_id": "6050",
    "precise_location": null,
    "abbreviation": "007",
    "units": "007",
    "delimitation": "24/17/05/007",
    "remark": "EXISTING PU",
    "ward_id": "6050",
    "ward_name": "IBA",
    "local_government_id": "522",
    "local_government_name": "OJO",
    "state_id": "24",
    "state_name": "LAGOS",
    "location": {
      "latitude": 6.4919397,
      "longitude": 3.1977387,
      "viewport": {
        "northeast": {
          "lat": 6.493187929892722,
          "lng": 3.199323479892723
        },
        "southwest": {
          "lat": 6.490488270107278,
          "lng": 3.196623820107278
        }
      },
      "formatted_address": "Iba Housing Estate, Ojo 102101, Lagos, Nigeria",
      "google_map_url": "https://maps.google.com?q=6.4919397,3.1977387",
      "google_place_id": "ChIJhzwkdhiEOxARQF3TCjglImI"
    }
  },
  {
    "id": "122569",
    "name": "IBA HOUSING ESTATE AT THE OPEN SPACE",
    "registration_area_id": "6050",
    "precise_location": null,
    "abbreviation": "008",
    "units": "008",
    "delimitation": "24/17/05/008",
    "remark": "EXISTING PU",
    "ward_id": "6050",
    "ward_name": "IBA",
    "local_government_id": "522",
    "local_government_name": "OJO",
    "state_id": "24",
    "state_name": "LAGOS",
    "location": {
      "latitude": 6.49194,
      "longitude": 3.197716,
      "viewport": {
        "northeast": {
          "lat": 6.493289729892721,
          "lng": 3.199106279892722
        },
        "southwest": {
          "lat": 6.490590070107277,
          "lng": 3.196406620107278
        }
      },
      "formatted_address": "Iba Housing Estate, Ojo 102101, Lagos, Nigeria",
      "google_map_url": "https://maps.google.com?q=6.49194,3.197716",
      "google_place_id": "ChIJVVVVcRiEOxARi2hCEH4DWEs"
    }
  },
  {
    "id": "122570",
    "name": "OPEN SPACE AT BLOCK 30 WITHIN THE ESTATE (SIDE TWO)",
    "registration_area_id": "6050",
    "precise_location": null,
    "abbreviation": "009",
    "units": "009",
    "delimitation": "24/17/05/009",
    "remark": "EXISTING PU",
    "ward_id": "6050",
    "ward_name": "IBA",
    "local_government_id": "522",
    "local_government_name": "OJO",
    "state_id": "24",
    "state_name": "LAGOS",
    "location": null
  },
  {
    "id": "122571",
    "name": "WITHIN BLOCK 30 IBA HOUSING ESTATE",
    "registration_area_id": "6050",
    "precise_location": null,
    "abbreviation": "010",
    "units": "010",
    "delimitation": "24/17/05/010",
    "remark": "EXISTING PU",
    "ward_id": "6050",
    "ward_name": "IBA",
    "local_government_id": "522",
    "local_government_name": "OJO",
    "state_id": "24",
    "state_name": "LAGOS",
    "location": {
      "latitude": 6.49194,
      "longitude": 3.197716,
      "viewport": {
        "northeast": {
          "lat": 6.493289729892721,
          "lng": 3.199106279892722
        },
        "southwest": {
          "lat": 6.490590070107277,
          "lng": 3.196406620107278
        }
      },
      "formatted_address": "Iba Housing Estate, Ojo 102101, Lagos, Nigeria",
      "google_map_url": "https://maps.google.com?q=6.49194,3.197716",
      "google_place_id": "ChIJVVVVcRiEOxARi2hCEH4DWEs"
    }
  },
  {
    "id": "122572",
    "name": "OPEN SPACE AT THE ESTATE CAR PARK, IN FRONT OF BLOCK 231 (RIGHT SIDE)",
    "registration_area_id": "6050",
    "precise_location": null,
    "abbreviation": "011",
    "units": "011",
    "delimitation": "24/17/05/011",
    "remark": "EXISTING PU",
    "ward_id": "6050",
    "ward_name": "IBA",
    "local_government_id": "522",
    "local_government_name": "OJO",
    "state_id": "24",
    "state_name": "LAGOS",
    "location": null
  },
  {
    "id": "122573",
    "name": "OPEN SPACE WITHIN IBA HOUSING ESTATE",
    "registration_area_id": "6050",
    "precise_location": null,
    "abbreviation": "012",
    "units": "012",
    "delimitation": "24/17/05/012",
    "remark": "EXISTING PU",
    "ward_id": "6050",
    "ward_name": "IBA",
    "local_government_id": "522",
    "local_government_name": "OJO",
    "state_id": "24",
    "state_name": "LAGOS",
    "location": null
  },
  {
    "id": "122574",
    "name": "OPEN SPACE WITHIN IBA HOUSING ESTATE CAR PARK",
    "registration_area_id": "6050",
    "precise_location": null,
    "abbreviation": "013",
    "units": "013",
    "delimitation": "24/17/05/013",
    "remark": "EXISTING PU",
    "ward_id": "6050",
    "ward_name": "IBA",
    "local_government_id": "522",
    "local_government_name": "OJO",
    "state_id": "24",
    "state_name": "LAGOS",
    "location": {
      "latitude": 6.4905083,
      "longitude": 3.1965268,
      "viewport": {
        "northeast": {
          "lat": 6.491908729892721,
          "lng": 3.197880329892722
        },
        "southwest": {
          "lat": 6.489209070107277,
          "lng": 3.195180670107277
        }
      },
      "formatted_address": "Iba Housing Estate, Ojo 102101, Lagos, Nigeria",
      "google_map_url": "https://maps.google.com?q=6.4905083,3.1965268",
      "google_place_id": "ChIJL1Uy8hiEOxAR0YkqV9qYsgU"
    }
  },
  {
    "id": "122575",
    "name": "OPEN SPACE WITHIN AGBOROKO VILLAGE",
    "registration_area_id": "6050",
    "precise_location": null,
    "abbreviation": "014",
    "units": "014",
    "delimitation": "24/17/05/014",
    "remark": "EXISTING PU",
    "ward_id": "6050",
    "ward_name": "IBA",
    "local_government_id": "522",
    "local_government_name": "OJO",
    "state_id": "24",
    "state_name": "LAGOS",
    "location": {
      "latitude": 6.487443,
      "longitude": 3.199224,
      "viewport": {
        "northeast": {
          "lat": 6.488792829892722,
          "lng": 3.200573829892722
        },
        "southwest": {
          "lat": 6.486093170107278,
          "lng": 3.197874170107278
        }
      },
      "formatted_address": "F5PX+XMH, Iyana Iba Rd - Iba Rd, Ojo 102101, Lagos, Nigeria",
      "google_map_url": "https://maps.google.com?q=6.487443,3.199224",
      "google_place_id": "ChIJ5YP74lCFOxARwGgShEVwruo"
    }
  },
  {
    "id": "122576",
    "name": "OPEN SPACE WITHIN AGBOROKO VILLAGE",
    "registration_area_id": "6050",
    "precise_location": null,
    "abbreviation": "015",
    "units": "015",
    "delimitation": "24/17/05/015",
    "remark": "EXISTING PU",
    "ward_id": "6050",
    "ward_name": "IBA",
    "local_government_id": "522",
    "local_government_name": "OJO",
    "state_id": "24",
    "state_name": "LAGOS",
    "location": {
      "latitude": 6.487443,
      "longitude": 3.199224,
      "viewport": {
        "northeast": {
          "lat": 6.488792829892722,
          "lng": 3.200573829892722
        },
        "southwest": {
          "lat": 6.486093170107278,
          "lng": 3.197874170107278
        }
      },
      "formatted_address": "F5PX+XMH, Iyana Iba Rd - Iba Rd, Ojo 102101, Lagos, Nigeria",
      "google_map_url": "https://maps.google.com?q=6.487443,3.199224",
      "google_place_id": "ChIJ5YP74lCFOxARwGgShEVwruo"
    }
  },
  {
    "id": "122577",
    "name": "L.A. PRY. SCH. IJAGEMO",
    "registration_area_id": "6050",
    "precise_location": null,
    "abbreviation": "016",
    "units": "016",
    "delimitation": "24/17/05/016",
    "remark": "EXISTING PU",
    "ward_id": "6050",
    "ward_name": "IBA",
    "local_government_id": "522",
    "local_government_name": "OJO",
    "state_id": "24",
    "state_name": "LAGOS",
    "location": {
      "latitude": 6.5160063,
      "longitude": 3.2391963,
      "viewport": {
        "northeast": {
          "lat": 6.517386579892722,
          "lng": 3.240538029892722
        },
        "southwest": {
          "lat": 6.514686920107279,
          "lng": 3.237838370107278
        }
      },
      "formatted_address": "G68Q+CM4, Ijagemo Rd, Ijegun 102213, Lagos, Nigeria",
      "google_map_url": "https://maps.google.com?q=6.5160063,3.2391963",
      "google_place_id": "ChIJCclaFe2FOxAR6vQWrvlPRnY"
    }
  },
  {
    "id": "122578",
    "name": "COMMUNITY HALL IJEODODO I",
    "registration_area_id": "6050",
    "precise_location": null,
    "abbreviation": "017",
    "units": "017",
    "delimitation": "24/17/05/017",
    "remark": "EXISTING PU",
    "ward_id": "6050",
    "ward_name": "IBA",
    "local_government_id": "522",
    "local_government_name": "OJO",
    "state_id": "24",
    "state_name": "LAGOS",
    "location": {
      "latitude": 6.4584582,
      "longitude": 3.1567701,
      "viewport": {
        "northeast": {
          "lat": 6.459853029892722,
          "lng": 3.158168779892722
        },
        "southwest": {
          "lat": 6.457153370107278,
          "lng": 3.155469120107277
        }
      },
      "formatted_address": "23 Shibiri Rd, Ojo 102101, Lagos, Nigeria",
      "google_map_url": "https://maps.google.com?q=6.4584582,3.1567701",
      "google_place_id": "ChIJ_UavlxWBOxARjHORlmwSDUU"
    }
  },
  {
    "id": "122579",
    "name": "COMMUNITY HALL IJEODODO II",
    "registration_area_id": "6050",
    "precise_location": null,
    "abbreviation": "018",
    "units": "018",
    "delimitation": "24/17/05/018",
    "remark": "EXISTING PU",
    "ward_id": "6050",
    "ward_name": "IBA",
    "local_government_id": "522",
    "local_government_name": "OJO",
    "state_id": "24",
    "state_name": "LAGOS",
    "location": {
      "latitude": 6.4584582,
      "longitude": 3.1567701,
      "viewport": {
        "northeast": {
          "lat": 6.459853029892722,
          "lng": 3.158168779892722
        },
        "southwest": {
          "lat": 6.457153370107278,
          "lng": 3.155469120107277
        }
      },
      "formatted_address": "23 Shibiri Rd, Ojo 102101, Lagos, Nigeria",
      "google_map_url": "https://maps.google.com?q=6.4584582,3.1567701",
      "google_place_id": "ChIJ_UavlxWBOxARjHORlmwSDUU"
    }
  },
  {
    "id": "122580",
    "name": "OPEN SPACE NEAR BALE'S COMP. IGBO-ELERIN VILLAGE",
    "registration_area_id": "6050",
    "precise_location": null,
    "abbreviation": "019",
    "units": "019",
    "delimitation": "24/17/05/019",
    "remark": "EXISTING PU",
    "ward_id": "6050",
    "ward_name": "IBA",
    "local_government_id": "522",
    "local_government_name": "OJO",
    "state_id": "24",
    "state_name": "LAGOS",
    "location": {
      "latitude": 6.4873363,
      "longitude": 3.1884193,
      "viewport": {
        "northeast": {
          "lat": 6.488747429892723,
          "lng": 3.189787629892722
        },
        "southwest": {
          "lat": 6.486047770107279,
          "lng": 3.187087970107278
        }
      },
      "formatted_address": "Ojo 102101, Lagos, Nigeria",
      "google_map_url": "https://maps.google.com?q=6.4873363,3.1884193",
      "google_place_id": "ChIJx4h-9iaFOxARgW57kOWEW0o"
    }
  },
  {
    "id": "122581",
    "name": "WITHIN IGBO-ELERIN VILLAGE",
    "registration_area_id": "6050",
    "precise_location": null,
    "abbreviation": "020",
    "units": "020",
    "delimitation": "24/17/05/020",
    "remark": "EXISTING PU",
    "ward_id": "6050",
    "ward_name": "IBA",
    "local_government_id": "522",
    "local_government_name": "OJO",
    "state_id": "24",
    "state_name": "LAGOS",
    "location": {
      "latitude": 6.4873363,
      "longitude": 3.1884193,
      "viewport": {
        "northeast": {
          "lat": 6.488747429892723,
          "lng": 3.189787629892722
        },
        "southwest": {
          "lat": 6.486047770107279,
          "lng": 3.187087970107278
        }
      },
      "formatted_address": "Ojo 102101, Lagos, Nigeria",
      "google_map_url": "https://maps.google.com?q=6.4873363,3.1884193",
      "google_place_id": "ChIJx4h-9iaFOxARgW57kOWEW0o"
    }
  },
  {
    "id": "122582",
    "name": "OPEN SPACE AT YELLOW CORNER IGBO-ELERIN VILLAGE",
    "registration_area_id": "6050",
    "precise_location": null,
    "abbreviation": "021",
    "units": "021",
    "delimitation": "24/17/05/021",
    "remark": "EXISTING PU",
    "ward_id": "6050",
    "ward_name": "IBA",
    "local_government_id": "522",
    "local_government_name": "OJO",
    "state_id": "24",
    "state_name": "LAGOS",
    "location": {
      "latitude": 6.4794937,
      "longitude": 3.1876096,
      "viewport": {
        "northeast": {
          "lat": 6.480856729892722,
          "lng": 3.188940479892722
        },
        "southwest": {
          "lat": 6.478157070107278,
          "lng": 3.186240820107277
        }
      },
      "formatted_address": "Ojo 102101, Lagos, Nigeria",
      "google_map_url": "https://maps.google.com?q=6.4794937,3.1876096",
      "google_place_id": "ChIJs_aim6iGOxARKNp1AHz1bf8"
    }
  },
  {
    "id": "122583",
    "name": "L.A. PRY. SCH. ISASHI VILLAGE (RIGHT SIDES)",
    "registration_area_id": "6050",
    "precise_location": null,
    "abbreviation": "022",
    "units": "022",
    "delimitation": "24/17/05/022",
    "remark": "EXISTING PU",
    "ward_id": "6050",
    "ward_name": "IBA",
    "local_government_id": "522",
    "local_government_name": "OJO",
    "state_id": "24",
    "state_name": "LAGOS",
    "location": {
      "latitude": 6.492172699999999,
      "longitude": 3.193837,
      "viewport": {
        "northeast": {
          "lat": 6.493849479892722,
          "lng": 3.195199679892722
        },
        "southwest": {
          "lat": 6.491149820107278,
          "lng": 3.192500020107278
        }
      },
      "formatted_address": "F5RV+RGG, Ojo 102101, Lagos, Nigeria",
      "google_map_url": "https://maps.google.com?q=6.492172699999999,3.193837",
      "google_place_id": "ChIJF5-NixmEOxARktjvXgwgWuU"
    }
  },
  {
    "id": "122584",
    "name": "ISASHI TOWN SQUARE",
    "registration_area_id": "6050",
    "precise_location": null,
    "abbreviation": "023",
    "units": "023",
    "delimitation": "24/17/05/023",
    "remark": "EXISTING PU",
    "ward_id": "6050",
    "ward_name": "IBA",
    "local_government_id": "522",
    "local_government_name": "OJO",
    "state_id": "24",
    "state_name": "LAGOS",
    "location": {
      "latitude": 6.487443,
      "longitude": 3.199224,
      "viewport": {
        "northeast": {
          "lat": 6.488792829892722,
          "lng": 3.200573829892722
        },
        "southwest": {
          "lat": 6.486093170107278,
          "lng": 3.197874170107278
        }
      },
      "formatted_address": "F5PX+XMH, Iyana Iba Rd - Iba Rd, Ojo 102101, Lagos, Nigeria",
      "google_map_url": "https://maps.google.com?q=6.487443,3.199224",
      "google_place_id": "ChIJ5YP74lCFOxARwGgShEVwruo"
    }
  },
  {
    "id": "122585",
    "name": "ISASHI ODAN OPEN SPACE AT SUNMONU ST., ISASHI",
    "registration_area_id": "6050",
    "precise_location": null,
    "abbreviation": "024",
    "units": "024",
    "delimitation": "24/17/05/024",
    "remark": "EXISTING PU",
    "ward_id": "6050",
    "ward_name": "IBA",
    "local_government_id": "522",
    "local_government_name": "OJO",
    "state_id": "24",
    "state_name": "LAGOS",
    "location": {
      "latitude": 6.5070555,
      "longitude": 3.1750401,
      "viewport": {
        "northeast": {
          "lat": 6.508442379892722,
          "lng": 3.176411479892722
        },
        "southwest": {
          "lat": 6.505742720107278,
          "lng": 3.173711820107277
        }
      },
      "formatted_address": "G54G+R2F, Convenant Crescent, Ojo 102101, Lagos, Nigeria",
      "google_map_url": "https://maps.google.com?q=6.5070555,3.1750401",
      "google_place_id": "ChIJg-2_qYuDOxARliBMhz5BYYw"
    }
  },
  {
    "id": "122586",
    "name": "OPEN SPACE AT SUNMONU ST.",
    "registration_area_id": "6050",
    "precise_location": null,
    "abbreviation": "025",
    "units": "025",
    "delimitation": "24/17/05/025",
    "remark": "EXISTING PU",
    "ward_id": "6050",
    "ward_name": "IBA",
    "local_government_id": "522",
    "local_government_name": "OJO",
    "state_id": "24",
    "state_name": "LAGOS",
    "location": {
      "latitude": 6.4581481,
      "longitude": 3.2019768,
      "viewport": {
        "northeast": {
          "lat": 6.459720829892722,
          "lng": 3.203448729892722
        },
        "southwest": {
          "lat": 6.457021170107278,
          "lng": 3.200749070107277
        }
      },
      "formatted_address": "Local Government, 31 Ojo Alaba Rago Rd, Ojo 102101, Lagos, Nigeria",
      "google_map_url": "https://maps.google.com?q=6.4581481,3.2019768",
      "google_place_id": "ChIJIwwDPoKHOxARCEGccrH7Fug"
    }
  },
  {
    "id": "122587",
    "name": "OPEN SPACE OPP. NO. 92, YISAU GORIOLA AVE. IBA",
    "registration_area_id": "6050",
    "precise_location": null,
    "abbreviation": "026",
    "units": "026",
    "delimitation": "24/17/05/026",
    "remark": "EXISTING PU",
    "ward_id": "6050",
    "ward_name": "IBA",
    "local_government_id": "522",
    "local_government_name": "OJO",
    "state_id": "24",
    "state_name": "LAGOS",
    "location": {
      "latitude": 6.4954569,
      "longitude": 3.1174211,
      "viewport": {
        "northeast": {
          "lat": 6.496806729892722,
          "lng": 3.118770929892723
        },
        "southwest": {
          "lat": 6.494107070107277,
          "lng": 3.116071270107278
        }
      },
      "formatted_address": "Goriola Oseni St, Ojo 102101, Alasia, Nigeria",
      "google_map_url": "https://maps.google.com?q=6.4954569,3.1174211",
      "google_place_id": "ChIJG-8BAxiCOxAR5kT_mBfCXQI"
    }
  },
  {
    "id": "122588",
    "name": "OPEN SPACE IN FRONT OF HOUSE NO. 1 ARATUNU ST.",
    "registration_area_id": "6050",
    "precise_location": null,
    "abbreviation": "027",
    "units": "027",
    "delimitation": "24/17/05/027",
    "remark": "EXISTING PU",
    "ward_id": "6050",
    "ward_name": "IBA",
    "local_government_id": "522",
    "local_government_name": "OJO",
    "state_id": "24",
    "state_name": "LAGOS",
    "location": {
      "latitude": 6.497711799999999,
      "longitude": 3.2017465,
      "viewport": {
        "northeast": {
          "lat": 6.499057879892722,
          "lng": 3.202981479892722
        },
        "southwest": {
          "lat": 6.496358220107278,
          "lng": 3.200281820107278
        }
      },
      "formatted_address": "F6X2+3MQ, Ajakaye Bus Stop, Lagos, Nigeria",
      "google_map_url": "https://maps.google.com?q=6.497711799999999,3.2017465",
      "google_place_id": "ChIJ57_JPzyEOxARhW2gd3mHnfY"
    }
  },
  {
    "id": "122589",
    "name": "OPEN SPACE AT NO. 12 ARATUNU ST. IBA",
    "registration_area_id": "6050",
    "precise_location": null,
    "abbreviation": "028",
    "units": "028",
    "delimitation": "24/17/05/028",
    "remark": "EXISTING PU",
    "ward_id": "6050",
    "ward_name": "IBA",
    "local_government_id": "522",
    "local_government_name": "OJO",
    "state_id": "24",
    "state_name": "LAGOS",
    "location": {
      "latitude": 6.494781499999999,
      "longitude": 3.1993575,
      "viewport": {
        "northeast": {
          "lat": 6.496116829892722,
          "lng": 3.200710879892722
        },
        "southwest": {
          "lat": 6.493417170107278,
          "lng": 3.198011220107277
        }
      },
      "formatted_address": "Peace Estate, Ipaye Bus Stop, Iba, Lagos, Lagos, Lagos, Nigeria",
      "google_map_url": "https://maps.google.com?q=6.494781499999999,3.1993575",
      "google_place_id": "ChIJ0YFgQD2EOxARFJDbt7EYMRg"
    }
  },
  {
    "id": "122590",
    "name": "OPEN SPACE IN FRONT OF PROVINCE BUS STOP",
    "registration_area_id": "6050",
    "precise_location": null,
    "abbreviation": "029",
    "units": "029",
    "delimitation": "24/17/05/029",
    "remark": "EXISTING PU",
    "ward_id": "6050",
    "ward_name": "IBA",
    "local_government_id": "522",
    "local_government_name": "OJO",
    "state_id": "24",
    "state_name": "LAGOS",
    "location": {
      "latitude": 6.4994879,
      "longitude": 3.1989111,
      "viewport": {
        "northeast": {
          "lat": 6.500836829892721,
          "lng": 3.200310329892722
        },
        "southwest": {
          "lat": 6.498137170107277,
          "lng": 3.197610670107278
        }
      },
      "formatted_address": "Ojo 102101, Lagos, Nigeria",
      "google_map_url": "https://maps.google.com?q=6.4994879,3.1989111",
      "google_place_id": "ChIJf8BBDj6EOxARt1xXFsBRQ1I"
    }
  },
  {
    "id": "122591",
    "name": "OPEN SPACE AT THE JUNCTION OF OLAOYE ST. NEW CHALLENGE I",
    "registration_area_id": "6050",
    "precise_location": null,
    "abbreviation": "030",
    "units": "030",
    "delimitation": "24/17/05/030",
    "remark": "EXISTING PU",
    "ward_id": "6050",
    "ward_name": "IBA",
    "local_government_id": "522",
    "local_government_name": "OJO",
    "state_id": "24",
    "state_name": "LAGOS",
    "location": {
      "latitude": 6.5064861,
      "longitude": 3.200731,
      "viewport": {
        "northeast": {
          "lat": 6.50783997989272,
          "lng": 3.202074629892722
        },
        "southwest": {
          "lat": 6.505140320107277,
          "lng": 3.199374970107277
        }
      },
      "formatted_address": "Ojo 102101, Lagos, Nigeria",
      "google_map_url": "https://maps.google.com?q=6.5064861,3.200731",
      "google_place_id": "ChIJFwGoA0GEOxARrV9EBZqhu-A"
    }
  },
  {
    "id": "122592",
    "name": "OPEN SPACE AT THE JUNCTION OF OLAOYE ST. NEW CHALLENGE II",
    "registration_area_id": "6050",
    "precise_location": null,
    "abbreviation": "031",
    "units": "031",
    "delimitation": "24/17/05/031",
    "remark": "EXISTING PU",
    "ward_id": "6050",
    "ward_name": "IBA",
    "local_government_id": "522",
    "local_government_name": "OJO",
    "state_id": "24",
    "state_name": "LAGOS",
    "location": {
      "latitude": 6.5064861,
      "longitude": 3.200731,
      "viewport": {
        "northeast": {
          "lat": 6.50783997989272,
          "lng": 3.202074629892722
        },
        "southwest": {
          "lat": 6.505140320107277,
          "lng": 3.199374970107277
        }
      },
      "formatted_address": "Ojo 102101, Lagos, Nigeria",
      "google_map_url": "https://maps.google.com?q=6.5064861,3.200731",
      "google_place_id": "ChIJFwGoA0GEOxARrV9EBZqhu-A"
    }
  },
  {
    "id": "122593",
    "name": "OPEN SPACE BESIDE OBA'S PALACE",
    "registration_area_id": "6050",
    "precise_location": null,
    "abbreviation": "032",
    "units": "032",
    "delimitation": "24/17/05/032",
    "remark": "EXISTING PU",
    "ward_id": "6050",
    "ward_name": "IBA",
    "local_government_id": "522",
    "local_government_name": "OJO",
    "state_id": "24",
    "state_name": "LAGOS",
    "location": {
      "latitude": 6.497711799999999,
      "longitude": 3.2017465,
      "viewport": {
        "northeast": {
          "lat": 6.499057879892722,
          "lng": 3.202981479892722
        },
        "southwest": {
          "lat": 6.496358220107278,
          "lng": 3.200281820107278
        }
      },
      "formatted_address": "F6X2+3MQ, Ajakaye Bus Stop, Lagos, Nigeria",
      "google_map_url": "https://maps.google.com?q=6.497711799999999,3.2017465",
      "google_place_id": "ChIJ57_JPzyEOxARhW2gd3mHnfY"
    }
  },
  {
    "id": "122594",
    "name": "OPEN SPACE AT ESA GARAGE IBA",
    "registration_area_id": "6050",
    "precise_location": null,
    "abbreviation": "033",
    "units": "033",
    "delimitation": "24/17/05/033",
    "remark": "EXISTING PU",
    "ward_id": "6050",
    "ward_name": "IBA",
    "local_government_id": "522",
    "local_government_name": "OJO",
    "state_id": "24",
    "state_name": "LAGOS",
    "location": {
      "latitude": 6.513270299999999,
      "longitude": 3.2011505,
      "viewport": {
        "northeast": {
          "lat": 6.514650479892722,
          "lng": 3.202493029892723
        },
        "southwest": {
          "lat": 6.511950820107278,
          "lng": 3.199793370107278
        }
      },
      "formatted_address": "G672+8F2, Ojo 102101, Lagos, Nigeria",
      "google_map_url": "https://maps.google.com?q=6.513270299999999,3.2011505",
      "google_place_id": "ChIJkePJGUOEOxAR6In0JnUWXEw"
    }
  },
  {
    "id": "122595",
    "name": "OPEN SPACE AT IPAYE BUS STOP",
    "registration_area_id": "6050",
    "precise_location": null,
    "abbreviation": "034",
    "units": "034",
    "delimitation": "24/17/05/034",
    "remark": "EXISTING PU",
    "ward_id": "6050",
    "ward_name": "IBA",
    "local_government_id": "522",
    "local_government_name": "OJO",
    "state_id": "24",
    "state_name": "LAGOS",
    "location": null
  },
  {
    "id": "122596",
    "name": "IN FRONT OF TOWN HALL, IGBO-ELERIN",
    "registration_area_id": "6050",
    "precise_location": null,
    "abbreviation": "035",
    "units": "035",
    "delimitation": "24/17/05/035",
    "remark": "EXISTING PU",
    "ward_id": "6050",
    "ward_name": "IBA",
    "local_government_id": "522",
    "local_government_name": "OJO",
    "state_id": "24",
    "state_name": "LAGOS",
    "location": {
      "latitude": 6.459210000000001,
      "longitude": 3.203683400000001,
      "viewport": {
        "northeast": {
          "lat": 6.460553579892722,
          "lng": 3.205062079892723
        },
        "southwest": {
          "lat": 6.457853920107278,
          "lng": 3.202362420107278
        }
      },
      "formatted_address": "Off Oba Dauda Street, Ojo Town, 1 Rest House St, Lagos, Nigeria",
      "google_map_url": "https://maps.google.com?q=6.459210000000001,3.203683400000001",
      "google_place_id": "ChIJWygihuyGOxARRTmDaFJEHWw"
    }
  },
  {
    "id": "122597",
    "name": "ESA GARAGE IBA",
    "registration_area_id": "6050",
    "precise_location": null,
    "abbreviation": "036",
    "units": "036",
    "delimitation": "24/17/05/036",
    "remark": "EXISTING PU",
    "ward_id": "6050",
    "ward_name": "IBA",
    "local_government_id": "522",
    "local_government_name": "OJO",
    "state_id": "24",
    "state_name": "LAGOS",
    "location": {
      "latitude": 6.513270299999999,
      "longitude": 3.2011505,
      "viewport": {
        "northeast": {
          "lat": 6.514650479892722,
          "lng": 3.202493029892723
        },
        "southwest": {
          "lat": 6.511950820107278,
          "lng": 3.199793370107278
        }
      },
      "formatted_address": "G672+8F2, Ojo 102101, Lagos, Nigeria",
      "google_map_url": "https://maps.google.com?q=6.513270299999999,3.2011505",
      "google_place_id": "ChIJkePJGUOEOxAR6In0JnUWXEw"
    }
  },
  {
    "id": "122598",
    "name": "OPEN SPACE IBA HOUSING ESTATE",
    "registration_area_id": "6050",
    "precise_location": null,
    "abbreviation": "037",
    "units": "037",
    "delimitation": "24/17/05/037",
    "remark": "EXISTING PU",
    "ward_id": "6050",
    "ward_name": "IBA",
    "local_government_id": "522",
    "local_government_name": "OJO",
    "state_id": "24",
    "state_name": "LAGOS",
    "location": {
      "latitude": 6.4905083,
      "longitude": 3.1965268,
      "viewport": {
        "northeast": {
          "lat": 6.491908729892721,
          "lng": 3.197880329892722
        },
        "southwest": {
          "lat": 6.489209070107277,
          "lng": 3.195180670107277
        }
      },
      "formatted_address": "Iba Housing Estate, Ojo 102101, Lagos, Nigeria",
      "google_map_url": "https://maps.google.com?q=6.4905083,3.1965268",
      "google_place_id": "ChIJL1Uy8hiEOxAR0YkqV9qYsgU"
    }
  },
  {
    "id": "122599",
    "name": "IBA HOUSING ESTATE",
    "registration_area_id": "6050",
    "precise_location": null,
    "abbreviation": "038",
    "units": "038",
    "delimitation": "24/17/05/038",
    "remark": "EXISTING PU",
    "ward_id": "6050",
    "ward_name": "IBA",
    "local_government_id": "522",
    "local_government_name": "OJO",
    "state_id": "24",
    "state_name": "LAGOS",
    "location": {
      "latitude": 6.4919397,
      "longitude": 3.1977387,
      "viewport": {
        "northeast": {
          "lat": 6.493187929892722,
          "lng": 3.199323479892723
        },
        "southwest": {
          "lat": 6.490488270107278,
          "lng": 3.196623820107278
        }
      },
      "formatted_address": "Iba Housing Estate, Ojo 102101, Lagos, Nigeria",
      "google_map_url": "https://maps.google.com?q=6.4919397,3.1977387",
      "google_place_id": "ChIJhzwkdhiEOxARQF3TCjglImI"
    }
  },
  {
    "id": "122600",
    "name": "OPPOSITE COMMUNITY HALL IJEODODO",
    "registration_area_id": "6050",
    "precise_location": null,
    "abbreviation": "039",
    "units": "039",
    "delimitation": "24/17/05/039",
    "remark": "EXISTING PU",
    "ward_id": "6050",
    "ward_name": "IBA",
    "local_government_id": "522",
    "local_government_name": "OJO",
    "state_id": "24",
    "state_name": "LAGOS",
    "location": {
      "latitude": 6.4667344,
      "longitude": 3.187028,
      "viewport": {
        "northeast": {
          "lat": 6.468216729892722,
          "lng": 3.188415979892722
        },
        "southwest": {
          "lat": 6.465517070107278,
          "lng": 3.185716320107278
        }
      },
      "formatted_address": "87 Aka Rd, Ojo 102101, Lagos, Nigeria",
      "google_map_url": "https://maps.google.com?q=6.4667344,3.187028",
      "google_place_id": "ChIJmXcSsrSGOxARJKT-x-lxaus"
    }
  },
  {
    "id": "122601",
    "name": "ISASHI JUNCTION (OPPOSITE) DEBORAH HOTEL",
    "registration_area_id": "6050",
    "precise_location": null,
    "abbreviation": "040",
    "units": "040",
    "delimitation": "24/17/05/040",
    "remark": "EXISTING PU",
    "ward_id": "6050",
    "ward_name": "IBA",
    "local_government_id": "522",
    "local_government_name": "OJO",
    "state_id": "24",
    "state_name": "LAGOS",
    "location": {
      "latitude": 6.493825999999999,
      "longitude": 3.1729044,
      "viewport": {
        "northeast": {
          "lat": 6.495152529892722,
          "lng": 3.174269829892722
        },
        "southwest": {
          "lat": 6.492452870107278,
          "lng": 3.171570170107278
        }
      },
      "formatted_address": "F5VF+G5F, Iyana Isashi Rd, Ojo 102101, Lagos, Nigeria",
      "google_map_url": "https://maps.google.com?q=6.493825999999999,3.1729044",
      "google_place_id": "ChIJPZvs1lCDOxARSoo1EkB0ZU4"
    }
  },
  {
    "id": "122602",
    "name": "OPEN SPACE NEAR OBA'S PALACE",
    "registration_area_id": "6050",
    "precise_location": null,
    "abbreviation": "041",
    "units": "041",
    "delimitation": "24/17/05/041",
    "remark": "NEW PU",
    "ward_id": "6050",
    "ward_name": "IBA",
    "local_government_id": "522",
    "local_government_name": "OJO",
    "state_id": "24",
    "state_name": "LAGOS",
    "location": {
      "latitude": 6.494781499999999,
      "longitude": 3.1993575,
      "viewport": {
        "northeast": {
          "lat": 6.496116829892722,
          "lng": 3.200710879892722
        },
        "southwest": {
          "lat": 6.493417170107278,
          "lng": 3.198011220107277
        }
      },
      "formatted_address": "Peace Estate, Ipaye Bus Stop, Iba, Lagos, Lagos, Lagos, Nigeria",
      "google_map_url": "https://maps.google.com?q=6.494781499999999,3.1993575",
      "google_place_id": "ChIJ0YFgQD2EOxARFJDbt7EYMRg"
    }
  },
  {
    "id": "122603",
    "name": "OPEN SPACE AT NO 1, ASAINNI AKIOBON STREET VICTORY ESTATE",
    "registration_area_id": "6050",
    "precise_location": null,
    "abbreviation": "042",
    "units": "042",
    "delimitation": "24/17/05/042",
    "remark": "NEW PU",
    "ward_id": "6050",
    "ward_name": "IBA",
    "local_government_id": "522",
    "local_government_name": "OJO",
    "state_id": "24",
    "state_name": "LAGOS",
    "location": {
      "latitude": 6.5050581,
      "longitude": 3.2019768,
      "viewport": {
        "northeast": {
          "lat": 6.506259629892722,
          "lng": 3.203330679892722
        },
        "southwest": {
          "lat": 6.503559970107278,
          "lng": 3.200631020107278
        }
      },
      "formatted_address": "Victory Estate, Ojo 102101, Lagos, Nigeria",
      "google_map_url": "https://maps.google.com?q=6.5050581,3.2019768",
      "google_place_id": "ChIJkWsYvUCEOxARriUvl2RCTMY"
    }
  },
  {
    "id": "122604",
    "name": "OPEN SPACE AT IDIAGBON BUS- STOP",
    "registration_area_id": "6050",
    "precise_location": null,
    "abbreviation": "043",
    "units": "043",
    "delimitation": "24/17/05/043",
    "remark": "NEW PU",
    "ward_id": "6050",
    "ward_name": "IBA",
    "local_government_id": "522",
    "local_government_name": "OJO",
    "state_id": "24",
    "state_name": "LAGOS",
    "location": {
      "latitude": 6.4846105,
      "longitude": 3.1993496,
      "viewport": {
        "northeast": {
          "lat": 6.485960429892722,
          "lng": 3.200645879892722
        },
        "southwest": {
          "lat": 6.483260770107278,
          "lng": 3.197946220107278
        }
      },
      "formatted_address": "F5MX+RPX, Iyana Iba Rd - Iba Rd, Ojo 102101, Lagos, Nigeria",
      "google_map_url": "https://maps.google.com?q=6.4846105,3.1993496",
      "google_place_id": "ChIJR1JNRyCEOxAR0WvHoSeF4lg"
    }
  },
  {
    "id": "122605",
    "name": "L.A PRIMARY SCHOOL I",
    "registration_area_id": "6050",
    "precise_location": null,
    "abbreviation": "044",
    "units": "044",
    "delimitation": "24/17/05/044",
    "remark": "NEW PU",
    "ward_id": "6050",
    "ward_name": "IBA",
    "local_government_id": "522",
    "local_government_name": "OJO",
    "state_id": "24",
    "state_name": "LAGOS",
    "location": {
      "latitude": 6.492172699999999,
      "longitude": 3.193837,
      "viewport": {
        "northeast": {
          "lat": 6.493849479892722,
          "lng": 3.195199679892722
        },
        "southwest": {
          "lat": 6.491149820107278,
          "lng": 3.192500020107278
        }
      },
      "formatted_address": "F5RV+RGG, Ojo 102101, Lagos, Nigeria",
      "google_map_url": "https://maps.google.com?q=6.492172699999999,3.193837",
      "google_place_id": "ChIJF5-NixmEOxARktjvXgwgWuU"
    }
  },
  {
    "id": "122606",
    "name": "OPEN SPACE BY NEW PALACE",
    "registration_area_id": "6050",
    "precise_location": null,
    "abbreviation": "045",
    "units": "045",
    "delimitation": "24/17/05/045",
    "remark": "NEW PU",
    "ward_id": "6050",
    "ward_name": "IBA",
    "local_government_id": "522",
    "local_government_name": "OJO",
    "state_id": "24",
    "state_name": "LAGOS",
    "location": {
      "latitude": 6.49194,
      "longitude": 3.197716,
      "viewport": {
        "northeast": {
          "lat": 6.493289729892721,
          "lng": 3.199106279892722
        },
        "southwest": {
          "lat": 6.490590070107277,
          "lng": 3.196406620107278
        }
      },
      "formatted_address": "No.17 Ipaye Street, Beside IBA Housing Estate, Along Lasu, Igando Road, Lagos, Nigeria",
      "google_map_url": "https://maps.google.com?q=6.49194,3.197716",
      "google_place_id": "ChIJVVVVcRiEOxARts6YNyhrwqU"
    }
  },
  {
    "id": "122607",
    "name": "L.A PRIMARY SCHOOL II",
    "registration_area_id": "6050",
    "precise_location": null,
    "abbreviation": "046",
    "units": "046",
    "delimitation": "24/17/05/046",
    "remark": "NEW PU",
    "ward_id": "6050",
    "ward_name": "IBA",
    "local_government_id": "522",
    "local_government_name": "OJO",
    "state_id": "24",
    "state_name": "LAGOS",
    "location": {
      "latitude": 6.492172699999999,
      "longitude": 3.193837,
      "viewport": {
        "northeast": {
          "lat": 6.493849479892722,
          "lng": 3.195199679892722
        },
        "southwest": {
          "lat": 6.491149820107278,
          "lng": 3.192500020107278
        }
      },
      "formatted_address": "F5RV+RGG, Ojo 102101, Lagos, Nigeria",
      "google_map_url": "https://maps.google.com?q=6.492172699999999,3.193837",
      "google_place_id": "ChIJF5-NixmEOxARktjvXgwgWuU"
    }
  },
  {
    "id": "122608",
    "name": "L.A PRIMARY SCHOOL II",
    "registration_area_id": "6050",
    "precise_location": null,
    "abbreviation": "047",
    "units": "047",
    "delimitation": "24/17/05/047",
    "remark": "NEW PU",
    "ward_id": "6050",
    "ward_name": "IBA",
    "local_government_id": "522",
    "local_government_name": "OJO",
    "state_id": "24",
    "state_name": "LAGOS",
    "location": {
      "latitude": 6.492172699999999,
      "longitude": 3.193837,
      "viewport": {
        "northeast": {
          "lat": 6.493849479892722,
          "lng": 3.195199679892722
        },
        "southwest": {
          "lat": 6.491149820107278,
          "lng": 3.192500020107278
        }
      },
      "formatted_address": "F5RV+RGG, Ojo 102101, Lagos, Nigeria",
      "google_map_url": "https://maps.google.com?q=6.492172699999999,3.193837",
      "google_place_id": "ChIJF5-NixmEOxARktjvXgwgWuU"
    }
  },
  {
    "id": "122609",
    "name": "ESA GARAGE  IBA",
    "registration_area_id": "6050",
    "precise_location": null,
    "abbreviation": "048",
    "units": "048",
    "delimitation": "24/17/05/048",
    "remark": "NEW PU",
    "ward_id": "6050",
    "ward_name": "IBA",
    "local_government_id": "522",
    "local_government_name": "OJO",
    "state_id": "24",
    "state_name": "LAGOS",
    "location": {
      "latitude": 6.513270299999999,
      "longitude": 3.2011505,
      "viewport": {
        "northeast": {
          "lat": 6.514650479892722,
          "lng": 3.202493029892723
        },
        "southwest": {
          "lat": 6.511950820107278,
          "lng": 3.199793370107278
        }
      },
      "formatted_address": "G672+8F2, Ojo 102101, Lagos, Nigeria",
      "google_map_url": "https://maps.google.com?q=6.513270299999999,3.2011505",
      "google_place_id": "ChIJkePJGUOEOxAR6In0JnUWXEw"
    }
  },
  {
    "id": "122610",
    "name": "OPEN SPACE AT CHEMIST BUS STOP",
    "registration_area_id": "6050",
    "precise_location": null,
    "abbreviation": "049",
    "units": "049",
    "delimitation": "24/17/05/049",
    "remark": "NEW PU",
    "ward_id": "6050",
    "ward_name": "IBA",
    "local_government_id": "522",
    "local_government_name": "OJO",
    "state_id": "24",
    "state_name": "LAGOS",
    "location": {
      "latitude": 6.4850138,
      "longitude": 3.2005239,
      "viewport": {
        "northeast": {
          "lat": 6.486350779892723,
          "lng": 3.201873079892723
        },
        "southwest": {
          "lat": 6.483651120107279,
          "lng": 3.199173420107278
        }
      },
      "formatted_address": "NAOWA MEGA PLAZA, Iba Town Rd, Ojo, Lagos, Nigeria",
      "google_map_url": "https://maps.google.com?q=6.4850138,3.2005239",
      "google_place_id": "ChIJwS8kq5CFOxARMNxx4ApuI_I"
    }
  },
  {
    "id": "122611",
    "name": "OPEN SPACE AT ABANISE STREET, IBA NEW SITE",
    "registration_area_id": "6050",
    "precise_location": null,
    "abbreviation": "050",
    "units": "050",
    "delimitation": "24/17/05/050",
    "remark": "NEW PU",
    "ward_id": "6050",
    "ward_name": "IBA",
    "local_government_id": "522",
    "local_government_name": "OJO",
    "state_id": "24",
    "state_name": "LAGOS",
    "location": {
      "latitude": 6.487443,
      "longitude": 3.199224,
      "viewport": {
        "northeast": {
          "lat": 6.488792829892722,
          "lng": 3.200573829892722
        },
        "southwest": {
          "lat": 6.486093170107278,
          "lng": 3.197874170107278
        }
      },
      "formatted_address": "F5PX+XMH, Iyana Iba Rd - Iba Rd, Ojo 102101, Lagos, Nigeria",
      "google_map_url": "https://maps.google.com?q=6.487443,3.199224",
      "google_place_id": "ChIJ5YP74lCFOxARwGgShEVwruo"
    }
  },
  {
    "id": "122612",
    "name": "OPEN SPACE AT ONIKOYI",
    "registration_area_id": "6050",
    "precise_location": null,
    "abbreviation": "051",
    "units": "051",
    "delimitation": "24/17/05/051",
    "remark": "NEW PU",
    "ward_id": "6050",
    "ward_name": "IBA",
    "local_government_id": "522",
    "local_government_name": "OJO",
    "state_id": "24",
    "state_name": "LAGOS",
    "location": {
      "latitude": 6.4592018,
      "longitude": 3.1996615,
      "viewport": {
        "northeast": {
          "lat": 6.460551729892721,
          "lng": 3.200975079892722
        },
        "southwest": {
          "lat": 6.457852070107277,
          "lng": 3.198275420107277
        }
      },
      "formatted_address": "Ojo Local Government Secretariat, Odumosu Plaza 126/127 Olojo Drive by Corner Bus stop Alaba int'l market, 102113, Lagos, Nigeria",
      "google_map_url": "https://maps.google.com?q=6.4592018,3.1996615",
      "google_place_id": "ChIJIyQusM0IyEQRniCvKWgQPgg"
    }
  },
  {
    "id": "122613",
    "name": "OPEN SPACE AT SHEIK AVENUE",
    "registration_area_id": "6050",
    "precise_location": null,
    "abbreviation": "052",
    "units": "052",
    "delimitation": "24/17/05/052",
    "remark": "NEW PU",
    "ward_id": "6050",
    "ward_name": "IBA",
    "local_government_id": "522",
    "local_government_name": "OJO",
    "state_id": "24",
    "state_name": "LAGOS",
    "location": {
      "latitude": 6.4581481,
      "longitude": 3.2019768,
      "viewport": {
        "northeast": {
          "lat": 6.459720829892722,
          "lng": 3.203448729892722
        },
        "southwest": {
          "lat": 6.457021170107278,
          "lng": 3.200749070107277
        }
      },
      "formatted_address": "Local Government, 31 Ojo Alaba Rago Rd, Ojo 102101, Lagos, Nigeria",
      "google_map_url": "https://maps.google.com?q=6.4581481,3.2019768",
      "google_place_id": "ChIJIwwDPoKHOxARCEGccrH7Fug"
    }
  },
  {
    "id": "122614",
    "name": "OPEN SPACE AT IJEBU STREET",
    "registration_area_id": "6050",
    "precise_location": null,
    "abbreviation": "053",
    "units": "053",
    "delimitation": "24/17/05/053",
    "remark": "NEW PU",
    "ward_id": "6050",
    "ward_name": "IBA",
    "local_government_id": "522",
    "local_government_name": "OJO",
    "state_id": "24",
    "state_name": "LAGOS",
    "location": {
      "latitude": 6.497711799999999,
      "longitude": 3.2017465,
      "viewport": {
        "northeast": {
          "lat": 6.499057879892722,
          "lng": 3.202981479892722
        },
        "southwest": {
          "lat": 6.496358220107278,
          "lng": 3.200281820107278
        }
      },
      "formatted_address": "F6X2+3MQ, Ajakaye Bus Stop, Lagos, Nigeria",
      "google_map_url": "https://maps.google.com?q=6.497711799999999,3.2017465",
      "google_place_id": "ChIJ57_JPzyEOxARhW2gd3mHnfY"
    }
  },
  {
    "id": "122615",
    "name": "OPEN SPACE BY TRANSFORMER",
    "registration_area_id": "6050",
    "precise_location": null,
    "abbreviation": "054",
    "units": "054",
    "delimitation": "24/17/05/054",
    "remark": "NEW PU",
    "ward_id": "6050",
    "ward_name": "IBA",
    "local_government_id": "522",
    "local_government_name": "OJO",
    "state_id": "24",
    "state_name": "LAGOS",
    "location": {
      "latitude": 6.497711799999999,
      "longitude": 3.2017465,
      "viewport": {
        "northeast": {
          "lat": 6.499057879892722,
          "lng": 3.202981479892722
        },
        "southwest": {
          "lat": 6.496358220107278,
          "lng": 3.200281820107278
        }
      },
      "formatted_address": "F6X2+3MQ, Ajakaye Bus Stop, Lagos, Nigeria",
      "google_map_url": "https://maps.google.com?q=6.497711799999999,3.2017465",
      "google_place_id": "ChIJ57_JPzyEOxARhW2gd3mHnfY"
    }
  },
  {
    "id": "122616",
    "name": "OPEN SPACE AT BLOCK 134",
    "registration_area_id": "6050",
    "precise_location": null,
    "abbreviation": "055",
    "units": "055",
    "delimitation": "24/17/05/055",
    "remark": "NEW PU",
    "ward_id": "6050",
    "ward_name": "IBA",
    "local_government_id": "522",
    "local_government_name": "OJO",
    "state_id": "24",
    "state_name": "LAGOS",
    "location": {
      "latitude": 6.5015658,
      "longitude": 3.1995582,
      "viewport": {
        "northeast": {
          "lat": 6.502931129892723,
          "lng": 3.200826479892722
        },
        "southwest": {
          "lat": 6.500231470107278,
          "lng": 3.198126820107277
        }
      },
      "formatted_address": "G52X+JRC, Iyana Iba Rd - Iba Rd, Ojo 102101, Lagos, Nigeria",
      "google_map_url": "https://maps.google.com?q=6.5015658,3.1995582",
      "google_place_id": "ChIJEWKqtD-EOxAROjSYbpQbeo0"
    }
  },
  {
    "id": "122617",
    "name": "OPEN SPACE AT PEACE ESTATE",
    "registration_area_id": "6050",
    "precise_location": null,
    "abbreviation": "056",
    "units": "056",
    "delimitation": "24/17/05/056",
    "remark": "NEW PU",
    "ward_id": "6050",
    "ward_name": "IBA",
    "local_government_id": "522",
    "local_government_name": "OJO",
    "state_id": "24",
    "state_name": "LAGOS",
    "location": null
  },
  {
    "id": "122618",
    "name": "OPEN SPACE BY ZONE A CAR PARK AT BLOCK 61",
    "registration_area_id": "6050",
    "precise_location": null,
    "abbreviation": "057",
    "units": "057",
    "delimitation": "24/17/05/057",
    "remark": "NEW PU",
    "ward_id": "6050",
    "ward_name": "IBA",
    "local_government_id": "522",
    "local_government_name": "OJO",
    "state_id": "24",
    "state_name": "LAGOS",
    "location": {
      "latitude": 6.6350513,
      "longitude": 3.3018154,
      "viewport": {
        "northeast": {
          "lat": 6.63639782989272,
          "lng": 3.303173729892722
        },
        "southwest": {
          "lat": 6.633698170107277,
          "lng": 3.300474070107278
        }
      },
      "formatted_address": "Abeokuta Expy, Agege 102213, Lagos, Nigeria",
      "google_map_url": "https://maps.google.com?q=6.6350513,3.3018154",
      "google_place_id": "ChIJix2SECGROxARy3285j831OM"
    }
  },
  {
    "id": "122619",
    "name": "OPEN SPACE ZONE C CAR PARK",
    "registration_area_id": "6050",
    "precise_location": null,
    "abbreviation": "058",
    "units": "058",
    "delimitation": "24/17/05/058",
    "remark": "NEW PU",
    "ward_id": "6050",
    "ward_name": "IBA",
    "local_government_id": "522",
    "local_government_name": "OJO",
    "state_id": "24",
    "state_name": "LAGOS",
    "location": {
      "latitude": 6.490308499999999,
      "longitude": 3.1937385,
      "viewport": {
        "northeast": {
          "lat": 6.491756079892721,
          "lng": 3.194961279892722
        },
        "southwest": {
          "lat": 6.489056420107278,
          "lng": 3.192261620107278
        }
      },
      "formatted_address": "F5RV+4FH, Ojo 102101, Lagos, Nigeria",
      "google_map_url": "https://maps.google.com?q=6.490308499999999,3.1937385",
      "google_place_id": "ChIJEyUgcBmEOxARXAVZrRLL8w4"
    }
  },
  {
    "id": "122620",
    "name": "OPEN SPACE AT PEACE ESTATE",
    "registration_area_id": "6050",
    "precise_location": null,
    "abbreviation": "059",
    "units": "059",
    "delimitation": "24/17/05/059",
    "remark": "NEW PU",
    "ward_id": "6050",
    "ward_name": "IBA",
    "local_government_id": "522",
    "local_government_name": "OJO",
    "state_id": "24",
    "state_name": "LAGOS",
    "location": null
  },
  {
    "id": "122621",
    "name": "OPEN SPACE AT ZONE D1 BLOCK 194",
    "registration_area_id": "6050",
    "precise_location": null,
    "abbreviation": "060",
    "units": "060",
    "delimitation": "24/17/05/060",
    "remark": "NEW PU",
    "ward_id": "6050",
    "ward_name": "IBA",
    "local_government_id": "522",
    "local_government_name": "OJO",
    "state_id": "24",
    "state_name": "LAGOS",
    "location": null
  },
  {
    "id": "122622",
    "name": "JUNCTION OF AREGBESOLA STREET AGBOROKO",
    "registration_area_id": "6050",
    "precise_location": null,
    "abbreviation": "061",
    "units": "061",
    "delimitation": "24/17/05/061",
    "remark": "NEW PU",
    "ward_id": "6050",
    "ward_name": "IBA",
    "local_government_id": "522",
    "local_government_name": "OJO",
    "state_id": "24",
    "state_name": "LAGOS",
    "location": {
      "latitude": 6.487361,
      "longitude": 3.199363,
      "viewport": {
        "northeast": {
          "lat": 6.488710079892722,
          "lng": 3.200643779892722
        },
        "southwest": {
          "lat": 6.486010420107278,
          "lng": 3.197944120107278
        }
      },
      "formatted_address": "Iyana Iba Rd - Iba Rd, Ojo 102101, Alasia, Nigeria",
      "google_map_url": "https://maps.google.com?q=6.487361,3.199363",
      "google_place_id": "ChIJi-hpkSGEOxARIXnNI-ZWOWQ"
    }
  },
  {
    "id": "122623",
    "name": "OPEN SPACE AT FAITHIA NUR / PRY SCH. AGBOROKO",
    "registration_area_id": "6050",
    "precise_location": null,
    "abbreviation": "062",
    "units": "062",
    "delimitation": "24/17/05/062",
    "remark": "NEW PU",
    "ward_id": "6050",
    "ward_name": "IBA",
    "local_government_id": "522",
    "local_government_name": "OJO",
    "state_id": "24",
    "state_name": "LAGOS",
    "location": {
      "latitude": 6.4869895,
      "longitude": 3.1948613,
      "viewport": {
        "northeast": {
          "lat": 6.488284379892722,
          "lng": 3.196222379892722
        },
        "southwest": {
          "lat": 6.485584720107278,
          "lng": 3.193522720107278
        }
      },
      "formatted_address": "20 Salawu Ajibowo St, Ojo 102101, Lagos, Nigeria",
      "google_map_url": "https://maps.google.com?q=6.4869895,3.1948613",
      "google_place_id": "ChIJn0QE5x6EOxARMnjHqOxgVPM"
    }
  },
  {
    "id": "122624",
    "name": "OPEN SPACE AT AGBOROKO JUNCTION",
    "registration_area_id": "6050",
    "precise_location": null,
    "abbreviation": "063",
    "units": "063",
    "delimitation": "24/17/05/063",
    "remark": "NEW PU",
    "ward_id": "6050",
    "ward_name": "IBA",
    "local_government_id": "522",
    "local_government_name": "OJO",
    "state_id": "24",
    "state_name": "LAGOS",
    "location": {
      "latitude": 6.487361,
      "longitude": 3.199363,
      "viewport": {
        "northeast": {
          "lat": 6.488710079892722,
          "lng": 3.200643779892722
        },
        "southwest": {
          "lat": 6.486010420107278,
          "lng": 3.197944120107278
        }
      },
      "formatted_address": "Iyana Iba Rd - Iba Rd, Ojo 102101, Alasia, Nigeria",
      "google_map_url": "https://maps.google.com?q=6.487361,3.199363",
      "google_place_id": "ChIJi-hpkSGEOxARIXnNI-ZWOWQ"
    }
  },
  {
    "id": "122625",
    "name": "OPEN SPACE AT SHONIBARE STREET AGBOROKO",
    "registration_area_id": "6050",
    "precise_location": null,
    "abbreviation": "064",
    "units": "064",
    "delimitation": "24/17/05/064",
    "remark": "NEW PU",
    "ward_id": "6050",
    "ward_name": "IBA",
    "local_government_id": "522",
    "local_government_name": "OJO",
    "state_id": "24",
    "state_name": "LAGOS",
    "location": {
      "latitude": 6.487361,
      "longitude": 3.199363,
      "viewport": {
        "northeast": {
          "lat": 6.488710079892722,
          "lng": 3.200643779892722
        },
        "southwest": {
          "lat": 6.486010420107278,
          "lng": 3.197944120107278
        }
      },
      "formatted_address": "Iyana Iba Rd - Iba Rd, Ojo 102101, Alasia, Nigeria",
      "google_map_url": "https://maps.google.com?q=6.487361,3.199363",
      "google_place_id": "ChIJi-hpkSGEOxARIXnNI-ZWOWQ"
    }
  },
  {
    "id": "122626",
    "name": "OPEN SPACE AT LASU GATE",
    "registration_area_id": "6050",
    "precise_location": null,
    "abbreviation": "065",
    "units": "065",
    "delimitation": "24/17/05/065",
    "remark": "NEW PU",
    "ward_id": "6050",
    "ward_name": "IBA",
    "local_government_id": "522",
    "local_government_name": "OJO",
    "state_id": "24",
    "state_name": "LAGOS",
    "location": {
      "latitude": 6.494781499999999,
      "longitude": 3.1993575,
      "viewport": {
        "northeast": {
          "lat": 6.496116829892722,
          "lng": 3.200710879892722
        },
        "southwest": {
          "lat": 6.493417170107278,
          "lng": 3.198011220107277
        }
      },
      "formatted_address": "Peace Estate, Ipaye Bus Stop, Iba, Lagos, Lagos, Lagos, Nigeria",
      "google_map_url": "https://maps.google.com?q=6.494781499999999,3.1993575",
      "google_place_id": "ChIJ0YFgQD2EOxARFJDbt7EYMRg"
    }
  },
  {
    "id": "122627",
    "name": "OPEN SPACE AT KRISTOBEL ACADEMY AGBOROKO",
    "registration_area_id": "6050",
    "precise_location": null,
    "abbreviation": "066",
    "units": "066",
    "delimitation": "24/17/05/066",
    "remark": "NEW PU",
    "ward_id": "6050",
    "ward_name": "IBA",
    "local_government_id": "522",
    "local_government_name": "OJO",
    "state_id": "24",
    "state_name": "LAGOS",
    "location": {
      "latitude": 6.4879807,
      "longitude": 3.1922875,
      "viewport": {
        "northeast": {
          "lat": 6.48928612989272,
          "lng": 3.193635529892722
        },
        "southwest": {
          "lat": 6.486586470107277,
          "lng": 3.190935870107277
        }
      },
      "formatted_address": "11 Olatunde Oladokun Street, Ojo 102101, Lagos, Nigeria",
      "google_map_url": "https://maps.google.com?q=6.4879807,3.1922875",
      "google_place_id": "ChIJlboyDxyEOxARh5VYq4x0ViI"
    }
  },
  {
    "id": "122628",
    "name": "OPEN SPACE AT RAINBOW BUS STOP IJAGEMO",
    "registration_area_id": "6050",
    "precise_location": null,
    "abbreviation": "067",
    "units": "067",
    "delimitation": "24/17/05/067",
    "remark": "NEW PU",
    "ward_id": "6050",
    "ward_name": "IBA",
    "local_government_id": "522",
    "local_government_name": "OJO",
    "state_id": "24",
    "state_name": "LAGOS",
    "location": {
      "latitude": 6.4700955,
      "longitude": 3.3227936,
      "viewport": {
        "northeast": {
          "lat": 6.471428129892722,
          "lng": 3.324162929892722
        },
        "southwest": {
          "lat": 6.468728470107278,
          "lng": 3.321463270107277
        }
      },
      "formatted_address": "Amuwo Odofin 102102, Lagos, Nigeria",
      "google_map_url": "https://maps.google.com?q=6.4700955,3.3227936",
      "google_place_id": "ChIJadwBa0aJOxAREtuEI2GdL6Y"
    }
  },
  {
    "id": "122629",
    "name": "OPEN SPACE AT ILEMEJI BUS STOP",
    "registration_area_id": "6050",
    "precise_location": null,
    "abbreviation": "068",
    "units": "068",
    "delimitation": "24/17/05/068",
    "remark": "NEW PU",
    "ward_id": "6050",
    "ward_name": "IBA",
    "local_government_id": "522",
    "local_government_name": "OJO",
    "state_id": "24",
    "state_name": "LAGOS",
    "location": {
      "latitude": 6.513270299999999,
      "longitude": 3.2011505,
      "viewport": {
        "northeast": {
          "lat": 6.514650479892722,
          "lng": 3.202493029892723
        },
        "southwest": {
          "lat": 6.511950820107278,
          "lng": 3.199793370107278
        }
      },
      "formatted_address": "G672+8F2, Ojo 102101, Lagos, Nigeria",
      "google_map_url": "https://maps.google.com?q=6.513270299999999,3.2011505",
      "google_place_id": "ChIJkePJGUOEOxAR6In0JnUWXEw"
    }
  },
  {
    "id": "122630",
    "name": "OPEN SPACE AT ADEREMI LAWAL BUS-STOP  IJEODODO",
    "registration_area_id": "6050",
    "precise_location": null,
    "abbreviation": "069",
    "units": "069",
    "delimitation": "24/17/05/069",
    "remark": "NEW PU",
    "ward_id": "6050",
    "ward_name": "IBA",
    "local_government_id": "522",
    "local_government_name": "OJO",
    "state_id": "24",
    "state_name": "LAGOS",
    "location": {
      "latitude": 6.560556099999999,
      "longitude": 3.2616681,
      "viewport": {
        "northeast": {
          "lat": 6.561910579892721,
          "lng": 3.263015079892722
        },
        "southwest": {
          "lat": 6.559210920107277,
          "lng": 3.260315420107278
        }
      },
      "formatted_address": "Alimosho 102213, Lagos, Nigeria",
      "google_map_url": "https://maps.google.com?q=6.560556099999999,3.2616681",
      "google_place_id": "ChIJlWqzEfmPOxAR1XZsrT1oE_0"
    }
  },
  {
    "id": "122631",
    "name": "OPEN SPACE AT TESILIMI ROAD  IGBO- ELERIN",
    "registration_area_id": "6050",
    "precise_location": null,
    "abbreviation": "070",
    "units": "070",
    "delimitation": "24/17/05/070",
    "remark": "NEW PU",
    "ward_id": "6050",
    "ward_name": "IBA",
    "local_government_id": "522",
    "local_government_name": "OJO",
    "state_id": "24",
    "state_name": "LAGOS",
    "location": {
      "latitude": 6.4873363,
      "longitude": 3.1884193,
      "viewport": {
        "northeast": {
          "lat": 6.488747429892723,
          "lng": 3.189787629892722
        },
        "southwest": {
          "lat": 6.486047770107279,
          "lng": 3.187087970107278
        }
      },
      "formatted_address": "Ojo 102101, Lagos, Nigeria",
      "google_map_url": "https://maps.google.com?q=6.4873363,3.1884193",
      "google_place_id": "ChIJx4h-9iaFOxARgW57kOWEW0o"
    }
  },
  {
    "id": "122632",
    "name": "OPEN SPACE AT GBADAMOSI STR. IGBO - ELERIN",
    "registration_area_id": "6050",
    "precise_location": null,
    "abbreviation": "071",
    "units": "071",
    "delimitation": "24/17/05/071",
    "remark": "NEW PU",
    "ward_id": "6050",
    "ward_name": "IBA",
    "local_government_id": "522",
    "local_government_name": "OJO",
    "state_id": "24",
    "state_name": "LAGOS",
    "location": {
      "latitude": 6.6326125,
      "longitude": 3.3119365,
      "viewport": {
        "northeast": {
          "lat": 6.633948979892722,
          "lng": 3.313238829892722
        },
        "southwest": {
          "lat": 6.631249320107278,
          "lng": 3.310539170107277
        }
      },
      "formatted_address": "1 Oko-Oba Rd, Abule Egba 102212, Lagos, Nigeria",
      "google_map_url": "https://maps.google.com?q=6.6326125,3.3119365",
      "google_place_id": "ChIJ3VRVVVWMOxARiFNkcCIPKE8"
    }
  },
  {
    "id": "122633",
    "name": "OPEN SPACE AT CHEMIST BUS STOP  IGBO- ELERIN",
    "registration_area_id": "6050",
    "precise_location": null,
    "abbreviation": "072",
    "units": "072",
    "delimitation": "24/17/05/072",
    "remark": "NEW PU",
    "ward_id": "6050",
    "ward_name": "IBA",
    "local_government_id": "522",
    "local_government_name": "OJO",
    "state_id": "24",
    "state_name": "LAGOS",
    "location": {
      "latitude": 6.4873363,
      "longitude": 3.1884193,
      "viewport": {
        "northeast": {
          "lat": 6.488747429892723,
          "lng": 3.189787629892722
        },
        "southwest": {
          "lat": 6.486047770107279,
          "lng": 3.187087970107278
        }
      },
      "formatted_address": "Ojo 102101, Lagos, Nigeria",
      "google_map_url": "https://maps.google.com?q=6.4873363,3.1884193",
      "google_place_id": "ChIJx4h-9iaFOxARgW57kOWEW0o"
    }
  },
  {
    "id": "122634",
    "name": "OPEN SPACE AT ASHADE JUNCTION",
    "registration_area_id": "6050",
    "precise_location": null,
    "abbreviation": "073",
    "units": "073",
    "delimitation": "24/17/05/073",
    "remark": "NEW PU",
    "ward_id": "6050",
    "ward_name": "IBA",
    "local_government_id": "522",
    "local_government_name": "OJO",
    "state_id": "24",
    "state_name": "LAGOS",
    "location": {
      "latitude": 6.4850138,
      "longitude": 3.2005239,
      "viewport": {
        "northeast": {
          "lat": 6.486350779892723,
          "lng": 3.201873079892723
        },
        "southwest": {
          "lat": 6.483651120107279,
          "lng": 3.199173420107278
        }
      },
      "formatted_address": "NAOWA MEGA PLAZA, Iba Town Rd, Ojo, Lagos, Nigeria",
      "google_map_url": "https://maps.google.com?q=6.4850138,3.2005239",
      "google_place_id": "ChIJwS8kq5CFOxARMNxx4ApuI_I"
    }
  },
  {
    "id": "122635",
    "name": "OPEN SPACE AT CELE BUS STOP, IGBO - ELERIN",
    "registration_area_id": "6050",
    "precise_location": null,
    "abbreviation": "074",
    "units": "074",
    "delimitation": "24/17/05/074",
    "remark": "NEW PU",
    "ward_id": "6050",
    "ward_name": "IBA",
    "local_government_id": "522",
    "local_government_name": "OJO",
    "state_id": "24",
    "state_name": "LAGOS",
    "location": {
      "latitude": 6.4873363,
      "longitude": 3.1884193,
      "viewport": {
        "northeast": {
          "lat": 6.488747429892723,
          "lng": 3.189787629892722
        },
        "southwest": {
          "lat": 6.486047770107279,
          "lng": 3.187087970107278
        }
      },
      "formatted_address": "Ojo 102101, Lagos, Nigeria",
      "google_map_url": "https://maps.google.com?q=6.4873363,3.1884193",
      "google_place_id": "ChIJx4h-9iaFOxARgW57kOWEW0o"
    }
  },
  {
    "id": "122636",
    "name": "OPEN SPACE AT OPPOSITE DESIL HOTEL",
    "registration_area_id": "6050",
    "precise_location": null,
    "abbreviation": "075",
    "units": "075",
    "delimitation": "24/17/05/075",
    "remark": "NEW PU",
    "ward_id": "6050",
    "ward_name": "IBA",
    "local_government_id": "522",
    "local_government_name": "OJO",
    "state_id": "24",
    "state_name": "LAGOS",
    "location": {
      "latitude": 6.4989574,
      "longitude": 3.1930307,
      "viewport": {
        "northeast": {
          "lat": 6.500321329892722,
          "lng": 3.194236629892723
        },
        "southwest": {
          "lat": 6.497621670107278,
          "lng": 3.191536970107278
        }
      },
      "formatted_address": "95/97 Ishash Road Iyana, Lagos, Nigeria",
      "google_map_url": "https://maps.google.com?q=6.4989574,3.1930307",
      "google_place_id": "ChIJN-7ac5mGOxARfEBN1OKor0k"
    }
  },
  {
    "id": "122637",
    "name": "OPEN SPACE AT OKEMORO",
    "registration_area_id": "6050",
    "precise_location": null,
    "abbreviation": "076",
    "units": "076",
    "delimitation": "24/17/05/076",
    "remark": "NEW PU",
    "ward_id": "6050",
    "ward_name": "IBA",
    "local_government_id": "522",
    "local_government_name": "OJO",
    "state_id": "24",
    "state_name": "LAGOS",
    "location": {
      "latitude": 6.5070555,
      "longitude": 3.1750401,
      "viewport": {
        "northeast": {
          "lat": 6.508442379892722,
          "lng": 3.176411479892722
        },
        "southwest": {
          "lat": 6.505742720107278,
          "lng": 3.173711820107277
        }
      },
      "formatted_address": "G54G+R2F, Convenant Crescent, Ojo 102101, Lagos, Nigeria",
      "google_map_url": "https://maps.google.com?q=6.5070555,3.1750401",
      "google_place_id": "ChIJg-2_qYuDOxARliBMhz5BYYw"
    }
  },
  {
    "id": "122638",
    "name": "OPEN SPACE AT OLUWATEDO JUNCTION",
    "registration_area_id": "6050",
    "precise_location": null,
    "abbreviation": "077",
    "units": "077",
    "delimitation": "24/17/05/077",
    "remark": "NEW PU",
    "ward_id": "6050",
    "ward_name": "IBA",
    "local_government_id": "522",
    "local_government_name": "OJO",
    "state_id": "24",
    "state_name": "LAGOS",
    "location": {
      "latitude": 6.5064861,
      "longitude": 3.200731,
      "viewport": {
        "northeast": {
          "lat": 6.50783997989272,
          "lng": 3.202074629892722
        },
        "southwest": {
          "lat": 6.505140320107277,
          "lng": 3.199374970107277
        }
      },
      "formatted_address": "Ojo 102101, Lagos, Nigeria",
      "google_map_url": "https://maps.google.com?q=6.5064861,3.200731",
      "google_place_id": "ChIJFwGoA0GEOxARrV9EBZqhu-A"
    }
  },
  {
    "id": "122639",
    "name": "OPEN SPACE AT MAY- YOLA COLLEGE",
    "registration_area_id": "6050",
    "precise_location": null,
    "abbreviation": "078",
    "units": "078",
    "delimitation": "24/17/05/078",
    "remark": "NEW PU",
    "ward_id": "6050",
    "ward_name": "IBA",
    "local_government_id": "522",
    "local_government_name": "OJO",
    "state_id": "24",
    "state_name": "LAGOS",
    "location": {
      "latitude": 43.4722854,
      "longitude": -80.5448576,
      "viewport": {
        "northeast": {
          "lat": 43.48963325,
          "lng": -80.52672855
        },
        "southwest": {
          "lat": 43.46189984999999,
          "lng": -80.57275834999999
        }
      },
      "formatted_address": "200 University Ave W, Waterloo, ON N2L 3G1, Canada",
      "google_map_url": "https://maps.google.com?q=43.4722854,-80.5448576",
      "google_place_id": "ChIJ_8ztAq32K4gRF44mljnynd0"
    }
  },
  {
    "id": "122640",
    "name": "OPEN SPACE AT SIGN BOARD  BUS STOP",
    "registration_area_id": "6050",
    "precise_location": null,
    "abbreviation": "079",
    "units": "079",
    "delimitation": "24/17/05/079",
    "remark": "NEW PU",
    "ward_id": "6050",
    "ward_name": "IBA",
    "local_government_id": "522",
    "local_government_name": "OJO",
    "state_id": "24",
    "state_name": "LAGOS",
    "location": {
      "latitude": 6.4994879,
      "longitude": 3.1989111,
      "viewport": {
        "northeast": {
          "lat": 6.500836829892721,
          "lng": 3.200310329892722
        },
        "southwest": {
          "lat": 6.498137170107277,
          "lng": 3.197610670107278
        }
      },
      "formatted_address": "Ojo 102101, Lagos, Nigeria",
      "google_map_url": "https://maps.google.com?q=6.4994879,3.1989111",
      "google_place_id": "ChIJf8BBDj6EOxARt1xXFsBRQ1I"
    }
  },
  {
    "id": "122641",
    "name": "OPEN SPACE AT CELE BUS STOP, ISASHI",
    "registration_area_id": "6050",
    "precise_location": null,
    "abbreviation": "080",
    "units": "080",
    "delimitation": "24/17/05/080",
    "remark": "NEW PU",
    "ward_id": "6050",
    "ward_name": "IBA",
    "local_government_id": "522",
    "local_government_name": "OJO",
    "state_id": "24",
    "state_name": "LAGOS",
    "location": {
      "latitude": 6.5396036,
      "longitude": 3.2843757,
      "viewport": {
        "northeast": {
          "lat": 6.540959029892722,
          "lng": 3.285719279892722
        },
        "southwest": {
          "lat": 6.538259370107278,
          "lng": 3.283019620107278
        }
      },
      "formatted_address": "Ikotun - Idimu Rd, Oshodi-Isolo 102213, Lagos, Nigeria",
      "google_map_url": "https://maps.google.com?q=6.5396036,3.2843757",
      "google_place_id": "ChIJc244k7uPOxARNjUUlL5jZrc"
    }
  },
  {
    "id": "122642",
    "name": "OPEN SPACE AT ISASHI TOWN HALL",
    "registration_area_id": "6050",
    "precise_location": null,
    "abbreviation": "081",
    "units": "081",
    "delimitation": "24/17/05/081",
    "remark": "NEW PU",
    "ward_id": "6050",
    "ward_name": "IBA",
    "local_government_id": "522",
    "local_government_name": "OJO",
    "state_id": "24",
    "state_name": "LAGOS",
    "location": {
      "latitude": 6.497711799999999,
      "longitude": 3.2017465,
      "viewport": {
        "northeast": {
          "lat": 6.499057879892722,
          "lng": 3.202981479892722
        },
        "southwest": {
          "lat": 6.496358220107278,
          "lng": 3.200281820107278
        }
      },
      "formatted_address": "F6X2+3MQ, Ajakaye Bus Stop, Lagos, Nigeria",
      "google_map_url": "https://maps.google.com?q=6.497711799999999,3.2017465",
      "google_place_id": "ChIJ57_JPzyEOxARhW2gd3mHnfY"
    }
  },
  {
    "id": "122643",
    "name": "OPEN SPACE BY IFELODUN MARKET ODAN  ISASHI",
    "registration_area_id": "6050",
    "precise_location": null,
    "abbreviation": "082",
    "units": "082",
    "delimitation": "24/17/05/082",
    "remark": "NEW PU",
    "ward_id": "6050",
    "ward_name": "IBA",
    "local_government_id": "522",
    "local_government_name": "OJO",
    "state_id": "24",
    "state_name": "LAGOS",
    "location": {
      "latitude": 6.4668551,
      "longitude": 3.1866119,
      "viewport": {
        "northeast": {
          "lat": 6.468340229892722,
          "lng": 3.188000479892722
        },
        "southwest": {
          "lat": 6.465640570107278,
          "lng": 3.185300820107277
        }
      },
      "formatted_address": "44 Elewedu St, Ojo 102101, Lagos, Nigeria",
      "google_map_url": "https://maps.google.com?q=6.4668551,3.1866119",
      "google_place_id": "ChIJRco-NbeGOxARICgv1BBWbLU"
    }
  },
  {
    "id": "122644",
    "name": "OPEN SPACE BY BAALE'S PALACE ODAN  ISASHI",
    "registration_area_id": "6050",
    "precise_location": null,
    "abbreviation": "083",
    "units": "083",
    "delimitation": "24/17/05/083",
    "remark": "NEW PU",
    "ward_id": "6050",
    "ward_name": "IBA",
    "local_government_id": "522",
    "local_government_name": "OJO",
    "state_id": "24",
    "state_name": "LAGOS",
    "location": {
      "latitude": 6.497711799999999,
      "longitude": 3.2017465,
      "viewport": {
        "northeast": {
          "lat": 6.499057879892722,
          "lng": 3.202981479892722
        },
        "southwest": {
          "lat": 6.496358220107278,
          "lng": 3.200281820107278
        }
      },
      "formatted_address": "F6X2+3MQ, Ajakaye Bus Stop, Lagos, Nigeria",
      "google_map_url": "https://maps.google.com?q=6.497711799999999,3.2017465",
      "google_place_id": "ChIJ57_JPzyEOxARhW2gd3mHnfY"
    }
  },
  {
    "id": "122645",
    "name": "JUNCTION OF OKE STREET, ISASHI OPEN SPACE",
    "registration_area_id": "6050",
    "precise_location": null,
    "abbreviation": "084",
    "units": "084",
    "delimitation": "24/17/05/084",
    "remark": "NEW PU",
    "ward_id": "6050",
    "ward_name": "IBA",
    "local_government_id": "522",
    "local_government_name": "OJO",
    "state_id": "24",
    "state_name": "LAGOS",
    "location": {
      "latitude": 6.5070555,
      "longitude": 3.1750401,
      "viewport": {
        "northeast": {
          "lat": 6.508442379892722,
          "lng": 3.176411479892722
        },
        "southwest": {
          "lat": 6.505742720107278,
          "lng": 3.173711820107277
        }
      },
      "formatted_address": "G54G+R2F, Convenant Crescent, Ojo 102101, Lagos, Nigeria",
      "google_map_url": "https://maps.google.com?q=6.5070555,3.1750401",
      "google_place_id": "ChIJg-2_qYuDOxARliBMhz5BYYw"
    }
  },
  {
    "id": "122646",
    "name": "OPEN SPACE AT OLAWOLE JUNCTION, IBA NEW SITE",
    "registration_area_id": "6050",
    "precise_location": null,
    "abbreviation": "085",
    "units": "085",
    "delimitation": "24/17/05/085",
    "remark": "NEW PU",
    "ward_id": "6050",
    "ward_name": "IBA",
    "local_government_id": "522",
    "local_government_name": "OJO",
    "state_id": "24",
    "state_name": "LAGOS",
    "location": {
      "latitude": 6.487443,
      "longitude": 3.199224,
      "viewport": {
        "northeast": {
          "lat": 6.488792829892722,
          "lng": 3.200573829892722
        },
        "southwest": {
          "lat": 6.486093170107278,
          "lng": 3.197874170107278
        }
      },
      "formatted_address": "F5PX+XMH, Iyana Iba Rd - Iba Rd, Ojo 102101, Lagos, Nigeria",
      "google_map_url": "https://maps.google.com?q=6.487443,3.199224",
      "google_place_id": "ChIJ5YP74lCFOxARwGgShEVwruo"
    }
  },
  {
    "id": "122647",
    "name": "OPEN SPACE AT ADEBIMPE AMAO, STR. IBA NEW SITE",
    "registration_area_id": "6050",
    "precise_location": null,
    "abbreviation": "086",
    "units": "086",
    "delimitation": "24/17/05/086",
    "remark": "NEW PU",
    "ward_id": "6050",
    "ward_name": "IBA",
    "local_government_id": "522",
    "local_government_name": "OJO",
    "state_id": "24",
    "state_name": "LAGOS",
    "location": null
  },
  {
    "id": "122648",
    "name": "OPEN SPACE AT NO 105 OBA GORIOLA STREET",
    "registration_area_id": "6050",
    "precise_location": null,
    "abbreviation": "087",
    "units": "087",
    "delimitation": "24/17/05/087",
    "remark": "NEW PU",
    "ward_id": "6050",
    "ward_name": "IBA",
    "local_government_id": "522",
    "local_government_name": "OJO",
    "state_id": "24",
    "state_name": "LAGOS",
    "location": {
      "latitude": 6.502356499999999,
      "longitude": 3.1896049,
      "viewport": {
        "northeast": {
          "lat": 6.503771629892721,
          "lng": 3.190859629892722
        },
        "southwest": {
          "lat": 6.501071970107277,
          "lng": 3.188159970107277
        }
      },
      "formatted_address": "105 Oba Goriola Rd, Ojo 102101, Lagos, Nigeria",
      "google_map_url": "https://maps.google.com?q=6.502356499999999,3.1896049",
      "google_place_id": "Ei4xMDUgT2JhIEdvcmlvbGEgUmQsIE9qbyAxMDIxMDEsIExhZ29zLCBOaWdlcmlhIjASLgoUChIJ-euZ3BKEOxARoAAFg5O_-qgQaSoUChIJGVFLEWuEOxARKesI6C7pVVs"
    }
  },
  {
    "id": "122649",
    "name": "OPEN SPACE AT ROLEX COLLEGE",
    "registration_area_id": "6050",
    "precise_location": null,
    "abbreviation": "088",
    "units": "088",
    "delimitation": "24/17/05/088",
    "remark": "NEW PU",
    "ward_id": "6050",
    "ward_name": "IBA",
    "local_government_id": "522",
    "local_government_name": "OJO",
    "state_id": "24",
    "state_name": "LAGOS",
    "location": {
      "latitude": 6.5039209,
      "longitude": 3.1897242,
      "viewport": {
        "northeast": {
          "lat": 6.505321279892721,
          "lng": 3.190993029892722
        },
        "southwest": {
          "lat": 6.502621620107277,
          "lng": 3.188293370107277
        }
      },
      "formatted_address": "12/ 14 Nwaogbe Cres, Ojo 102101, Lagos, Nigeria",
      "google_map_url": "https://maps.google.com?q=6.5039209,3.1897242",
      "google_place_id": "ChIJESECzBKEOxARmTNn68vf1MU"
    }
  },
  {
    "id": "122650",
    "name": "OPEN SPACE AT LANRE MABAWONKU STREET",
    "registration_area_id": "6050",
    "precise_location": null,
    "abbreviation": "089",
    "units": "089",
    "delimitation": "24/17/05/089",
    "remark": "NEW PU",
    "ward_id": "6050",
    "ward_name": "IBA",
    "local_government_id": "522",
    "local_government_name": "OJO",
    "state_id": "24",
    "state_name": "LAGOS",
    "location": {
      "latitude": 6.4850138,
      "longitude": 3.2005239,
      "viewport": {
        "northeast": {
          "lat": 6.486350779892723,
          "lng": 3.201873079892723
        },
        "southwest": {
          "lat": 6.483651120107279,
          "lng": 3.199173420107278
        }
      },
      "formatted_address": "NAOWA MEGA PLAZA, Iba Town Rd, Ojo, Lagos, Nigeria",
      "google_map_url": "https://maps.google.com?q=6.4850138,3.2005239",
      "google_place_id": "ChIJwS8kq5CFOxARMNxx4ApuI_I"
    }
  },
  {
    "id": "122651",
    "name": "OPEN SPACE AT DEVINCE HOTEL BUS STOP , IBA",
    "registration_area_id": "6050",
    "precise_location": null,
    "abbreviation": "090",
    "units": "090",
    "delimitation": "24/17/05/090",
    "remark": "NEW PU",
    "ward_id": "6050",
    "ward_name": "IBA",
    "local_government_id": "522",
    "local_government_name": "OJO",
    "state_id": "24",
    "state_name": "LAGOS",
    "location": {
      "latitude": 6.4584382,
      "longitude": 3.2042131,
      "viewport": {
        "northeast": {
          "lat": 6.459786179892721,
          "lng": 3.205550779892722
        },
        "southwest": {
          "lat": 6.457086520107278,
          "lng": 3.202851120107278
        }
      },
      "formatted_address": "3/5 Alonge Street, Off Lasu  Iba Road, Araromi Bus-Stop, Lagos, Nigeria",
      "google_map_url": "https://maps.google.com?q=6.4584382,3.2042131",
      "google_place_id": "ChIJKWOvZ-yGOxARB5UDPquu77o"
    }
  },
  {
    "id": "122652",
    "name": "2 PRINCESS MAJOFODU ELENI STREET CHURCH POLE VICTORY ESTATE",
    "registration_area_id": "6050",
    "precise_location": null,
    "abbreviation": "091",
    "units": "091",
    "delimitation": "24/17/05/091",
    "remark": "NEW PU",
    "ward_id": "6050",
    "ward_name": "IBA",
    "local_government_id": "522",
    "local_government_name": "OJO",
    "state_id": "24",
    "state_name": "LAGOS",
    "location": {
      "latitude": 6.5050581,
      "longitude": 3.2019768,
      "viewport": {
        "northeast": {
          "lat": 6.506259629892722,
          "lng": 3.203330679892722
        },
        "southwest": {
          "lat": 6.503559970107278,
          "lng": 3.200631020107278
        }
      },
      "formatted_address": "Victory Estate, Ojo 102101, Lagos, Nigeria",
      "google_map_url": "https://maps.google.com?q=6.5050581,3.2019768",
      "google_place_id": "ChIJkWsYvUCEOxARriUvl2RCTMY"
    }
  },
  {
    "id": "122653",
    "name": "OPEN SPACE AT TOWNSEND SCHOOL  IBA NEW TOWN",
    "registration_area_id": "6050",
    "precise_location": null,
    "abbreviation": "092",
    "units": "092",
    "delimitation": "24/17/05/092",
    "remark": "NEW PU",
    "ward_id": "6050",
    "ward_name": "IBA",
    "local_government_id": "522",
    "local_government_name": "OJO",
    "state_id": "24",
    "state_name": "LAGOS",
    "location": {
      "latitude": 6.5359313,
      "longitude": 3.3271103,
      "viewport": {
        "northeast": {
          "lat": 6.537291429892721,
          "lng": 3.328504829892722
        },
        "southwest": {
          "lat": 6.534591770107277,
          "lng": 3.325805170107277
        }
      },
      "formatted_address": "21/23 Alh. Ashiriabo St, Ojo 102214, Lagos, Nigeria",
      "google_map_url": "https://maps.google.com?q=6.5359313,3.3271103",
      "google_place_id": "ChIJm529102POxARZXrR1M_B-mU"
    }
  },
  {
    "id": "122654",
    "name": "OPPOSITE TIME & TIDE SCHOOL  IYANA SCHOOL",
    "registration_area_id": "6050",
    "precise_location": null,
    "abbreviation": "093",
    "units": "093",
    "delimitation": "24/17/05/093",
    "remark": "NEW PU",
    "ward_id": "6050",
    "ward_name": "IBA",
    "local_government_id": "522",
    "local_government_name": "OJO",
    "state_id": "24",
    "state_name": "LAGOS",
    "location": {
      "latitude": 43.41771079999999,
      "longitude": -80.4998234,
      "viewport": {
        "northeast": {
          "lat": 43.41927857989272,
          "lng": -80.49868032010727
        },
        "southwest": {
          "lat": 43.41657892010728,
          "lng": -80.50137997989272
        }
      },
      "formatted_address": "720 Westmount Rd E, Kitchener, ON N2E 2M6, Canada",
      "google_map_url": "https://maps.google.com?q=43.41771079999999,-80.4998234",
      "google_place_id": "ChIJhyQX9qD1K4gRg2Uk4HFVztI"
    }
  },
  {
    "id": "122655",
    "name": "OPEN SPACE AT OBA GORIOLA STREET",
    "registration_area_id": "6050",
    "precise_location": null,
    "abbreviation": "094",
    "units": "094",
    "delimitation": "24/17/05/094",
    "remark": "NEW PU",
    "ward_id": "6050",
    "ward_name": "IBA",
    "local_government_id": "522",
    "local_government_name": "OJO",
    "state_id": "24",
    "state_name": "LAGOS",
    "location": {
      "latitude": 6.457975100000001,
      "longitude": 3.1774387,
      "viewport": {
        "northeast": {
          "lat": 6.459391529892721,
          "lng": 3.178796229892722
        },
        "southwest": {
          "lat": 6.456691870107277,
          "lng": 3.176096570107277
        }
      },
      "formatted_address": "1 Oba Goriola St, Ojo 102111, Alasia, Nigeria",
      "google_map_url": "https://maps.google.com?q=6.457975100000001,3.1774387",
      "google_place_id": "ChIJQ-ZBob-BOxARWY9vyMrt3k8"
    }
  },
  {
    "id": "122656",
    "name": "OPEN SPACE AT ESA GARAGE  IBA",
    "registration_area_id": "6050",
    "precise_location": null,
    "abbreviation": "095",
    "units": "095",
    "delimitation": "24/17/05/095",
    "remark": "NEW PU",
    "ward_id": "6050",
    "ward_name": "IBA",
    "local_government_id": "522",
    "local_government_name": "OJO",
    "state_id": "24",
    "state_name": "LAGOS",
    "location": {
      "latitude": 6.513270299999999,
      "longitude": 3.2011505,
      "viewport": {
        "northeast": {
          "lat": 6.514650479892722,
          "lng": 3.202493029892723
        },
        "southwest": {
          "lat": 6.511950820107278,
          "lng": 3.199793370107278
        }
      },
      "formatted_address": "G672+8F2, Ojo 102101, Lagos, Nigeria",
      "google_map_url": "https://maps.google.com?q=6.513270299999999,3.2011505",
      "google_place_id": "ChIJkePJGUOEOxAR6In0JnUWXEw"
    }
  },
  {
    "id": "122657",
    "name": "JUNCTION OF KOMOLAFE STREET IBATEDO",
    "registration_area_id": "6050",
    "precise_location": null,
    "abbreviation": "096",
    "units": "096",
    "delimitation": "24/17/05/096",
    "remark": "NEW PU",
    "ward_id": "6050",
    "ward_name": "IBA",
    "local_government_id": "522",
    "local_government_name": "OJO",
    "state_id": "24",
    "state_name": "LAGOS",
    "location": {
      "latitude": 6.5064861,
      "longitude": 3.200731,
      "viewport": {
        "northeast": {
          "lat": 6.50783997989272,
          "lng": 3.202074629892722
        },
        "southwest": {
          "lat": 6.505140320107277,
          "lng": 3.199374970107277
        }
      },
      "formatted_address": "Ojo 102101, Lagos, Nigeria",
      "google_map_url": "https://maps.google.com?q=6.5064861,3.200731",
      "google_place_id": "ChIJFwGoA0GEOxARrV9EBZqhu-A"
    }
  },
  {
    "id": "122658",
    "name": "OPEN SPACE AT TEKOBO STREET",
    "registration_area_id": "6050",
    "precise_location": null,
    "abbreviation": "097",
    "units": "097",
    "delimitation": "24/17/05/097",
    "remark": "NEW PU",
    "ward_id": "6050",
    "ward_name": "IBA",
    "local_government_id": "522",
    "local_government_name": "OJO",
    "state_id": "24",
    "state_name": "LAGOS",
    "location": {
      "latitude": 6.4850138,
      "longitude": 3.2005239,
      "viewport": {
        "northeast": {
          "lat": 6.486350779892723,
          "lng": 3.201873079892723
        },
        "southwest": {
          "lat": 6.483651120107279,
          "lng": 3.199173420107278
        }
      },
      "formatted_address": "NAOWA MEGA PLAZA, Iba Town Rd, Ojo, Lagos, Nigeria",
      "google_map_url": "https://maps.google.com?q=6.4850138,3.2005239",
      "google_place_id": "ChIJwS8kq5CFOxARMNxx4ApuI_I"
    }
  },
  {
    "id": "122659",
    "name": "JUNCTION OF BABAJIDE STREET",
    "registration_area_id": "6050",
    "precise_location": null,
    "abbreviation": "098",
    "units": "098",
    "delimitation": "24/17/05/098",
    "remark": "NEW PU",
    "ward_id": "6050",
    "ward_name": "IBA",
    "local_government_id": "522",
    "local_government_name": "OJO",
    "state_id": "24",
    "state_name": "LAGOS",
    "location": {
      "latitude": 6.5064861,
      "longitude": 3.200731,
      "viewport": {
        "northeast": {
          "lat": 6.50783997989272,
          "lng": 3.202074629892722
        },
        "southwest": {
          "lat": 6.505140320107277,
          "lng": 3.199374970107277
        }
      },
      "formatted_address": "Ojo 102101, Lagos, Nigeria",
      "google_map_url": "https://maps.google.com?q=6.5064861,3.200731",
      "google_place_id": "ChIJFwGoA0GEOxARrV9EBZqhu-A"
    }
  },
  {
    "id": "122660",
    "name": "OPEN SPACE AT PAKO BUS STOP",
    "registration_area_id": "6050",
    "precise_location": null,
    "abbreviation": "099",
    "units": "099",
    "delimitation": "24/17/05/099",
    "remark": "NEW PU",
    "ward_id": "6050",
    "ward_name": "IBA",
    "local_government_id": "522",
    "local_government_name": "OJO",
    "state_id": "24",
    "state_name": "LAGOS",
    "location": {
      "latitude": 6.513270299999999,
      "longitude": 3.2011505,
      "viewport": {
        "northeast": {
          "lat": 6.514650479892722,
          "lng": 3.202493029892723
        },
        "southwest": {
          "lat": 6.511950820107278,
          "lng": 3.199793370107278
        }
      },
      "formatted_address": "G672+8F2, Ojo 102101, Lagos, Nigeria",
      "google_map_url": "https://maps.google.com?q=6.513270299999999,3.2011505",
      "google_place_id": "ChIJkePJGUOEOxAR6In0JnUWXEw"
    }
  },
  {
    "id": "122661",
    "name": "MARTINS STREET JUNCTION  IGBO -ELERIN",
    "registration_area_id": "6050",
    "precise_location": null,
    "abbreviation": "100",
    "units": "100",
    "delimitation": "24/17/05/100",
    "remark": "NEW PU",
    "ward_id": "6050",
    "ward_name": "IBA",
    "local_government_id": "522",
    "local_government_name": "OJO",
    "state_id": "24",
    "state_name": "LAGOS",
    "location": {
      "latitude": 6.5127788,
      "longitude": 3.1984205,
      "viewport": {
        "northeast": {
          "lat": 6.514249929892721,
          "lng": 3.199770329892722
        },
        "southwest": {
          "lat": 6.511550270107278,
          "lng": 3.197070670107277
        }
      },
      "formatted_address": "2 hon saurau street Iba junction, Ojo, Lagos, Nigeria",
      "google_map_url": "https://maps.google.com?q=6.5127788,3.1984205",
      "google_place_id": "ChIJQVcfMCaFOxARS-4r6oPLzJ8"
    }
  },
  {
    "id": "122662",
    "name": "ZONE D2 HOUSING ESTATE BLOCK 224",
    "registration_area_id": "6050",
    "precise_location": null,
    "abbreviation": "101",
    "units": "101",
    "delimitation": "24/17/05/101",
    "remark": "NEW PU",
    "ward_id": "6050",
    "ward_name": "IBA",
    "local_government_id": "522",
    "local_government_name": "OJO",
    "state_id": "24",
    "state_name": "LAGOS",
    "location": {
      "latitude": 6.4895574,
      "longitude": 3.1923437,
      "viewport": {
        "northeast": {
          "lat": 6.490930279892722,
          "lng": 3.193693529892723
        },
        "southwest": {
          "lat": 6.488230620107278,
          "lng": 3.190993870107278
        }
      },
      "formatted_address": "F5QR+RW4, Iba Housing Estate, Lagos, Nigeria",
      "google_map_url": "https://maps.google.com?q=6.4895574,3.1923437",
      "google_place_id": "ChIJ-99l6BuEOxAR2NAIrHTUYHk"
    }
  },
  {
    "id": "122663",
    "name": "IBA HOUSING ESTATE PRIMARY SCHOOL",
    "registration_area_id": "6050",
    "precise_location": null,
    "abbreviation": "102",
    "units": "102",
    "delimitation": "24/17/05/102",
    "remark": "NEW PU",
    "ward_id": "6050",
    "ward_name": "IBA",
    "local_government_id": "522",
    "local_government_name": "OJO",
    "state_id": "24",
    "state_name": "LAGOS",
    "location": {
      "latitude": 6.49194,
      "longitude": 3.197716,
      "viewport": {
        "northeast": {
          "lat": 6.493289729892721,
          "lng": 3.199106279892722
        },
        "southwest": {
          "lat": 6.490590070107277,
          "lng": 3.196406620107278
        }
      },
      "formatted_address": "Iba Housing Estate, Ojo 102101, Lagos, Nigeria",
      "google_map_url": "https://maps.google.com?q=6.49194,3.197716",
      "google_place_id": "ChIJVVVVcRiEOxARi2hCEH4DWEs"
    }
  },
  {
    "id": "122664",
    "name": "OPEN SPACE AT OBA OGO FILLING STATION",
    "registration_area_id": "6050",
    "precise_location": null,
    "abbreviation": "103",
    "units": "103",
    "delimitation": "24/17/05/103",
    "remark": "NEW PU",
    "ward_id": "6050",
    "ward_name": "IBA",
    "local_government_id": "522",
    "local_government_name": "OJO",
    "state_id": "24",
    "state_name": "LAGOS",
    "location": {
      "latitude": 6.4738384,
      "longitude": 3.1848341,
      "viewport": {
        "northeast": {
          "lat": 6.475195679892722,
          "lng": 3.186188729892723
        },
        "southwest": {
          "lat": 6.472496020107278,
          "lng": 3.183489070107278
        }
      },
      "formatted_address": "F5FM+GWP, Ojo 102101, Lagos, Nigeria",
      "google_map_url": "https://maps.google.com?q=6.4738384,3.1848341",
      "google_place_id": "ChIJZ0qLR66GOxAREkH710PTt4w"
    }
  },
  {
    "id": "122665",
    "name": "OPEN SPACE AT GOSPEL JUNCTION ISASHI",
    "registration_area_id": "6050",
    "precise_location": null,
    "abbreviation": "104",
    "units": "104",
    "delimitation": "24/17/05/104",
    "remark": "NEW PU",
    "ward_id": "6050",
    "ward_name": "IBA",
    "local_government_id": "522",
    "local_government_name": "OJO",
    "state_id": "24",
    "state_name": "LAGOS",
    "location": {
      "latitude": 6.494781499999999,
      "longitude": 3.1993575,
      "viewport": {
        "northeast": {
          "lat": 6.496116829892722,
          "lng": 3.200710879892722
        },
        "southwest": {
          "lat": 6.493417170107278,
          "lng": 3.198011220107277
        }
      },
      "formatted_address": "Peace Estate, Ipaye Bus Stop, Iba, Lagos, Lagos, Lagos, Nigeria",
      "google_map_url": "https://maps.google.com?q=6.494781499999999,3.1993575",
      "google_place_id": "ChIJ0YFgQD2EOxARFJDbt7EYMRg"
    }
  },
  {
    "id": "122666",
    "name": "OPEN SPACE AT CEMENT JUNCTION  ISASHI",
    "registration_area_id": "6050",
    "precise_location": null,
    "abbreviation": "105",
    "units": "105",
    "delimitation": "24/17/05/105",
    "remark": "NEW PU",
    "ward_id": "6050",
    "ward_name": "IBA",
    "local_government_id": "522",
    "local_government_name": "OJO",
    "state_id": "24",
    "state_name": "LAGOS",
    "location": {
      "latitude": 6.4908196,
      "longitude": 3.1944706,
      "viewport": {
        "northeast": {
          "lat": 6.492152829892721,
          "lng": 3.195820379892722
        },
        "southwest": {
          "lat": 6.489453170107277,
          "lng": 3.193120720107278
        }
      },
      "formatted_address": "Iba Housing Estate, Iba Ojo, Ojo 102101, Lagos, Nigeria",
      "google_map_url": "https://maps.google.com?q=6.4908196,3.1944706",
      "google_place_id": "ChIJva57ChmEOxARQK3gpWJHVQo"
    }
  }
]