[
  {
    "id": "81248",
    "name": "UNG.GEME/ TELEVISION VIEWING CENTER",
    "registration_area_id": "4258",
    "precise_location": null,
    "abbreviation": "001",
    "units": "001",
    "delimitation": "18/16/02/001",
    "remark": "EXISTING PU",
    "ward_id": "4258",
    "ward_name": "HUNKUYI",
    "local_government_id": "362",
    "local_government_name": "KUDAN",
    "state_id": "18",
    "state_name": "KADUNA",
    "location": null
  },
  {
    "id": "81249",
    "name": "KOFAR AREWA I / PRIMARY  SCHOOL DOMOSO",
    "registration_area_id": "4258",
    "precise_location": null,
    "abbreviation": "002",
    "units": "002",
    "delimitation": "18/16/02/002",
    "remark": "EXISTING PU",
    "ward_id": "4258",
    "ward_name": "HUNKUYI",
    "local_government_id": "362",
    "local_government_name": "KUDAN",
    "state_id": "18",
    "state_name": "KADUNA",
    "location": {
      "latitude": 11.2439678,
      "longitude": 7.6105431,
      "viewport": {
        "northeast": {
          "lat": 11.24520767989272,
          "lng": 7.611935329892722
        },
        "southwest": {
          "lat": 11.24250802010728,
          "lng": 7.609235670107278
        }
      },
      "formatted_address": "7F396JV6+H6M Unguwan Madaki Danmahawahi Kaduna, Hunkuyi, Nigeria",
      "google_map_url": "https://maps.google.com?q=11.2439678,7.6105431",
      "google_place_id": "ChIJMVSXkbmJshERLPBscShciSw"
    }
  },
  {
    "id": "81250",
    "name": "UNG. FULANI/ KGM FULANI",
    "registration_area_id": "4258",
    "precise_location": null,
    "abbreviation": "003",
    "units": "003",
    "delimitation": "18/16/02/003",
    "remark": "EXISTING PU",
    "ward_id": "4258",
    "ward_name": "HUNKUYI",
    "local_government_id": "362",
    "local_government_name": "KUDAN",
    "state_id": "18",
    "state_name": "KADUNA",
    "location": {
      "latitude": 11.2747215,
      "longitude": 7.653954700000001,
      "viewport": {
        "northeast": {
          "lat": 11.27628127989272,
          "lng": 7.655179629892721
        },
        "southwest": {
          "lat": 11.27358162010728,
          "lng": 7.652479970107277
        }
      },
      "formatted_address": "7MF3+VHP, 812104, Hunkuyi, Nigeria",
      "google_map_url": "https://maps.google.com?q=11.2747215,7.653954700000001",
      "google_place_id": "ChIJe7yyxQl9shER5Dz8KCRn3HI"
    }
  },
  {
    "id": "81251",
    "name": "BAKIN KASUWA/ KGM BAKIN KASUWA",
    "registration_area_id": "4258",
    "precise_location": null,
    "abbreviation": "004",
    "units": "004",
    "delimitation": "18/16/02/004",
    "remark": "EXISTING PU",
    "ward_id": "4258",
    "ward_name": "HUNKUYI",
    "local_government_id": "362",
    "local_government_name": "KUDAN",
    "state_id": "18",
    "state_name": "KADUNA",
    "location": {
      "latitude": 11.2599555,
      "longitude": 7.6483817,
      "viewport": {
        "northeast": {
          "lat": 11.26124467989272,
          "lng": 7.649418629892724
        },
        "southwest": {
          "lat": 11.25854502010728,
          "lng": 7.64671897010728
        }
      },
      "formatted_address": "7J5X+X9J, 812104, Hunkuyi, Nigeria",
      "google_map_url": "https://maps.google.com?q=11.2599555,7.6483817",
      "google_place_id": "ChIJW1tMOXF9shERe9N8WDbeoMQ"
    }
  },
  {
    "id": "81252",
    "name": "UNG. WALI/ PRI. SCH. DOMOSO",
    "registration_area_id": "4258",
    "precise_location": null,
    "abbreviation": "005",
    "units": "005",
    "delimitation": "18/16/02/005",
    "remark": "EXISTING PU",
    "ward_id": "4258",
    "ward_name": "HUNKUYI",
    "local_government_id": "362",
    "local_government_name": "KUDAN",
    "state_id": "18",
    "state_name": "KADUNA",
    "location": {
      "latitude": 11.281659,
      "longitude": 7.663317299999999,
      "viewport": {
        "northeast": {
          "lat": 11.28292287989272,
          "lng": 7.664558629892723
        },
        "southwest": {
          "lat": 11.28022322010728,
          "lng": 7.661858970107279
        }
      },
      "formatted_address": "7F397MJ7+M8M Maraban Danja Primary School, 812104, Kudan, Nigeria",
      "google_map_url": "https://maps.google.com?q=11.281659,7.663317299999999",
      "google_place_id": "ChIJj1JRHAR9shERe816a212XmQ"
    }
  },
  {
    "id": "81253",
    "name": "UNG. SAKO/  KGM SAKO",
    "registration_area_id": "4258",
    "precise_location": null,
    "abbreviation": "006",
    "units": "006",
    "delimitation": "18/16/02/006",
    "remark": "EXISTING PU",
    "ward_id": "4258",
    "ward_name": "HUNKUYI",
    "local_government_id": "362",
    "local_government_name": "KUDAN",
    "state_id": "18",
    "state_name": "KADUNA",
    "location": {
      "latitude": 11.2747215,
      "longitude": 7.653954700000001,
      "viewport": {
        "northeast": {
          "lat": 11.27628127989272,
          "lng": 7.655179629892721
        },
        "southwest": {
          "lat": 11.27358162010728,
          "lng": 7.652479970107277
        }
      },
      "formatted_address": "7MF3+VHP, 812104, Hunkuyi, Nigeria",
      "google_map_url": "https://maps.google.com?q=11.2747215,7.653954700000001",
      "google_place_id": "ChIJe7yyxQl9shER5Dz8KCRn3HI"
    }
  },
  {
    "id": "81254",
    "name": "DANZANKA/  KGM DANZANKA",
    "registration_area_id": "4258",
    "precise_location": null,
    "abbreviation": "007",
    "units": "007",
    "delimitation": "18/16/02/007",
    "remark": "EXISTING PU",
    "ward_id": "4258",
    "ward_name": "HUNKUYI",
    "local_government_id": "362",
    "local_government_name": "KUDAN",
    "state_id": "18",
    "state_name": "KADUNA",
    "location": {
      "latitude": 11.2747215,
      "longitude": 7.653954700000001,
      "viewport": {
        "northeast": {
          "lat": 11.27628127989272,
          "lng": 7.655179629892721
        },
        "southwest": {
          "lat": 11.27358162010728,
          "lng": 7.652479970107277
        }
      },
      "formatted_address": "7MF3+VHP, 812104, Hunkuyi, Nigeria",
      "google_map_url": "https://maps.google.com?q=11.2747215,7.653954700000001",
      "google_place_id": "ChIJe7yyxQl9shER5Dz8KCRn3HI"
    }
  },
  {
    "id": "81255",
    "name": "KOFAR KUDU/  KGM K/ KUDU",
    "registration_area_id": "4258",
    "precise_location": null,
    "abbreviation": "008",
    "units": "008",
    "delimitation": "18/16/02/008",
    "remark": "EXISTING PU",
    "ward_id": "4258",
    "ward_name": "HUNKUYI",
    "local_government_id": "362",
    "local_government_name": "KUDAN",
    "state_id": "18",
    "state_name": "KADUNA",
    "location": {
      "latitude": 11.2658847,
      "longitude": 7.6480296,
      "viewport": {
        "northeast": {
          "lat": 11.26719892989272,
          "lng": 7.649420679892723
        },
        "southwest": {
          "lat": 11.26449927010728,
          "lng": 7.646721020107279
        }
      },
      "formatted_address": "No 13 kofar kudu Hunkuyi, KADUNA, Nigeria",
      "google_map_url": "https://maps.google.com?q=11.2658847,7.6480296",
      "google_place_id": "ChIJZaOIHth9shERcMIJAGrlccs"
    }
  },
  {
    "id": "81256",
    "name": "UNG. SA.I/  KGM SA.I",
    "registration_area_id": "4258",
    "precise_location": null,
    "abbreviation": "009",
    "units": "009",
    "delimitation": "18/16/02/009",
    "remark": "EXISTING PU",
    "ward_id": "4258",
    "ward_name": "HUNKUYI",
    "local_government_id": "362",
    "local_government_name": "KUDAN",
    "state_id": "18",
    "state_name": "KADUNA",
    "location": {
      "latitude": 11.2747215,
      "longitude": 7.653954700000001,
      "viewport": {
        "northeast": {
          "lat": 11.27628127989272,
          "lng": 7.655179629892721
        },
        "southwest": {
          "lat": 11.27358162010728,
          "lng": 7.652479970107277
        }
      },
      "formatted_address": "7MF3+VHP, 812104, Hunkuyi, Nigeria",
      "google_map_url": "https://maps.google.com?q=11.2747215,7.653954700000001",
      "google_place_id": "ChIJe7yyxQl9shER5Dz8KCRn3HI"
    }
  },
  {
    "id": "81257",
    "name": "UNG. SADAU/  KGM. SADAU",
    "registration_area_id": "4258",
    "precise_location": null,
    "abbreviation": "010",
    "units": "010",
    "delimitation": "18/16/02/010",
    "remark": "EXISTING PU",
    "ward_id": "4258",
    "ward_name": "HUNKUYI",
    "local_government_id": "362",
    "local_government_name": "KUDAN",
    "state_id": "18",
    "state_name": "KADUNA",
    "location": {
      "latitude": 11.2747215,
      "longitude": 7.653954700000001,
      "viewport": {
        "northeast": {
          "lat": 11.27628127989272,
          "lng": 7.655179629892721
        },
        "southwest": {
          "lat": 11.27358162010728,
          "lng": 7.652479970107277
        }
      },
      "formatted_address": "7MF3+VHP, 812104, Hunkuyi, Nigeria",
      "google_map_url": "https://maps.google.com?q=11.2747215,7.653954700000001",
      "google_place_id": "ChIJe7yyxQl9shER5Dz8KCRn3HI"
    }
  },
  {
    "id": "81258",
    "name": "UNG. RUNJI/  KGM RUNJI",
    "registration_area_id": "4258",
    "precise_location": null,
    "abbreviation": "011",
    "units": "011",
    "delimitation": "18/16/02/011",
    "remark": "EXISTING PU",
    "ward_id": "4258",
    "ward_name": "HUNKUYI",
    "local_government_id": "362",
    "local_government_name": "KUDAN",
    "state_id": "18",
    "state_name": "KADUNA",
    "location": {
      "latitude": 11.2747215,
      "longitude": 7.653954700000001,
      "viewport": {
        "northeast": {
          "lat": 11.27628127989272,
          "lng": 7.655179629892721
        },
        "southwest": {
          "lat": 11.27358162010728,
          "lng": 7.652479970107277
        }
      },
      "formatted_address": "7MF3+VHP, 812104, Hunkuyi, Nigeria",
      "google_map_url": "https://maps.google.com?q=11.2747215,7.653954700000001",
      "google_place_id": "ChIJe7yyxQl9shER5Dz8KCRn3HI"
    }
  },
  {
    "id": "81259",
    "name": "UNG. WAZIRI I/ KGM WAZIRI",
    "registration_area_id": "4258",
    "precise_location": null,
    "abbreviation": "012",
    "units": "012",
    "delimitation": "18/16/02/012",
    "remark": "EXISTING PU",
    "ward_id": "4258",
    "ward_name": "HUNKUYI",
    "local_government_id": "362",
    "local_government_name": "KUDAN",
    "state_id": "18",
    "state_name": "KADUNA",
    "location": {
      "latitude": 11.2747215,
      "longitude": 7.653954700000001,
      "viewport": {
        "northeast": {
          "lat": 11.27628127989272,
          "lng": 7.655179629892721
        },
        "southwest": {
          "lat": 11.27358162010728,
          "lng": 7.652479970107277
        }
      },
      "formatted_address": "7MF3+VHP, 812104, Hunkuyi, Nigeria",
      "google_map_url": "https://maps.google.com?q=11.2747215,7.653954700000001",
      "google_place_id": "ChIJe7yyxQl9shER5Dz8KCRn3HI"
    }
  },
  {
    "id": "81260",
    "name": "KOFAR AREWA II/  PRI. SCH. DOMOSO",
    "registration_area_id": "4258",
    "precise_location": null,
    "abbreviation": "013",
    "units": "013",
    "delimitation": "18/16/02/013",
    "remark": "EXISTING PU",
    "ward_id": "4258",
    "ward_name": "HUNKUYI",
    "local_government_id": "362",
    "local_government_name": "KUDAN",
    "state_id": "18",
    "state_name": "KADUNA",
    "location": {
      "latitude": 10.5618219,
      "longitude": 7.455412399999999,
      "viewport": {
        "northeast": {
          "lat": 10.56322217989272,
          "lng": 7.456759429892722
        },
        "southwest": {
          "lat": 10.56052252010728,
          "lng": 7.454059770107278
        }
      },
      "formatted_address": "HF64+R56, Badarawa 800283, Kaduna, Nigeria",
      "google_map_url": "https://maps.google.com?q=10.5618219,7.455412399999999",
      "google_place_id": "ChIJGzL8OWy1shERXKuiXj25irY"
    }
  },
  {
    "id": "81261",
    "name": "UNG. SARKI/ TELEVISION VIEWING CENTRE",
    "registration_area_id": "4258",
    "precise_location": null,
    "abbreviation": "014",
    "units": "014",
    "delimitation": "18/16/02/014",
    "remark": "EXISTING PU",
    "ward_id": "4258",
    "ward_name": "HUNKUYI",
    "local_government_id": "362",
    "local_government_name": "KUDAN",
    "state_id": "18",
    "state_name": "KADUNA",
    "location": {
      "latitude": 11.2726458,
      "longitude": 7.651529600000001,
      "viewport": {
        "northeast": {
          "lat": 11.27398352989272,
          "lng": 7.652864529892723
        },
        "southwest": {
          "lat": 11.27128387010728,
          "lng": 7.650164870107279
        }
      },
      "formatted_address": "7MF2+3J2, 812104, Hunkuyi, Nigeria",
      "google_map_url": "https://maps.google.com?q=11.2726458,7.651529600000001",
      "google_place_id": "ChIJ-5AJ1wt9shERnM348rjQxPM"
    }
  },
  {
    "id": "81262",
    "name": "UNG. MALAMAI I/ KGM MALAMAI",
    "registration_area_id": "4258",
    "precise_location": null,
    "abbreviation": "015",
    "units": "015",
    "delimitation": "18/16/02/015",
    "remark": "EXISTING PU",
    "ward_id": "4258",
    "ward_name": "HUNKUYI",
    "local_government_id": "362",
    "local_government_name": "KUDAN",
    "state_id": "18",
    "state_name": "KADUNA",
    "location": {
      "latitude": 11.2747215,
      "longitude": 7.653954700000001,
      "viewport": {
        "northeast": {
          "lat": 11.27628127989272,
          "lng": 7.655179629892721
        },
        "southwest": {
          "lat": 11.27358162010728,
          "lng": 7.652479970107277
        }
      },
      "formatted_address": "7MF3+VHP, 812104, Hunkuyi, Nigeria",
      "google_map_url": "https://maps.google.com?q=11.2747215,7.653954700000001",
      "google_place_id": "ChIJe7yyxQl9shER5Dz8KCRn3HI"
    }
  },
  {
    "id": "81263",
    "name": "KOFAR YAMMA/ CENTRAL PRI. SCH.",
    "registration_area_id": "4258",
    "precise_location": null,
    "abbreviation": "016",
    "units": "016",
    "delimitation": "18/16/02/016",
    "remark": "EXISTING PU",
    "ward_id": "4258",
    "ward_name": "HUNKUYI",
    "local_government_id": "362",
    "local_government_name": "KUDAN",
    "state_id": "18",
    "state_name": "KADUNA",
    "location": {
      "latitude": 11.2439678,
      "longitude": 7.6105431,
      "viewport": {
        "northeast": {
          "lat": 11.24520767989272,
          "lng": 7.611935329892722
        },
        "southwest": {
          "lat": 11.24250802010728,
          "lng": 7.609235670107278
        }
      },
      "formatted_address": "7F396JV6+H6M Unguwan Madaki Danmahawahi Kaduna, Hunkuyi, Nigeria",
      "google_map_url": "https://maps.google.com?q=11.2439678,7.6105431",
      "google_place_id": "ChIJMVSXkbmJshERLPBscShciSw"
    }
  },
  {
    "id": "81264",
    "name": "UNG. MAGINA/ CENTRAL PRI. SCH.",
    "registration_area_id": "4258",
    "precise_location": null,
    "abbreviation": "017",
    "units": "017",
    "delimitation": "18/16/02/017",
    "remark": "EXISTING PU",
    "ward_id": "4258",
    "ward_name": "HUNKUYI",
    "local_government_id": "362",
    "local_government_name": "KUDAN",
    "state_id": "18",
    "state_name": "KADUNA",
    "location": {
      "latitude": 11.2439678,
      "longitude": 7.6105431,
      "viewport": {
        "northeast": {
          "lat": 11.24520767989272,
          "lng": 7.611935329892722
        },
        "southwest": {
          "lat": 11.24250802010728,
          "lng": 7.609235670107278
        }
      },
      "formatted_address": "7F396JV6+H6M Unguwan Madaki Danmahawahi Kaduna, Hunkuyi, Nigeria",
      "google_map_url": "https://maps.google.com?q=11.2439678,7.6105431",
      "google_place_id": "ChIJMVSXkbmJshERLPBscShciSw"
    }
  },
  {
    "id": "81265",
    "name": "UNG. MAJEMA/ KGM MAJEMA",
    "registration_area_id": "4258",
    "precise_location": null,
    "abbreviation": "018",
    "units": "018",
    "delimitation": "18/16/02/018",
    "remark": "EXISTING PU",
    "ward_id": "4258",
    "ward_name": "HUNKUYI",
    "local_government_id": "362",
    "local_government_name": "KUDAN",
    "state_id": "18",
    "state_name": "KADUNA",
    "location": {
      "latitude": 11.2747215,
      "longitude": 7.653954700000001,
      "viewport": {
        "northeast": {
          "lat": 11.27628127989272,
          "lng": 7.655179629892721
        },
        "southwest": {
          "lat": 11.27358162010728,
          "lng": 7.652479970107277
        }
      },
      "formatted_address": "7MF3+VHP, 812104, Hunkuyi, Nigeria",
      "google_map_url": "https://maps.google.com?q=11.2747215,7.653954700000001",
      "google_place_id": "ChIJe7yyxQl9shER5Dz8KCRn3HI"
    }
  },
  {
    "id": "81266",
    "name": "UNG. WAZIRI II/ K/M WAZIRI",
    "registration_area_id": "4258",
    "precise_location": null,
    "abbreviation": "019",
    "units": "019",
    "delimitation": "18/16/02/019",
    "remark": "EXISTING PU",
    "ward_id": "4258",
    "ward_name": "HUNKUYI",
    "local_government_id": "362",
    "local_government_name": "KUDAN",
    "state_id": "18",
    "state_name": "KADUNA",
    "location": {
      "latitude": 10.5923268,
      "longitude": 7.4691484,
      "viewport": {
        "northeast": {
          "lat": 10.59366047989272,
          "lng": 7.470456679892723
        },
        "southwest": {
          "lat": 10.59096082010728,
          "lng": 7.467757020107279
        }
      },
      "formatted_address": "No 16, Mansur Street, Waziri, Kaduna, Nigeria",
      "google_map_url": "https://maps.google.com?q=10.5923268,7.4691484",
      "google_place_id": "ChIJgxs1Pbq1shERC0xfNta1KAg"
    }
  },
  {
    "id": "81267",
    "name": "UNG. MALAMAI II/ K/M MALAMAI",
    "registration_area_id": "4258",
    "precise_location": null,
    "abbreviation": "020",
    "units": "020",
    "delimitation": "18/16/02/020",
    "remark": "EXISTING PU",
    "ward_id": "4258",
    "ward_name": "HUNKUYI",
    "local_government_id": "362",
    "local_government_name": "KUDAN",
    "state_id": "18",
    "state_name": "KADUNA",
    "location": {
      "latitude": 11.2747215,
      "longitude": 7.653954700000001,
      "viewport": {
        "northeast": {
          "lat": 11.27628127989272,
          "lng": 7.655179629892721
        },
        "southwest": {
          "lat": 11.27358162010728,
          "lng": 7.652479970107277
        }
      },
      "formatted_address": "7MF3+VHP, 812104, Hunkuyi, Nigeria",
      "google_map_url": "https://maps.google.com?q=11.2747215,7.653954700000001",
      "google_place_id": "ChIJe7yyxQl9shER5Dz8KCRn3HI"
    }
  }
]