[
  {
    "id": "99682",
    "name": "DUDUNNI PRI.SCHOOL",
    "registration_area_id": "5065",
    "precise_location": null,
    "abbreviation": "001",
    "units": "001",
    "delimitation": "20/23/02/001",
    "remark": "EXISTING PU",
    "ward_id": "5065",
    "ward_name": "DUDUNNI",
    "local_government_id": "436",
    "local_government_name": "KUSADA",
    "state_id": "20",
    "state_name": "KATSINA",
    "location": {
      "latitude": 13.0076612,
      "longitude": 7.5868746,
      "viewport": {
        "northeast": {
          "lat": 13.00900492989272,
          "lng": 7.588505879892723
        },
        "southwest": {
          "lat": 13.00630527010728,
          "lng": 7.585806220107278
        }
      },
      "formatted_address": "2H5P+3P9 lowcost katsina, 820101, Dutsin Safe, Nigeria",
      "google_map_url": "https://maps.google.com?q=13.0076612,7.5868746",
      "google_place_id": "ChIJa6GIUuY8sBERAhX3mcN0PXc"
    }
  },
  {
    "id": "99683",
    "name": "GIDAN BANGO - OPEN SPACE",
    "registration_area_id": "5065",
    "precise_location": null,
    "abbreviation": "002",
    "units": "002",
    "delimitation": "20/23/02/002",
    "remark": "EXISTING PU",
    "ward_id": "5065",
    "ward_name": "DUDUNNI",
    "local_government_id": "436",
    "local_government_name": "KUSADA",
    "state_id": "20",
    "state_name": "KATSINA",
    "location": {
      "latitude": 12.9810764,
      "longitude": 7.6343398,
      "viewport": {
        "northeast": {
          "lat": 12.98241177989272,
          "lng": 7.635691879892722
        },
        "southwest": {
          "lat": 12.97971212010728,
          "lng": 7.632992220107278
        }
      },
      "formatted_address": "XJJM+CPP, 820101, Katsina, Nigeria",
      "google_map_url": "https://maps.google.com?q=12.9810764,7.6343398",
      "google_place_id": "ChIJpaQNOb0jsBERphTVL5C2zRk"
    }
  },
  {
    "id": "99684",
    "name": "DUNGURMI OPEN SPACE",
    "registration_area_id": "5065",
    "precise_location": null,
    "abbreviation": "003",
    "units": "003",
    "delimitation": "20/23/02/003",
    "remark": "EXISTING PU",
    "ward_id": "5065",
    "ward_name": "DUDUNNI",
    "local_government_id": "436",
    "local_government_name": "KUSADA",
    "state_id": "20",
    "state_name": "KATSINA",
    "location": {
      "latitude": 12.9771627,
      "longitude": 7.638197799999999,
      "viewport": {
        "northeast": {
          "lat": 12.97805492989272,
          "lng": 7.63987762989272
        },
        "southwest": {
          "lat": 12.97535527010728,
          "lng": 7.637177970107277
        }
      },
      "formatted_address": "XJGQ+V78, 820101, Katsina, Nigeria",
      "google_map_url": "https://maps.google.com?q=12.9771627,7.638197799999999",
      "google_place_id": "ChIJEcs1mGYjsBERLlylGjIVr-M"
    }
  },
  {
    "id": "99685",
    "name": "RUGAR YA'U - OPEN SPACE",
    "registration_area_id": "5065",
    "precise_location": null,
    "abbreviation": "004",
    "units": "004",
    "delimitation": "20/23/02/004",
    "remark": "EXISTING PU",
    "ward_id": "5065",
    "ward_name": "DUDUNNI",
    "local_government_id": "436",
    "local_government_name": "KUSADA",
    "state_id": "20",
    "state_name": "KATSINA",
    "location": null
  },
  {
    "id": "99686",
    "name": "ZANGON YASANYA - OPEN SPACE",
    "registration_area_id": "5065",
    "precise_location": null,
    "abbreviation": "005",
    "units": "005",
    "delimitation": "20/23/02/005",
    "remark": "EXISTING PU",
    "ward_id": "5065",
    "ward_name": "DUDUNNI",
    "local_government_id": "436",
    "local_government_name": "KUSADA",
    "state_id": "20",
    "state_name": "KATSINA",
    "location": {
      "latitude": 12.9771627,
      "longitude": 7.638197799999999,
      "viewport": {
        "northeast": {
          "lat": 12.97805492989272,
          "lng": 7.63987762989272
        },
        "southwest": {
          "lat": 12.97535527010728,
          "lng": 7.637177970107277
        }
      },
      "formatted_address": "XJGQ+V78, 820101, Katsina, Nigeria",
      "google_map_url": "https://maps.google.com?q=12.9771627,7.638197799999999",
      "google_place_id": "ChIJEcs1mGYjsBERLlylGjIVr-M"
    }
  },
  {
    "id": "99687",
    "name": "MADAKAWA - OPEN SPACE",
    "registration_area_id": "5065",
    "precise_location": null,
    "abbreviation": "006",
    "units": "006",
    "delimitation": "20/23/02/006",
    "remark": "EXISTING PU",
    "ward_id": "5065",
    "ward_name": "DUDUNNI",
    "local_government_id": "436",
    "local_government_name": "KUSADA",
    "state_id": "20",
    "state_name": "KATSINA",
    "location": {
      "latitude": 12.9826117,
      "longitude": 7.6153612,
      "viewport": {
        "northeast": {
          "lat": 12.98400407989272,
          "lng": 7.616643929892724
        },
        "southwest": {
          "lat": 12.98130442010728,
          "lng": 7.61394427010728
        }
      },
      "formatted_address": "Mani House guess Inn, street 820211, Katsina, Nigeria",
      "google_map_url": "https://maps.google.com?q=12.9826117,7.6153612",
      "google_place_id": "ChIJN79aCrEjsBER5xBa4KEFNSg"
    }
  },
  {
    "id": "99688",
    "name": "JOFALAWA - OPEN SPACE",
    "registration_area_id": "5065",
    "precise_location": null,
    "abbreviation": "007",
    "units": "007",
    "delimitation": "20/23/02/007",
    "remark": "EXISTING PU",
    "ward_id": "5065",
    "ward_name": "DUDUNNI",
    "local_government_id": "436",
    "local_government_name": "KUSADA",
    "state_id": "20",
    "state_name": "KATSINA",
    "location": null
  },
  {
    "id": "99689",
    "name": "GIDAN FAKO - OPEN SPACE",
    "registration_area_id": "5065",
    "precise_location": null,
    "abbreviation": "008",
    "units": "008",
    "delimitation": "20/23/02/008",
    "remark": "EXISTING PU",
    "ward_id": "5065",
    "ward_name": "DUDUNNI",
    "local_government_id": "436",
    "local_government_name": "KUSADA",
    "state_id": "20",
    "state_name": "KATSINA",
    "location": null
  },
  {
    "id": "99690",
    "name": "TSAUWAWA RUGA - OPEN SPACE",
    "registration_area_id": "5065",
    "precise_location": null,
    "abbreviation": "009",
    "units": "009",
    "delimitation": "20/23/02/009",
    "remark": "EXISTING PU",
    "ward_id": "5065",
    "ward_name": "DUDUNNI",
    "local_government_id": "436",
    "local_government_name": "KUSADA",
    "state_id": "20",
    "state_name": "KATSINA",
    "location": null
  },
  {
    "id": "99691",
    "name": "DUDUNNI PRI. SCHOOL II",
    "registration_area_id": "5065",
    "precise_location": null,
    "abbreviation": "010",
    "units": "010",
    "delimitation": "20/23/02/010",
    "remark": "NEW PU",
    "ward_id": "5065",
    "ward_name": "DUDUNNI",
    "local_government_id": "436",
    "local_government_name": "KUSADA",
    "state_id": "20",
    "state_name": "KATSINA",
    "location": {
      "latitude": 12.9668784,
      "longitude": 7.646327799999999,
      "viewport": {
        "northeast": {
          "lat": 12.96822822989272,
          "lng": 7.647677629892721
        },
        "southwest": {
          "lat": 12.96552857010728,
          "lng": 7.644977970107277
        }
      },
      "formatted_address": "No. 13 Mani Rd, 820102, Katsina, Nigeria",
      "google_map_url": "https://maps.google.com?q=12.9668784,7.646327799999999",
      "google_place_id": "ChIJq8YC_IIksBERbwjUFqH1wFM"
    }
  }
]