[
  {
    "id": "350727",
    "name": "TEMIDIRE PRY. SCHOOL, FRONTAGE",
    "registration_area_id": "17897",
    "precise_location": null,
    "abbreviation": "001",
    "units": "001",
    "delimitation": "29/19/05/001",
    "remark": "EXISTING PU",
    "ward_id": "17897",
    "ward_name": "ISOKUN",
    "local_government_id": "617",
    "local_government_name": "ILESA WEST",
    "state_id": "29",
    "state_name": "OSUN",
    "location": {
      "latitude": 7.637076200000001,
      "longitude": 4.7539897,
      "viewport": {
        "northeast": {
          "lat": 7.638367779892723,
          "lng": 4.755395279892721
        },
        "southwest": {
          "lat": 7.635668120107279,
          "lng": 4.752695620107278
        }
      },
      "formatted_address": "JQP3+RHP, 233285, Ilesa, Nigeria",
      "google_map_url": "https://maps.google.com?q=7.637076200000001,4.7539897",
      "google_place_id": "ChIJ8WJch_EYOBARfvlm-Qtj9qk"
    }
  },
  {
    "id": "350728",
    "name": "ISOKUN MATERNITY AREA",
    "registration_area_id": "17897",
    "precise_location": null,
    "abbreviation": "002",
    "units": "002",
    "delimitation": "29/19/05/002",
    "remark": "EXISTING PU",
    "ward_id": "17897",
    "ward_name": "ISOKUN",
    "local_government_id": "617",
    "local_government_name": "ILESA WEST",
    "state_id": "29",
    "state_name": "OSUN",
    "location": {
      "latitude": 7.6560598,
      "longitude": 4.7329268,
      "viewport": {
        "northeast": {
          "lat": 7.67579,
          "lng": 4.7577073
        },
        "southwest": {
          "lat": 7.636286299999999,
          "lng": 4.688318499999999
        }
      },
      "formatted_address": "Isokun, Nigeria",
      "google_map_url": "https://maps.google.com?q=7.6560598,4.7329268",
      "google_place_id": "ChIJ5Yiw_QsiOBARxSU-CwIiyP0"
    }
  },
  {
    "id": "350729",
    "name": "SALVATION ARMY PRY. SCHOOL",
    "registration_area_id": "17897",
    "precise_location": null,
    "abbreviation": "003",
    "units": "003",
    "delimitation": "29/19/05/003",
    "remark": "EXISTING PU",
    "ward_id": "17897",
    "ward_name": "ISOKUN",
    "local_government_id": "617",
    "local_government_name": "ILESA WEST",
    "state_id": "29",
    "state_name": "OSUN",
    "location": {
      "latitude": 7.7812255,
      "longitude": 4.5457169,
      "viewport": {
        "northeast": {
          "lat": 7.782581229892722,
          "lng": 4.547034729892721
        },
        "southwest": {
          "lat": 7.779881570107278,
          "lng": 4.544335070107278
        }
      },
      "formatted_address": "Salvation Army Primary School, 230103, Osogbo, Nigeria",
      "google_map_url": "https://maps.google.com?q=7.7812255,4.5457169",
      "google_place_id": "ChIJAQDAQOqHNxARH0nThZSNTJU"
    }
  },
  {
    "id": "350730",
    "name": "ZUMURATUL PRY. SCHOOL, AREA",
    "registration_area_id": "17897",
    "precise_location": null,
    "abbreviation": "004",
    "units": "004",
    "delimitation": "29/19/05/004",
    "remark": "EXISTING PU",
    "ward_id": "17897",
    "ward_name": "ISOKUN",
    "local_government_id": "617",
    "local_government_name": "ILESA WEST",
    "state_id": "29",
    "state_name": "OSUN",
    "location": {
      "latitude": 7.637076200000001,
      "longitude": 4.7539897,
      "viewport": {
        "northeast": {
          "lat": 7.638367779892723,
          "lng": 4.755395279892721
        },
        "southwest": {
          "lat": 7.635668120107279,
          "lng": 4.752695620107278
        }
      },
      "formatted_address": "JQP3+RHP, 233285, Ilesa, Nigeria",
      "google_map_url": "https://maps.google.com?q=7.637076200000001,4.7539897",
      "google_place_id": "ChIJ8WJch_EYOBARfvlm-Qtj9qk"
    }
  },
  {
    "id": "350731",
    "name": "OKE OMIRU MECHANIC WORKSHOP",
    "registration_area_id": "17897",
    "precise_location": null,
    "abbreviation": "005",
    "units": "005",
    "delimitation": "29/19/05/005",
    "remark": "EXISTING PU",
    "ward_id": "17897",
    "ward_name": "ISOKUN",
    "local_government_id": "617",
    "local_government_name": "ILESA WEST",
    "state_id": "29",
    "state_name": "OSUN",
    "location": {
      "latitude": 7.6494632,
      "longitude": 4.7377097,
      "viewport": {
        "northeast": {
          "lat": 7.650747179892722,
          "lng": 4.738972929892721
        },
        "southwest": {
          "lat": 7.648047520107277,
          "lng": 4.736273270107278
        }
      },
      "formatted_address": "JPXQ+Q4R, Oshogbo - Ilesha Rd, Oja Aba 233285, Ilesa, Nigeria",
      "google_map_url": "https://maps.google.com?q=7.6494632,4.7377097",
      "google_place_id": "ChIJm8ExGZgYOBARZxxlPQT2JrU"
    }
  },
  {
    "id": "350732",
    "name": "GEORGE BURTON COLLEGE I",
    "registration_area_id": "17897",
    "precise_location": null,
    "abbreviation": "006",
    "units": "006",
    "delimitation": "29/19/05/006",
    "remark": "EXISTING PU",
    "ward_id": "17897",
    "ward_name": "ISOKUN",
    "local_government_id": "617",
    "local_government_name": "ILESA WEST",
    "state_id": "29",
    "state_name": "OSUN",
    "location": {
      "latitude": 7.6535175,
      "longitude": 4.7443699,
      "viewport": {
        "northeast": {
          "lat": 7.65486732989272,
          "lng": 4.745719729892722
        },
        "southwest": {
          "lat": 7.652167670107276,
          "lng": 4.743020070107278
        }
      },
      "formatted_address": "George Burton Street, 233285, Ilerin, Nigeria",
      "google_map_url": "https://maps.google.com?q=7.6535175,4.7443699",
      "google_place_id": "ChIJNyzI9L4YOBARyf6Kx_r5Pnw"
    }
  },
  {
    "id": "350733",
    "name": "GEORGE BURTON COLLEGE II",
    "registration_area_id": "17897",
    "precise_location": null,
    "abbreviation": "007",
    "units": "007",
    "delimitation": "29/19/05/007",
    "remark": "EXISTING PU",
    "ward_id": "17897",
    "ward_name": "ISOKUN",
    "local_government_id": "617",
    "local_government_name": "ILESA WEST",
    "state_id": "29",
    "state_name": "OSUN",
    "location": {
      "latitude": 7.653144999999999,
      "longitude": 4.74585,
      "viewport": {
        "northeast": {
          "lat": 7.654463729892721,
          "lng": 4.746911929892722
        },
        "southwest": {
          "lat": 7.651764070107277,
          "lng": 4.744212270107278
        }
      },
      "formatted_address": "Ibala Rd, 233285, Ilesa, Nigeria",
      "google_map_url": "https://maps.google.com?q=7.653144999999999,4.74585",
      "google_place_id": "ChIJ_5VLVb4YOBARnfxtReFDVRI"
    }
  },
  {
    "id": "350734",
    "name": "L.A. PRY SCHOOL, ISOKUN I",
    "registration_area_id": "17897",
    "precise_location": null,
    "abbreviation": "008",
    "units": "008",
    "delimitation": "29/19/05/008",
    "remark": "EXISTING PU",
    "ward_id": "17897",
    "ward_name": "ISOKUN",
    "local_government_id": "617",
    "local_government_name": "ILESA WEST",
    "state_id": "29",
    "state_name": "OSUN",
    "location": {
      "latitude": 7.638844700000001,
      "longitude": 4.7460257,
      "viewport": {
        "northeast": {
          "lat": 7.640089379892722,
          "lng": 4.747245129892722
        },
        "southwest": {
          "lat": 7.637389720107278,
          "lng": 4.744545470107278
        }
      },
      "formatted_address": "JPQW+G69 LA Primary School, 233285, Ilesa, Nigeria",
      "google_map_url": "https://maps.google.com?q=7.638844700000001,4.7460257",
      "google_place_id": "ChIJwSsado0YOBAR38kbMApGSD0"
    }
  },
  {
    "id": "350735",
    "name": "L.A. PRY. SCHOOL, ISOKUN II",
    "registration_area_id": "17897",
    "precise_location": null,
    "abbreviation": "009",
    "units": "009",
    "delimitation": "29/19/05/009",
    "remark": "EXISTING PU",
    "ward_id": "17897",
    "ward_name": "ISOKUN",
    "local_government_id": "617",
    "local_government_name": "ILESA WEST",
    "state_id": "29",
    "state_name": "OSUN",
    "location": null
  },
  {
    "id": "350736",
    "name": "AFRICAN CHURCH GRAMMAR SCHOOL, AREA",
    "registration_area_id": "17897",
    "precise_location": null,
    "abbreviation": "010",
    "units": "010",
    "delimitation": "29/19/05/010",
    "remark": "EXISTING PU",
    "ward_id": "17897",
    "ward_name": "ISOKUN",
    "local_government_id": "617",
    "local_government_name": "ILESA WEST",
    "state_id": "29",
    "state_name": "OSUN",
    "location": {
      "latitude": 7.654379899999999,
      "longitude": 4.7319566,
      "viewport": {
        "northeast": {
          "lat": 7.65529262989272,
          "lng": 4.7335625
        },
        "southwest": {
          "lat": 7.652592970107277,
          "lng": 4.7306979
        }
      },
      "formatted_address": "African Church Grammar School, Oshogbo - Ilesha Rd, 233103, Ilesa, Nigeria",
      "google_map_url": "https://maps.google.com?q=7.654379899999999,4.7319566",
      "google_place_id": "ChIJA69LcKEYOBARWV_VZM5EdzY"
    }
  },
  {
    "id": "350737",
    "name": "FAITH FOUNDATION N & P SCHOOL I",
    "registration_area_id": "17897",
    "precise_location": null,
    "abbreviation": "011",
    "units": "011",
    "delimitation": "29/19/05/011",
    "remark": "EXISTING PU",
    "ward_id": "17897",
    "ward_name": "ISOKUN",
    "local_government_id": "617",
    "local_government_name": "ILESA WEST",
    "state_id": "29",
    "state_name": "OSUN",
    "location": {
      "latitude": 43.7349148,
      "longitude": -79.4845601,
      "viewport": {
        "northeast": {
          "lat": 43.73629837989272,
          "lng": -79.48296152010727
        },
        "southwest": {
          "lat": 43.73359872010727,
          "lng": -79.48566117989272
        }
      },
      "formatted_address": "Sun services 11AM In person at 2950 Keele Street. unit 101 Not located at Madonna SS, North York, ON M3M 2H2, Canada",
      "google_map_url": "https://maps.google.com?q=43.7349148,-79.4845601",
      "google_place_id": "ChIJve6SVZlNV0ARRurVKIdKF20"
    }
  },
  {
    "id": "350738",
    "name": "FAITH FOUNDATION  N & P SCHOOL II",
    "registration_area_id": "17897",
    "precise_location": null,
    "abbreviation": "012",
    "units": "012",
    "delimitation": "29/19/05/012",
    "remark": "EXISTING PU",
    "ward_id": "17897",
    "ward_name": "ISOKUN",
    "local_government_id": "617",
    "local_government_name": "ILESA WEST",
    "state_id": "29",
    "state_name": "OSUN",
    "location": {
      "latitude": 43.7349148,
      "longitude": -79.4845601,
      "viewport": {
        "northeast": {
          "lat": 43.73629837989272,
          "lng": -79.48296152010727
        },
        "southwest": {
          "lat": 43.73359872010727,
          "lng": -79.48566117989272
        }
      },
      "formatted_address": "Sun services 11AM In person at 2950 Keele Street. unit 101 Not located at Madonna SS, North York, ON M3M 2H2, Canada",
      "google_map_url": "https://maps.google.com?q=43.7349148,-79.4845601",
      "google_place_id": "ChIJve6SVZlNV0ARRurVKIdKF20"
    }
  },
  {
    "id": "350739",
    "name": "OBA AJIMOKO HIGH SCHOOL, OSOGBO ROAD, ILESA",
    "registration_area_id": "17897",
    "precise_location": null,
    "abbreviation": "013",
    "units": "013",
    "delimitation": "29/19/05/013",
    "remark": "NEW PU",
    "ward_id": "17897",
    "ward_name": "ISOKUN",
    "local_government_id": "617",
    "local_government_name": "ILESA WEST",
    "state_id": "29",
    "state_name": "OSUN",
    "location": {
      "latitude": 7.6560598,
      "longitude": 4.7329268,
      "viewport": {
        "northeast": {
          "lat": 7.67579,
          "lng": 4.7577073
        },
        "southwest": {
          "lat": 7.636286299999999,
          "lng": 4.688318499999999
        }
      },
      "formatted_address": "Isokun, Nigeria",
      "google_map_url": "https://maps.google.com?q=7.6560598,4.7329268",
      "google_place_id": "ChIJ5Yiw_QsiOBARxSU-CwIiyP0"
    }
  },
  {
    "id": "350740",
    "name": "OPEN SPACE SARUMI JUNCTION, OFF OSOGBO ROAD, ILESA",
    "registration_area_id": "17897",
    "precise_location": null,
    "abbreviation": "014",
    "units": "014",
    "delimitation": "29/19/05/014",
    "remark": "NEW PU",
    "ward_id": "17897",
    "ward_name": "ISOKUN",
    "local_government_id": "617",
    "local_government_name": "ILESA WEST",
    "state_id": "29",
    "state_name": "OSUN",
    "location": {
      "latitude": 7.638644900000001,
      "longitude": 4.748192599999999,
      "viewport": {
        "northeast": {
          "lat": 7.64486560000005,
          "lng": 4.749678829892722
        },
        "southwest": {
          "lat": 7.633023199999948,
          "lng": 4.746979170107278
        }
      },
      "formatted_address": "Osogbo Rd, 233285, Ilerin, Nigeria",
      "google_map_url": "https://maps.google.com?q=7.638644900000001,4.748192599999999",
      "google_place_id": "EiJPc29nYm8gUmQsIDIzMzI4NSwgSWxlcmluLCBOaWdlcmlhIi4qLAoUChIJgdl00ZIYOBARmpH0UQOp4QsSFAoSCeWIsP0LIjgQEcUlPgsCIsj9"
    }
  },
  {
    "id": "350741",
    "name": "COMMUNITY PRIMARY SCHOOL, OKE OMIRU, ILESA",
    "registration_area_id": "17897",
    "precise_location": null,
    "abbreviation": "015",
    "units": "015",
    "delimitation": "29/19/05/015",
    "remark": "NEW PU",
    "ward_id": "17897",
    "ward_name": "ISOKUN",
    "local_government_id": "617",
    "local_government_name": "ILESA WEST",
    "state_id": "29",
    "state_name": "OSUN",
    "location": {
      "latitude": 7.619824199999999,
      "longitude": 4.7386782,
      "viewport": {
        "northeast": {
          "lat": 7.62118177989272,
          "lng": 4.740030379892722
        },
        "southwest": {
          "lat": 7.618482120107276,
          "lng": 4.737330720107278
        }
      },
      "formatted_address": "JP9Q+WFF, Oke Iro Street, 233285, Ilesa, Nigeria",
      "google_map_url": "https://maps.google.com?q=7.619824199999999,4.7386782",
      "google_place_id": "ChIJIXnVNmUYOBARAvvWdHnHvAA"
    }
  },
  {
    "id": "350742",
    "name": "OPEN SPACE OPPOSITE PZ BUILDING, OSOGBO ROAD, ILESA",
    "registration_area_id": "17897",
    "precise_location": null,
    "abbreviation": "016",
    "units": "016",
    "delimitation": "29/19/05/016",
    "remark": "NEW PU",
    "ward_id": "17897",
    "ward_name": "ISOKUN",
    "local_government_id": "617",
    "local_government_name": "ILESA WEST",
    "state_id": "29",
    "state_name": "OSUN",
    "location": {
      "latitude": 7.638644900000001,
      "longitude": 4.748192599999999,
      "viewport": {
        "northeast": {
          "lat": 7.64486560000005,
          "lng": 4.749678829892722
        },
        "southwest": {
          "lat": 7.633023199999948,
          "lng": 4.746979170107278
        }
      },
      "formatted_address": "Osogbo Rd, 233285, Ilerin, Nigeria",
      "google_map_url": "https://maps.google.com?q=7.638644900000001,4.748192599999999",
      "google_place_id": "EiJPc29nYm8gUmQsIDIzMzI4NSwgSWxlcmluLCBOaWdlcmlhIi4qLAoUChIJgdl00ZIYOBARmpH0UQOp4QsSFAoSCeWIsP0LIjgQEcUlPgsCIsj9"
    }
  },
  {
    "id": "350743",
    "name": "OPEN SPACE AGBOWORIN JUNCTION NEAR TELECOM MAST, ILESA",
    "registration_area_id": "17897",
    "precise_location": null,
    "abbreviation": "017",
    "units": "017",
    "delimitation": "29/19/05/017",
    "remark": "NEW PU",
    "ward_id": "17897",
    "ward_name": "ISOKUN",
    "local_government_id": "617",
    "local_government_name": "ILESA WEST",
    "state_id": "29",
    "state_name": "OSUN",
    "location": {
      "latitude": 7.660813899999999,
      "longitude": 4.7480005,
      "viewport": {
        "northeast": {
          "lat": 7.662163729892721,
          "lng": 4.749350329892722
        },
        "southwest": {
          "lat": 7.659464070107277,
          "lng": 4.746650670107278
        }
      },
      "formatted_address": "Agboworin St, 233285, Ilerin, Nigeria",
      "google_map_url": "https://maps.google.com?q=7.660813899999999,4.7480005",
      "google_place_id": "ChIJtVjc_rgYOBARV9NMlG6Ib-w"
    }
  },
  {
    "id": "350744",
    "name": "OPEN SPACE OPPOSITE AYETORO JUNCTION, SAW MILL ALFA, ILESA",
    "registration_area_id": "17897",
    "precise_location": null,
    "abbreviation": "018",
    "units": "018",
    "delimitation": "29/19/05/018",
    "remark": "NEW PU",
    "ward_id": "17897",
    "ward_name": "ISOKUN",
    "local_government_id": "617",
    "local_government_name": "ILESA WEST",
    "state_id": "29",
    "state_name": "OSUN",
    "location": {
      "latitude": 7.6571627,
      "longitude": 4.7465391,
      "viewport": {
        "northeast": {
          "lat": 7.65851252989272,
          "lng": 4.747888929892722
        },
        "southwest": {
          "lat": 7.655812870107276,
          "lng": 4.745189270107278
        }
      },
      "formatted_address": "Ayetoro St, 233285, Ilerin, Nigeria",
      "google_map_url": "https://maps.google.com?q=7.6571627,4.7465391",
      "google_place_id": "ChIJVcuxwrgYOBARwLUuxJRSwnY"
    }
  }
]