[
  {
    "id": "20036",
    "name": "BAZALI CENTRE,  BAZALI PRIMARY SCHOOL I",
    "registration_area_id": "1127",
    "precise_location": null,
    "abbreviation": "001",
    "units": "001",
    "delimitation": "05/06/08/001",
    "remark": "EXISTING PU",
    "ward_id": "1127",
    "ward_name": "POLCHI",
    "local_government_id": "96",
    "local_government_name": "DASS",
    "state_id": "5",
    "state_name": "BAUCHI",
    "location": {
      "latitude": 10.0925152,
      "longitude": 9.3950087,
      "viewport": {
        "northeast": {
          "lat": 10.09386387989272,
          "lng": 9.396203129892722
        },
        "southwest": {
          "lat": 10.09116422010728,
          "lng": 9.393503470107278
        }
      },
      "formatted_address": "39VW+222, 741109, Darrari, Nigeria",
      "google_map_url": "https://maps.google.com?q=10.0925152,9.3950087",
      "google_place_id": "ChIJT-PNqbyXVBAR8NBT8Jqv7qo"
    }
  },
  {
    "id": "20037",
    "name": "BAZALI CENTRE,  BAZALI PRIMARY SCHOOL II",
    "registration_area_id": "1127",
    "precise_location": null,
    "abbreviation": "002",
    "units": "002",
    "delimitation": "05/06/08/002",
    "remark": "EXISTING PU",
    "ward_id": "1127",
    "ward_name": "POLCHI",
    "local_government_id": "96",
    "local_government_name": "DASS",
    "state_id": "5",
    "state_name": "BAUCHI",
    "location": {
      "latitude": 10.0925152,
      "longitude": 9.3950087,
      "viewport": {
        "northeast": {
          "lat": 10.09386387989272,
          "lng": 9.396203129892722
        },
        "southwest": {
          "lat": 10.09116422010728,
          "lng": 9.393503470107278
        }
      },
      "formatted_address": "39VW+222, 741109, Darrari, Nigeria",
      "google_map_url": "https://maps.google.com?q=10.0925152,9.3950087",
      "google_place_id": "ChIJT-PNqbyXVBAR8NBT8Jqv7qo"
    }
  },
  {
    "id": "20038",
    "name": "DUMBA,  DUMBA PRIMARY SCHOOL",
    "registration_area_id": "1127",
    "precise_location": null,
    "abbreviation": "003",
    "units": "003",
    "delimitation": "05/06/08/003",
    "remark": "EXISTING PU",
    "ward_id": "1127",
    "ward_name": "POLCHI",
    "local_government_id": "96",
    "local_government_name": "DASS",
    "state_id": "5",
    "state_name": "BAUCHI",
    "location": {
      "latitude": 10.0617,
      "longitude": 9.456,
      "viewport": {
        "northeast": {
          "lat": 10.06299622989272,
          "lng": 9.45731107989272
        },
        "southwest": {
          "lat": 10.06029657010728,
          "lng": 9.454611420107277
        }
      },
      "formatted_address": "3F64+M9Q, 741109, Bauchi, Nigeria",
      "google_map_url": "https://maps.google.com?q=10.0617,9.456",
      "google_place_id": "ChIJvc2zHZ6WVBARCz_oU3jjOqY"
    }
  },
  {
    "id": "20039",
    "name": "DUTSEN KURA,   DUTSEN KURA PRIMARY SCHOOL",
    "registration_area_id": "1127",
    "precise_location": null,
    "abbreviation": "004",
    "units": "004",
    "delimitation": "05/06/08/004",
    "remark": "EXISTING PU",
    "ward_id": "1127",
    "ward_name": "POLCHI",
    "local_government_id": "96",
    "local_government_name": "DASS",
    "state_id": "5",
    "state_name": "BAUCHI",
    "location": {
      "latitude": 10.1286777,
      "longitude": 9.4136936,
      "viewport": {
        "northeast": {
          "lat": 10.13004402989272,
          "lng": 9.415045079892721
        },
        "southwest": {
          "lat": 10.12734437010728,
          "lng": 9.412345420107277
        }
      },
      "formatted_address": "Dutsen Kura Primary School, 741109, Nigeria",
      "google_map_url": "https://maps.google.com?q=10.1286777,9.4136936",
      "google_place_id": "ChIJFfPhvIG9VBARDBgkQXiLTT0"
    }
  },
  {
    "id": "20040",
    "name": "ZINMBAL,   BAZALI VIEWING CENTRE  I",
    "registration_area_id": "1127",
    "precise_location": null,
    "abbreviation": "005",
    "units": "005",
    "delimitation": "05/06/08/005",
    "remark": "EXISTING PU",
    "ward_id": "1127",
    "ward_name": "POLCHI",
    "local_government_id": "96",
    "local_government_name": "DASS",
    "state_id": "5",
    "state_name": "BAUCHI",
    "location": null
  },
  {
    "id": "20041",
    "name": "JALBANG CENTRE,  JALBANG DISPENSARY",
    "registration_area_id": "1127",
    "precise_location": null,
    "abbreviation": "006",
    "units": "006",
    "delimitation": "05/06/08/006",
    "remark": "EXISTING PU",
    "ward_id": "1127",
    "ward_name": "POLCHI",
    "local_government_id": "96",
    "local_government_name": "DASS",
    "state_id": "5",
    "state_name": "BAUCHI",
    "location": {
      "latitude": 10.1403009,
      "longitude": 9.435003,
      "viewport": {
        "northeast": {
          "lat": 10.14164542989272,
          "lng": 9.43625232989272
        },
        "southwest": {
          "lat": 10.13894577010728,
          "lng": 9.433552670107277
        }
      },
      "formatted_address": "4CRP+42C, 741109, Dass, Nigeria",
      "google_map_url": "https://maps.google.com?q=10.1403009,9.435003",
      "google_place_id": "ChIJN0v3o-y9VBAR2FHDvpVvcHI"
    }
  },
  {
    "id": "20042",
    "name": "BAZALI PRIMARY SCHOOL  II",
    "registration_area_id": "1127",
    "precise_location": null,
    "abbreviation": "007",
    "units": "007",
    "delimitation": "05/06/08/007",
    "remark": "NEW PU",
    "ward_id": "1127",
    "ward_name": "POLCHI",
    "local_government_id": "96",
    "local_government_name": "DASS",
    "state_id": "5",
    "state_name": "BAUCHI",
    "location": {
      "latitude": 10.0925152,
      "longitude": 9.3950087,
      "viewport": {
        "northeast": {
          "lat": 10.09386387989272,
          "lng": 9.396203129892722
        },
        "southwest": {
          "lat": 10.09116422010728,
          "lng": 9.393503470107278
        }
      },
      "formatted_address": "39VW+222, 741109, Darrari, Nigeria",
      "google_map_url": "https://maps.google.com?q=10.0925152,9.3950087",
      "google_place_id": "ChIJT-PNqbyXVBAR8NBT8Jqv7qo"
    }
  },
  {
    "id": "20043",
    "name": "DUMBA PRIMARY SCHOOL  II",
    "registration_area_id": "1127",
    "precise_location": null,
    "abbreviation": "008",
    "units": "008",
    "delimitation": "05/06/08/008",
    "remark": "NEW PU",
    "ward_id": "1127",
    "ward_name": "POLCHI",
    "local_government_id": "96",
    "local_government_name": "DASS",
    "state_id": "5",
    "state_name": "BAUCHI",
    "location": {
      "latitude": 10.1046567,
      "longitude": 9.4405442,
      "viewport": {
        "northeast": {
          "lat": 10.10579707989272,
          "lng": 9.441974979892722
        },
        "southwest": {
          "lat": 10.10309742010728,
          "lng": 9.439275320107278
        }
      },
      "formatted_address": "4C3R+V66, 741109, Dass, Nigeria",
      "google_map_url": "https://maps.google.com?q=10.1046567,9.4405442",
      "google_place_id": "ChIJf6DQnROWVBARuUwd5gVOMDA"
    }
  }
]