[
  {
    "id": "6813",
    "name": "GIRPARA/ KOFAR JAURO IBRAHIM",
    "registration_area_id": "344",
    "precise_location": null,
    "abbreviation": "001",
    "units": "001",
    "delimitation": "02/15/07/001",
    "remark": "EXISTING PU",
    "ward_id": "344",
    "ward_name": "MUJARA",
    "local_government_id": "32",
    "local_government_name": "MUBI SOUTH",
    "state_id": "2",
    "state_name": "ADAMAWA",
    "location": {
      "latitude": 10.2800641,
      "longitude": 13.2773629,
      "viewport": {
        "northeast": {
          "lat": 10.28136667989272,
          "lng": 13.27884482989272
        },
        "southwest": {
          "lat": 10.27866702010728,
          "lng": 13.27614517010728
        }
      },
      "formatted_address": "650101, Mubi, Nigeria",
      "google_map_url": "https://maps.google.com?q=10.2800641,13.2773629",
      "google_place_id": "ChIJoZhphjlZ_RARqkX4zzyNOLA"
    }
  },
  {
    "id": "6814",
    "name": "KICHIHA/ NEAR SAHUDA NEW MARKET",
    "registration_area_id": "344",
    "precise_location": null,
    "abbreviation": "002",
    "units": "002",
    "delimitation": "02/15/07/002",
    "remark": "EXISTING PU",
    "ward_id": "344",
    "ward_name": "MUJARA",
    "local_government_id": "32",
    "local_government_name": "MUBI SOUTH",
    "state_id": "2",
    "state_name": "ADAMAWA",
    "location": {
      "latitude": 10.2614089,
      "longitude": 13.2641982,
      "viewport": {
        "northeast": {
          "lat": 10.26280222989272,
          "lng": 13.26553077989272
        },
        "southwest": {
          "lat": 10.26010257010728,
          "lng": 13.26283112010728
        }
      },
      "formatted_address": "7767+HM8, 650211, Mubi, Nigeria",
      "google_map_url": "https://maps.google.com?q=10.2614089,13.2641982",
      "google_place_id": "ChIJfxTkuaxe_RAR-STaseI5Xgc"
    }
  },
  {
    "id": "6815",
    "name": "MADANYA/ MADANYA PRI. SCH.",
    "registration_area_id": "344",
    "precise_location": null,
    "abbreviation": "003",
    "units": "003",
    "delimitation": "02/15/07/003",
    "remark": "EXISTING PU",
    "ward_id": "344",
    "ward_name": "MUJARA",
    "local_government_id": "32",
    "local_government_name": "MUBI SOUTH",
    "state_id": "2",
    "state_name": "ADAMAWA",
    "location": {
      "latitude": 10.2711705,
      "longitude": 13.2833589,
      "viewport": {
        "northeast": {
          "lat": 10.27263277989272,
          "lng": 13.28480257989272
        },
        "southwest": {
          "lat": 10.26993312010728,
          "lng": 13.28210292010728
        }
      },
      "formatted_address": "77CM+F89, 650101, Mubi, Nigeria",
      "google_map_url": "https://maps.google.com?q=10.2711705,13.2833589",
      "google_place_id": "ChIJm6sXskZZ_RARnvPbhpUplM0"
    }
  },
  {
    "id": "6816",
    "name": "MBULMA/ MBULMA PRI. SCH.",
    "registration_area_id": "344",
    "precise_location": null,
    "abbreviation": "004",
    "units": "004",
    "delimitation": "02/15/07/004",
    "remark": "EXISTING PU",
    "ward_id": "344",
    "ward_name": "MUJARA",
    "local_government_id": "32",
    "local_government_name": "MUBI SOUTH",
    "state_id": "2",
    "state_name": "ADAMAWA",
    "location": {
      "latitude": 10.213949,
      "longitude": 13.3579166,
      "viewport": {
        "northeast": {
          "lat": 10.21529682989272,
          "lng": 13.35917717989272
        },
        "southwest": {
          "lat": 10.21259717010728,
          "lng": 13.35647752010728
        }
      },
      "formatted_address": "Mbulma Primary School, 650211, Nbulma, Nigeria",
      "google_map_url": "https://maps.google.com?q=10.213949,13.3579166",
      "google_place_id": "ChIJR8rKl3ha_RAR7uhJv2uJFbg"
    }
  },
  {
    "id": "6817",
    "name": "MUJARA/ KOFAR JAURO SA'ADU",
    "registration_area_id": "344",
    "precise_location": null,
    "abbreviation": "005",
    "units": "005",
    "delimitation": "02/15/07/005",
    "remark": "EXISTING PU",
    "ward_id": "344",
    "ward_name": "MUJARA",
    "local_government_id": "32",
    "local_government_name": "MUBI SOUTH",
    "state_id": "2",
    "state_name": "ADAMAWA",
    "location": {
      "latitude": 10.2174609,
      "longitude": 13.3702811,
      "viewport": {
        "northeast": {
          "lat": 10.2598971,
          "lng": 13.4409114
        },
        "southwest": {
          "lat": 10.1213401,
          "lng": 13.3000334
        }
      },
      "formatted_address": "Mujara, Nigeria",
      "google_map_url": "https://maps.google.com?q=10.2174609,13.3702811",
      "google_place_id": "ChIJUx4dA25Q_RARBeraKfbhzQs"
    }
  },
  {
    "id": "6818",
    "name": "NGOBA/ KOFAR JAURO NGOBA",
    "registration_area_id": "344",
    "precise_location": null,
    "abbreviation": "006",
    "units": "006",
    "delimitation": "02/15/07/006",
    "remark": "EXISTING PU",
    "ward_id": "344",
    "ward_name": "MUJARA",
    "local_government_id": "32",
    "local_government_name": "MUBI SOUTH",
    "state_id": "2",
    "state_name": "ADAMAWA",
    "location": {
      "latitude": 10.2174609,
      "longitude": 13.3702811,
      "viewport": {
        "northeast": {
          "lat": 10.2598971,
          "lng": 13.4409114
        },
        "southwest": {
          "lat": 10.1213401,
          "lng": 13.3000334
        }
      },
      "formatted_address": "Mujara, Nigeria",
      "google_map_url": "https://maps.google.com?q=10.2174609,13.3702811",
      "google_place_id": "ChIJUx4dA25Q_RARBeraKfbhzQs"
    }
  },
  {
    "id": "6819",
    "name": "PUKURWA/ KOFAR JAURO GALLE",
    "registration_area_id": "344",
    "precise_location": null,
    "abbreviation": "007",
    "units": "007",
    "delimitation": "02/15/07/007",
    "remark": "EXISTING PU",
    "ward_id": "344",
    "ward_name": "MUJARA",
    "local_government_id": "32",
    "local_government_name": "MUBI SOUTH",
    "state_id": "2",
    "state_name": "ADAMAWA",
    "location": {
      "latitude": 10.2174609,
      "longitude": 13.3702811,
      "viewport": {
        "northeast": {
          "lat": 10.2598971,
          "lng": 13.4409114
        },
        "southwest": {
          "lat": 10.1213401,
          "lng": 13.3000334
        }
      },
      "formatted_address": "Mujara, Nigeria",
      "google_map_url": "https://maps.google.com?q=10.2174609,13.3702811",
      "google_place_id": "ChIJUx4dA25Q_RARBeraKfbhzQs"
    }
  },
  {
    "id": "6820",
    "name": "SAHUDA/ SAHUDA PRI. SCH.",
    "registration_area_id": "344",
    "precise_location": null,
    "abbreviation": "008",
    "units": "008",
    "delimitation": "02/15/07/008",
    "remark": "EXISTING PU",
    "ward_id": "344",
    "ward_name": "MUJARA",
    "local_government_id": "32",
    "local_government_name": "MUBI SOUTH",
    "state_id": "2",
    "state_name": "ADAMAWA",
    "location": {
      "latitude": 10.1452647,
      "longitude": 13.4100009,
      "viewport": {
        "northeast": {
          "lat": 10.14717492989272,
          "lng": 13.41155327989272
        },
        "southwest": {
          "lat": 10.14447527010728,
          "lng": 13.40885362010728
        }
      },
      "formatted_address": "4CW6+422, 650211, Wafa, Cameroon",
      "google_map_url": "https://maps.google.com?q=10.1452647,13.4100009",
      "google_place_id": "ChIJB9-p-jNO_RAR8HGFuX405d4"
    }
  },
  {
    "id": "6821",
    "name": "SAHUDA SABON LAYI/ NEAR CUSTOM BARRACK",
    "registration_area_id": "344",
    "precise_location": null,
    "abbreviation": "009",
    "units": "009",
    "delimitation": "02/15/07/009",
    "remark": "EXISTING PU",
    "ward_id": "344",
    "ward_name": "MUJARA",
    "local_government_id": "32",
    "local_government_name": "MUBI SOUTH",
    "state_id": "2",
    "state_name": "ADAMAWA",
    "location": {
      "latitude": 10.2800641,
      "longitude": 13.2773629,
      "viewport": {
        "northeast": {
          "lat": 10.28136667989272,
          "lng": 13.27884482989272
        },
        "southwest": {
          "lat": 10.27866702010728,
          "lng": 13.27614517010728
        }
      },
      "formatted_address": "650101, Mubi, Nigeria",
      "google_map_url": "https://maps.google.com?q=10.2800641,13.2773629",
      "google_place_id": "ChIJoZhphjlZ_RARqkX4zzyNOLA"
    }
  },
  {
    "id": "6822",
    "name": "SHIMBI/ MUJARA DISPENSARY",
    "registration_area_id": "344",
    "precise_location": null,
    "abbreviation": "010",
    "units": "010",
    "delimitation": "02/15/07/010",
    "remark": "EXISTING PU",
    "ward_id": "344",
    "ward_name": "MUJARA",
    "local_government_id": "32",
    "local_government_name": "MUBI SOUTH",
    "state_id": "2",
    "state_name": "ADAMAWA",
    "location": {
      "latitude": 10.1702476,
      "longitude": 13.3720887,
      "viewport": {
        "northeast": {
          "lat": 10.17165567989272,
          "lng": 13.37355997989272
        },
        "southwest": {
          "lat": 10.16895602010728,
          "lng": 13.37086032010728
        }
      },
      "formatted_address": "59CC+3RW, 650211, Wafa, Nigeria",
      "google_map_url": "https://maps.google.com?q=10.1702476,13.3720887",
      "google_place_id": "ChIJ7XonGhtQ_RARHgqiEFNYees"
    }
  },
  {
    "id": "6823",
    "name": "TANTILA/ TANTILA PRI. SCH.",
    "registration_area_id": "344",
    "precise_location": null,
    "abbreviation": "011",
    "units": "011",
    "delimitation": "02/15/07/011",
    "remark": "EXISTING PU",
    "ward_id": "344",
    "ward_name": "MUJARA",
    "local_government_id": "32",
    "local_government_name": "MUBI SOUTH",
    "state_id": "2",
    "state_name": "ADAMAWA",
    "location": {
      "latitude": 10.2854217,
      "longitude": 13.2377497,
      "viewport": {
        "northeast": {
          "lat": 10.28685007989272,
          "lng": 13.23913057989272
        },
        "southwest": {
          "lat": 10.28415042010728,
          "lng": 13.23643092010728
        }
      },
      "formatted_address": "Dazala, 650272, Mubi, Nigeria",
      "google_map_url": "https://maps.google.com?q=10.2854217,13.2377497",
      "google_place_id": "ChIJV88V-T5f_RARCMb-mO8_hUE"
    }
  },
  {
    "id": "6824",
    "name": "TASKI/ KOFAR WODILI BUBA",
    "registration_area_id": "344",
    "precise_location": null,
    "abbreviation": "012",
    "units": "012",
    "delimitation": "02/15/07/012",
    "remark": "EXISTING PU",
    "ward_id": "344",
    "ward_name": "MUJARA",
    "local_government_id": "32",
    "local_government_name": "MUBI SOUTH",
    "state_id": "2",
    "state_name": "ADAMAWA",
    "location": {
      "latitude": 10.2800641,
      "longitude": 13.2773629,
      "viewport": {
        "northeast": {
          "lat": 10.28136667989272,
          "lng": 13.27884482989272
        },
        "southwest": {
          "lat": 10.27866702010728,
          "lng": 13.27614517010728
        }
      },
      "formatted_address": "650101, Mubi, Nigeria",
      "google_map_url": "https://maps.google.com?q=10.2800641,13.2773629",
      "google_place_id": "ChIJoZhphjlZ_RARqkX4zzyNOLA"
    }
  },
  {
    "id": "6825",
    "name": "YEWA FULANI/ YEWA PRI. SCH.",
    "registration_area_id": "344",
    "precise_location": null,
    "abbreviation": "013",
    "units": "013",
    "delimitation": "02/15/07/013",
    "remark": "EXISTING PU",
    "ward_id": "344",
    "ward_name": "MUJARA",
    "local_government_id": "32",
    "local_government_name": "MUBI SOUTH",
    "state_id": "2",
    "state_name": "ADAMAWA",
    "location": null
  },
  {
    "id": "6826",
    "name": "GIPALMA",
    "registration_area_id": "344",
    "precise_location": null,
    "abbreviation": "014",
    "units": "014",
    "delimitation": "02/15/07/014",
    "remark": "NEW PU",
    "ward_id": "344",
    "ward_name": "MUJARA",
    "local_government_id": "32",
    "local_government_name": "MUBI SOUTH",
    "state_id": "2",
    "state_name": "ADAMAWA",
    "location": {
      "latitude": 10.2174609,
      "longitude": 13.3702811,
      "viewport": {
        "northeast": {
          "lat": 10.2598971,
          "lng": 13.4409114
        },
        "southwest": {
          "lat": 10.1213401,
          "lng": 13.3000334
        }
      },
      "formatted_address": "Mujara, Nigeria",
      "google_map_url": "https://maps.google.com?q=10.2174609,13.3702811",
      "google_place_id": "ChIJUx4dA25Q_RARBeraKfbhzQs"
    }
  }
]