[
  {
    "id": "84086",
    "name": "BISKIN",
    "registration_area_id": "4358",
    "precise_location": null,
    "abbreviation": "001",
    "units": "001",
    "delimitation": "19/02/04/001",
    "remark": "EXISTING PU",
    "ward_id": "4358",
    "ward_name": "DAHO",
    "local_government_id": "371",
    "local_government_name": "ALBASU",
    "state_id": "19",
    "state_name": "KANO",
    "location": {
      "latitude": 11.6750056,
      "longitude": 9.1391359,
      "viewport": {
        "northeast": {
          "lat": 11.67621827989272,
          "lng": 9.140493379892721
        },
        "southwest": {
          "lat": 11.67351862010728,
          "lng": 9.137793720107277
        }
      },
      "formatted_address": "M4GQ+2M2, 712104, Kano, Nigeria",
      "google_map_url": "https://maps.google.com?q=11.6750056,9.1391359",
      "google_place_id": "ChIJI852swwJrBERV5j_myUy2qk"
    }
  },
  {
    "id": "84087",
    "name": "BURA",
    "registration_area_id": "4358",
    "precise_location": null,
    "abbreviation": "002",
    "units": "002",
    "delimitation": "19/02/04/002",
    "remark": "EXISTING PU",
    "ward_id": "4358",
    "ward_name": "DAHO",
    "local_government_id": "371",
    "local_government_name": "ALBASU",
    "state_id": "19",
    "state_name": "KANO",
    "location": {
      "latitude": 11.6714404,
      "longitude": 9.1346142,
      "viewport": {
        "northeast": {
          "lat": 11.67251907989272,
          "lng": 9.13606557989272
        },
        "southwest": {
          "lat": 11.66981942010728,
          "lng": 9.133365920107277
        }
      },
      "formatted_address": "M4CM+JR8, 712104, Albasu, Nigeria",
      "google_map_url": "https://maps.google.com?q=11.6714404,9.1346142",
      "google_place_id": "ChIJm_yeLecJrBER545xtKmJ7-A"
    }
  },
  {
    "id": "84088",
    "name": "BURUNGUI",
    "registration_area_id": "4358",
    "precise_location": null,
    "abbreviation": "003",
    "units": "003",
    "delimitation": "19/02/04/003",
    "remark": "EXISTING PU",
    "ward_id": "4358",
    "ward_name": "DAHO",
    "local_government_id": "371",
    "local_government_name": "ALBASU",
    "state_id": "19",
    "state_name": "KANO",
    "location": {
      "latitude": 11.6714404,
      "longitude": 9.1346142,
      "viewport": {
        "northeast": {
          "lat": 11.67251907989272,
          "lng": 9.13606557989272
        },
        "southwest": {
          "lat": 11.66981942010728,
          "lng": 9.133365920107277
        }
      },
      "formatted_address": "M4CM+JR8, 712104, Albasu, Nigeria",
      "google_map_url": "https://maps.google.com?q=11.6714404,9.1346142",
      "google_place_id": "ChIJm_yeLecJrBER545xtKmJ7-A"
    }
  },
  {
    "id": "84089",
    "name": "DAHO GARI I",
    "registration_area_id": "4358",
    "precise_location": null,
    "abbreviation": "004",
    "units": "004",
    "delimitation": "19/02/04/004",
    "remark": "EXISTING PU",
    "ward_id": "4358",
    "ward_name": "DAHO",
    "local_government_id": "371",
    "local_government_name": "ALBASU",
    "state_id": "19",
    "state_name": "KANO",
    "location": {
      "latitude": 11.6655687,
      "longitude": 9.2035051,
      "viewport": {
        "northeast": {
          "lat": 11.66688792989272,
          "lng": 9.204953529892721
        },
        "southwest": {
          "lat": 11.66418827010728,
          "lng": 9.202253870107278
        }
      },
      "formatted_address": "7F3FM683+6CC Kofar Yamma Daho Kano, Albasu, Nigeria",
      "google_map_url": "https://maps.google.com?q=11.6655687,9.2035051",
      "google_place_id": "ChIJn1vwr973qxERiHNIOIhg3GI"
    }
  },
  {
    "id": "84090",
    "name": "DAHO GARI II",
    "registration_area_id": "4358",
    "precise_location": null,
    "abbreviation": "005",
    "units": "005",
    "delimitation": "19/02/04/005",
    "remark": "EXISTING PU",
    "ward_id": "4358",
    "ward_name": "DAHO",
    "local_government_id": "371",
    "local_government_name": "ALBASU",
    "state_id": "19",
    "state_name": "KANO",
    "location": {
      "latitude": 11.6655687,
      "longitude": 9.2035051,
      "viewport": {
        "northeast": {
          "lat": 11.66688792989272,
          "lng": 9.204953529892721
        },
        "southwest": {
          "lat": 11.66418827010728,
          "lng": 9.202253870107278
        }
      },
      "formatted_address": "7F3FM683+6CC Kofar Yamma Daho Kano, Albasu, Nigeria",
      "google_map_url": "https://maps.google.com?q=11.6655687,9.2035051",
      "google_place_id": "ChIJn1vwr973qxERiHNIOIhg3GI"
    }
  },
  {
    "id": "84091",
    "name": "DAHO GARI III",
    "registration_area_id": "4358",
    "precise_location": null,
    "abbreviation": "006",
    "units": "006",
    "delimitation": "19/02/04/006",
    "remark": "EXISTING PU",
    "ward_id": "4358",
    "ward_name": "DAHO",
    "local_government_id": "371",
    "local_government_name": "ALBASU",
    "state_id": "19",
    "state_name": "KANO",
    "location": null
  },
  {
    "id": "84092",
    "name": "FARANTAMA",
    "registration_area_id": "4358",
    "precise_location": null,
    "abbreviation": "007",
    "units": "007",
    "delimitation": "19/02/04/007",
    "remark": "EXISTING PU",
    "ward_id": "4358",
    "ward_name": "DAHO",
    "local_government_id": "371",
    "local_government_name": "ALBASU",
    "state_id": "19",
    "state_name": "KANO",
    "location": {
      "latitude": 11.6712599,
      "longitude": 9.139202899999999,
      "viewport": {
        "northeast": {
          "lat": 11.67258982989272,
          "lng": 9.140242329892722
        },
        "southwest": {
          "lat": 11.66989017010728,
          "lng": 9.137542670107278
        }
      },
      "formatted_address": "M4CQ+GM4, 712104, Kano, Nigeria",
      "google_map_url": "https://maps.google.com?q=11.6712599,9.139202899999999",
      "google_place_id": "ChIJETaBkHMJrBERJUhURHu_uVs"
    }
  },
  {
    "id": "84093",
    "name": "GATARIN DAHO",
    "registration_area_id": "4358",
    "precise_location": null,
    "abbreviation": "008",
    "units": "008",
    "delimitation": "19/02/04/008",
    "remark": "EXISTING PU",
    "ward_id": "4358",
    "ward_name": "DAHO",
    "local_government_id": "371",
    "local_government_name": "ALBASU",
    "state_id": "19",
    "state_name": "KANO",
    "location": {
      "latitude": 11.7108228,
      "longitude": 9.186617199999999,
      "viewport": {
        "northeast": {
          "lat": 11.71221587989272,
          "lng": 9.18810342989272
        },
        "southwest": {
          "lat": 11.70951622010728,
          "lng": 9.185403770107277
        }
      },
      "formatted_address": "Gatarin Primary School, 712104, Nigeria",
      "google_map_url": "https://maps.google.com?q=11.7108228,9.186617199999999",
      "google_place_id": "ChIJMWxw5CYIrBERGkOzATTW9UI"
    }
  },
  {
    "id": "84094",
    "name": "GATARIN FARANTAMA",
    "registration_area_id": "4358",
    "precise_location": null,
    "abbreviation": "009",
    "units": "009",
    "delimitation": "19/02/04/009",
    "remark": "EXISTING PU",
    "ward_id": "4358",
    "ward_name": "DAHO",
    "local_government_id": "371",
    "local_government_name": "ALBASU",
    "state_id": "19",
    "state_name": "KANO",
    "location": null
  },
  {
    "id": "84095",
    "name": "JAHUNAWA/TAREFA",
    "registration_area_id": "4358",
    "precise_location": null,
    "abbreviation": "010",
    "units": "010",
    "delimitation": "19/02/04/010",
    "remark": "EXISTING PU",
    "ward_id": "4358",
    "ward_name": "DAHO",
    "local_government_id": "371",
    "local_government_name": "ALBASU",
    "state_id": "19",
    "state_name": "KANO",
    "location": {
      "latitude": 11.6714404,
      "longitude": 9.1346142,
      "viewport": {
        "northeast": {
          "lat": 11.67251907989272,
          "lng": 9.13606557989272
        },
        "southwest": {
          "lat": 11.66981942010728,
          "lng": 9.133365920107277
        }
      },
      "formatted_address": "M4CM+JR8, 712104, Albasu, Nigeria",
      "google_map_url": "https://maps.google.com?q=11.6714404,9.1346142",
      "google_place_id": "ChIJm_yeLecJrBER545xtKmJ7-A"
    }
  },
  {
    "id": "84096",
    "name": "JAHUNAWA JAUDARI",
    "registration_area_id": "4358",
    "precise_location": null,
    "abbreviation": "011",
    "units": "011",
    "delimitation": "19/02/04/011",
    "remark": "EXISTING PU",
    "ward_id": "4358",
    "ward_name": "DAHO",
    "local_government_id": "371",
    "local_government_name": "ALBASU",
    "state_id": "19",
    "state_name": "KANO",
    "location": {
      "latitude": 11.6714404,
      "longitude": 9.1346142,
      "viewport": {
        "northeast": {
          "lat": 11.67251907989272,
          "lng": 9.13606557989272
        },
        "southwest": {
          "lat": 11.66981942010728,
          "lng": 9.133365920107277
        }
      },
      "formatted_address": "M4CM+JR8, 712104, Albasu, Nigeria",
      "google_map_url": "https://maps.google.com?q=11.6714404,9.1346142",
      "google_place_id": "ChIJm_yeLecJrBER545xtKmJ7-A"
    }
  },
  {
    "id": "84097",
    "name": "JIBIRI",
    "registration_area_id": "4358",
    "precise_location": null,
    "abbreviation": "012",
    "units": "012",
    "delimitation": "19/02/04/012",
    "remark": "EXISTING PU",
    "ward_id": "4358",
    "ward_name": "DAHO",
    "local_government_id": "371",
    "local_government_name": "ALBASU",
    "state_id": "19",
    "state_name": "KANO",
    "location": {
      "latitude": 11.6714404,
      "longitude": 9.1346142,
      "viewport": {
        "northeast": {
          "lat": 11.67251907989272,
          "lng": 9.13606557989272
        },
        "southwest": {
          "lat": 11.66981942010728,
          "lng": 9.133365920107277
        }
      },
      "formatted_address": "M4CM+JR8, 712104, Albasu, Nigeria",
      "google_map_url": "https://maps.google.com?q=11.6714404,9.1346142",
      "google_place_id": "ChIJm_yeLecJrBER545xtKmJ7-A"
    }
  },
  {
    "id": "84098",
    "name": "UNG JEJI",
    "registration_area_id": "4358",
    "precise_location": null,
    "abbreviation": "013",
    "units": "013",
    "delimitation": "19/02/04/013",
    "remark": "EXISTING PU",
    "ward_id": "4358",
    "ward_name": "DAHO",
    "local_government_id": "371",
    "local_government_name": "ALBASU",
    "state_id": "19",
    "state_name": "KANO",
    "location": {
      "latitude": 11.6714404,
      "longitude": 9.1346142,
      "viewport": {
        "northeast": {
          "lat": 11.67251907989272,
          "lng": 9.13606557989272
        },
        "southwest": {
          "lat": 11.66981942010728,
          "lng": 9.133365920107277
        }
      },
      "formatted_address": "M4CM+JR8, 712104, Albasu, Nigeria",
      "google_map_url": "https://maps.google.com?q=11.6714404,9.1346142",
      "google_place_id": "ChIJm_yeLecJrBER545xtKmJ7-A"
    }
  },
  {
    "id": "84099",
    "name": "ZUWAN HAWA",
    "registration_area_id": "4358",
    "precise_location": null,
    "abbreviation": "014",
    "units": "014",
    "delimitation": "19/02/04/014",
    "remark": "EXISTING PU",
    "ward_id": "4358",
    "ward_name": "DAHO",
    "local_government_id": "371",
    "local_government_name": "ALBASU",
    "state_id": "19",
    "state_name": "KANO",
    "location": {
      "latitude": 11.7302811,
      "longitude": 9.2221,
      "viewport": {
        "northeast": {
          "lat": 11.7315909,
          "lng": 9.2246581
        },
        "southwest": {
          "lat": 11.728334,
          "lng": 9.21938
        }
      },
      "formatted_address": "712104, Zuwan Hawa, Nigeria",
      "google_map_url": "https://maps.google.com?q=11.7302811,9.2221",
      "google_place_id": "ChIJM0i2lI_3qxER62_JxmvhQAI"
    }
  },
  {
    "id": "84100",
    "name": "DAHO GARI IV",
    "registration_area_id": "4358",
    "precise_location": null,
    "abbreviation": "015",
    "units": "015",
    "delimitation": "19/02/04/015",
    "remark": "NEW PU",
    "ward_id": "4358",
    "ward_name": "DAHO",
    "local_government_id": "371",
    "local_government_name": "ALBASU",
    "state_id": "19",
    "state_name": "KANO",
    "location": {
      "latitude": 11.6657011,
      "longitude": 9.2039799,
      "viewport": {
        "northeast": {
          "lat": 11.66710682989272,
          "lng": 9.205258679892722
        },
        "southwest": {
          "lat": 11.66440717010728,
          "lng": 9.202559020107278
        }
      },
      "formatted_address": "7F3FM683+7HQ Kofar Yamma Daho Kano, Albasu, Nigeria",
      "google_map_url": "https://maps.google.com?q=11.6657011,9.2039799",
      "google_place_id": "ChIJY8AahI33qxERyc9gQ-rgS_Y"
    }
  },
  {
    "id": "84101",
    "name": "DAHO GARI V",
    "registration_area_id": "4358",
    "precise_location": null,
    "abbreviation": "016",
    "units": "016",
    "delimitation": "19/02/04/016",
    "remark": "NEW PU",
    "ward_id": "4358",
    "ward_name": "DAHO",
    "local_government_id": "371",
    "local_government_name": "ALBASU",
    "state_id": "19",
    "state_name": "KANO",
    "location": {
      "latitude": 11.6657011,
      "longitude": 9.2039799,
      "viewport": {
        "northeast": {
          "lat": 11.66710682989272,
          "lng": 9.205258679892722
        },
        "southwest": {
          "lat": 11.66440717010728,
          "lng": 9.202559020107278
        }
      },
      "formatted_address": "7F3FM683+7HQ Kofar Yamma Daho Kano, Albasu, Nigeria",
      "google_map_url": "https://maps.google.com?q=11.6657011,9.2039799",
      "google_place_id": "ChIJY8AahI33qxERyc9gQ-rgS_Y"
    }
  },
  {
    "id": "84102",
    "name": "DAHO GARI VI",
    "registration_area_id": "4358",
    "precise_location": null,
    "abbreviation": "017",
    "units": "017",
    "delimitation": "19/02/04/017",
    "remark": "NEW PU",
    "ward_id": "4358",
    "ward_name": "DAHO",
    "local_government_id": "371",
    "local_government_name": "ALBASU",
    "state_id": "19",
    "state_name": "KANO",
    "location": {
      "latitude": 11.6657011,
      "longitude": 9.2039799,
      "viewport": {
        "northeast": {
          "lat": 11.66710682989272,
          "lng": 9.205258679892722
        },
        "southwest": {
          "lat": 11.66440717010728,
          "lng": 9.202559020107278
        }
      },
      "formatted_address": "7F3FM683+7HQ Kofar Yamma Daho Kano, Albasu, Nigeria",
      "google_map_url": "https://maps.google.com?q=11.6657011,9.2039799",
      "google_place_id": "ChIJY8AahI33qxERyc9gQ-rgS_Y"
    }
  },
  {
    "id": "84103",
    "name": "FARAN TAMA II",
    "registration_area_id": "4358",
    "precise_location": null,
    "abbreviation": "018",
    "units": "018",
    "delimitation": "19/02/04/018",
    "remark": "NEW PU",
    "ward_id": "4358",
    "ward_name": "DAHO",
    "local_government_id": "371",
    "local_government_name": "ALBASU",
    "state_id": "19",
    "state_name": "KANO",
    "location": {
      "latitude": 11.6798238,
      "longitude": 9.2108847,
      "viewport": {
        "northeast": {
          "lat": 11.68119737989272,
          "lng": 9.212239379892722
        },
        "southwest": {
          "lat": 11.67849772010728,
          "lng": 9.209539720107278
        }
      },
      "formatted_address": "7F3FM6H6+W9R, Farantama, 712104, Kano, Nigeria",
      "google_map_url": "https://maps.google.com?q=11.6798238,9.2108847",
      "google_place_id": "ChIJc3r2kzj2qxERq1xFqDusXto"
    }
  }
]