[
  {
    "id": "85957",
    "name": "DANGWAYA D. VILLAGE",
    "registration_area_id": "4433",
    "precise_location": null,
    "abbreviation": "001",
    "units": "001",
    "delimitation": "19/09/02/001",
    "remark": "EXISTING PU",
    "ward_id": "4433",
    "ward_name": "DANBAGIWA",
    "local_government_id": "378",
    "local_government_name": "DAWAKI KUDU",
    "state_id": "19",
    "state_name": "KANO",
    "location": {
      "latitude": 11.8385058,
      "longitude": 8.5823274,
      "viewport": {
        "northeast": {
          "lat": 11.83986707989272,
          "lng": 8.583625379892723
        },
        "southwest": {
          "lat": 11.83716742010728,
          "lng": 8.58092572010728
        }
      },
      "formatted_address": "RHQJ+9VR, 713104, Dawakin Kudu, Nigeria",
      "google_map_url": "https://maps.google.com?q=11.8385058,8.5823274",
      "google_place_id": "ChIJuwflva8urBERDiznN78l5WU"
    }
  },
  {
    "id": "85958",
    "name": "DANIDRIS, PRI. SCH.",
    "registration_area_id": "4433",
    "precise_location": null,
    "abbreviation": "002",
    "units": "002",
    "delimitation": "19/09/02/002",
    "remark": "EXISTING PU",
    "ward_id": "4433",
    "ward_name": "DANBAGIWA",
    "local_government_id": "378",
    "local_government_name": "DAWAKI KUDU",
    "state_id": "19",
    "state_name": "KANO",
    "location": {
      "latitude": 11.8357918,
      "longitude": 8.5963573,
      "viewport": {
        "northeast": {
          "lat": 11.83713197989272,
          "lng": 8.59765647989272
        },
        "southwest": {
          "lat": 11.83443232010728,
          "lng": 8.594956820107276
        }
      },
      "formatted_address": "RHPW+8G7, Kano-Garko Road, 713104, Dawakin Kudu, Nigeria",
      "google_map_url": "https://maps.google.com?q=11.8357918,8.5963573",
      "google_place_id": "ChIJ6yhdgUQvrBERPvi9jRdhxNk"
    }
  },
  {
    "id": "85959",
    "name": "DUKAWA, PRI. SCH. I",
    "registration_area_id": "4433",
    "precise_location": null,
    "abbreviation": "003",
    "units": "003",
    "delimitation": "19/09/02/003",
    "remark": "EXISTING PU",
    "ward_id": "4433",
    "ward_name": "DANBAGIWA",
    "local_government_id": "378",
    "local_government_name": "DAWAKI KUDU",
    "state_id": "19",
    "state_name": "KANO",
    "location": {
      "latitude": 11.8357918,
      "longitude": 8.5963573,
      "viewport": {
        "northeast": {
          "lat": 11.83713197989272,
          "lng": 8.59765647989272
        },
        "southwest": {
          "lat": 11.83443232010728,
          "lng": 8.594956820107276
        }
      },
      "formatted_address": "RHPW+8G7, Kano-Garko Road, 713104, Dawakin Kudu, Nigeria",
      "google_map_url": "https://maps.google.com?q=11.8357918,8.5963573",
      "google_place_id": "ChIJ6yhdgUQvrBERPvi9jRdhxNk"
    }
  },
  {
    "id": "85960",
    "name": "DUKAWA, PRI. SCH. II",
    "registration_area_id": "4433",
    "precise_location": null,
    "abbreviation": "004",
    "units": "004",
    "delimitation": "19/09/02/004",
    "remark": "EXISTING PU",
    "ward_id": "4433",
    "ward_name": "DANBAGIWA",
    "local_government_id": "378",
    "local_government_name": "DAWAKI KUDU",
    "state_id": "19",
    "state_name": "KANO",
    "location": {
      "latitude": 11.8357918,
      "longitude": 8.5963573,
      "viewport": {
        "northeast": {
          "lat": 11.83713197989272,
          "lng": 8.59765647989272
        },
        "southwest": {
          "lat": 11.83443232010728,
          "lng": 8.594956820107276
        }
      },
      "formatted_address": "RHPW+8G7, Kano-Garko Road, 713104, Dawakin Kudu, Nigeria",
      "google_map_url": "https://maps.google.com?q=11.8357918,8.5963573",
      "google_place_id": "ChIJ6yhdgUQvrBERPvi9jRdhxNk"
    }
  },
  {
    "id": "85961",
    "name": "GINDIN, RIMI",
    "registration_area_id": "4433",
    "precise_location": null,
    "abbreviation": "005",
    "units": "005",
    "delimitation": "19/09/02/005",
    "remark": "EXISTING PU",
    "ward_id": "4433",
    "ward_name": "DANBAGIWA",
    "local_government_id": "378",
    "local_government_name": "DAWAKI KUDU",
    "state_id": "19",
    "state_name": "KANO",
    "location": {
      "latitude": 11.9192024,
      "longitude": 8.555107699999999,
      "viewport": {
        "northeast": {
          "lat": 11.92056237989272,
          "lng": 8.556594579892721
        },
        "southwest": {
          "lat": 11.91786272010728,
          "lng": 8.553894920107277
        }
      },
      "formatted_address": "WH94+M2Q, Unnamed Road, Nayibawa 700231, Kano, Nigeria",
      "google_map_url": "https://maps.google.com?q=11.9192024,8.555107699999999",
      "google_place_id": "ChIJm6cqcygrrBERxMVA6DU_5mM"
    }
  },
  {
    "id": "85962",
    "name": "GUJIYAR, RUWA I",
    "registration_area_id": "4433",
    "precise_location": null,
    "abbreviation": "006",
    "units": "006",
    "delimitation": "19/09/02/006",
    "remark": "EXISTING PU",
    "ward_id": "4433",
    "ward_name": "DANBAGIWA",
    "local_government_id": "378",
    "local_government_name": "DAWAKI KUDU",
    "state_id": "19",
    "state_name": "KANO",
    "location": {
      "latitude": 11.8382682,
      "longitude": 8.5931009,
      "viewport": {
        "northeast": {
          "lat": 11.83950877989272,
          "lng": 8.594454329892722
        },
        "southwest": {
          "lat": 11.83680912010728,
          "lng": 8.591754670107278
        }
      },
      "formatted_address": "RHQV+86H, 713104, Dawakin Kudu, Nigeria",
      "google_map_url": "https://maps.google.com?q=11.8382682,8.5931009",
      "google_place_id": "ChIJZbIcLQ8vrBERsjnoys1d1B8"
    }
  },
  {
    "id": "85963",
    "name": "GUJIYAR, RUWA II",
    "registration_area_id": "4433",
    "precise_location": null,
    "abbreviation": "007",
    "units": "007",
    "delimitation": "19/09/02/007",
    "remark": "EXISTING PU",
    "ward_id": "4433",
    "ward_name": "DANBAGIWA",
    "local_government_id": "378",
    "local_government_name": "DAWAKI KUDU",
    "state_id": "19",
    "state_name": "KANO",
    "location": {
      "latitude": 11.8382682,
      "longitude": 8.5931009,
      "viewport": {
        "northeast": {
          "lat": 11.83950877989272,
          "lng": 8.594454329892722
        },
        "southwest": {
          "lat": 11.83680912010728,
          "lng": 8.591754670107278
        }
      },
      "formatted_address": "RHQV+86H, 713104, Dawakin Kudu, Nigeria",
      "google_map_url": "https://maps.google.com?q=11.8382682,8.5931009",
      "google_place_id": "ChIJZbIcLQ8vrBERsjnoys1d1B8"
    }
  },
  {
    "id": "85964",
    "name": "JIGAWA, ADO VILLAGE",
    "registration_area_id": "4433",
    "precise_location": null,
    "abbreviation": "008",
    "units": "008",
    "delimitation": "19/09/02/008",
    "remark": "EXISTING PU",
    "ward_id": "4433",
    "ward_name": "DANBAGIWA",
    "local_government_id": "378",
    "local_government_name": "DAWAKI KUDU",
    "state_id": "19",
    "state_name": "KANO",
    "location": {
      "latitude": 11.8396579,
      "longitude": 8.5933973,
      "viewport": {
        "northeast": {
          "lat": 11.84096612989272,
          "lng": 8.594490229892724
        },
        "southwest": {
          "lat": 11.83826647010728,
          "lng": 8.59179057010728
        }
      },
      "formatted_address": "RHQV+V96, 713104, Dawakin Kudu, Nigeria",
      "google_map_url": "https://maps.google.com?q=11.8396579,8.5933973",
      "google_place_id": "ChIJ1aYd5rcurBERceB1NN0p3nU"
    }
  },
  {
    "id": "85965",
    "name": "LUNA YANBUKAR I",
    "registration_area_id": "4433",
    "precise_location": null,
    "abbreviation": "009",
    "units": "009",
    "delimitation": "19/09/02/009",
    "remark": "EXISTING PU",
    "ward_id": "4433",
    "ward_name": "DANBAGIWA",
    "local_government_id": "378",
    "local_government_name": "DAWAKI KUDU",
    "state_id": "19",
    "state_name": "KANO",
    "location": {
      "latitude": 11.8382682,
      "longitude": 8.5931009,
      "viewport": {
        "northeast": {
          "lat": 11.83950877989272,
          "lng": 8.594454329892722
        },
        "southwest": {
          "lat": 11.83680912010728,
          "lng": 8.591754670107278
        }
      },
      "formatted_address": "RHQV+86H, 713104, Dawakin Kudu, Nigeria",
      "google_map_url": "https://maps.google.com?q=11.8382682,8.5931009",
      "google_place_id": "ChIJZbIcLQ8vrBERsjnoys1d1B8"
    }
  },
  {
    "id": "85966",
    "name": "LUNA YANBUKAR II",
    "registration_area_id": "4433",
    "precise_location": null,
    "abbreviation": "010",
    "units": "010",
    "delimitation": "19/09/02/010",
    "remark": "EXISTING PU",
    "ward_id": "4433",
    "ward_name": "DANBAGIWA",
    "local_government_id": "378",
    "local_government_name": "DAWAKI KUDU",
    "state_id": "19",
    "state_name": "KANO",
    "location": {
      "latitude": 11.8357918,
      "longitude": 8.5963573,
      "viewport": {
        "northeast": {
          "lat": 11.83713197989272,
          "lng": 8.59765647989272
        },
        "southwest": {
          "lat": 11.83443232010728,
          "lng": 8.594956820107276
        }
      },
      "formatted_address": "RHPW+8G7, Kano-Garko Road, 713104, Dawakin Kudu, Nigeria",
      "google_map_url": "https://maps.google.com?q=11.8357918,8.5963573",
      "google_place_id": "ChIJ6yhdgUQvrBERPvi9jRdhxNk"
    }
  },
  {
    "id": "85967",
    "name": "POLICE ACADEMY",
    "registration_area_id": "4433",
    "precise_location": null,
    "abbreviation": "011",
    "units": "011",
    "delimitation": "19/09/02/011",
    "remark": "EXISTING PU",
    "ward_id": "4433",
    "ward_name": "DANBAGIWA",
    "local_government_id": "378",
    "local_government_name": "DAWAKI KUDU",
    "state_id": "19",
    "state_name": "KANO",
    "location": {
      "latitude": 11.7574188,
      "longitude": 8.6600586,
      "viewport": {
        "northeast": {
          "lat": 11.75842897989272,
          "lng": 8.661735029892721
        },
        "southwest": {
          "lat": 11.75572932010728,
          "lng": 8.659035370107278
        }
      },
      "formatted_address": "QM46+X27, 713104, Kano, Nigeria",
      "google_map_url": "https://maps.google.com?q=11.7574188,8.6600586",
      "google_place_id": "ChIJq6qqqqo6rBERr8gX8LJpxuU"
    }
  },
  {
    "id": "85968",
    "name": "S. GARINKU",
    "registration_area_id": "4433",
    "precise_location": null,
    "abbreviation": "012",
    "units": "012",
    "delimitation": "19/09/02/012",
    "remark": "EXISTING PU",
    "ward_id": "4433",
    "ward_name": "DANBAGIWA",
    "local_government_id": "378",
    "local_government_name": "DAWAKI KUDU",
    "state_id": "19",
    "state_name": "KANO",
    "location": {
      "latitude": 11.8421012,
      "longitude": 8.5941153,
      "viewport": {
        "northeast": {
          "lat": 11.84351247989272,
          "lng": 8.595731679892722
        },
        "southwest": {
          "lat": 11.84081282010728,
          "lng": 8.593032020107279
        }
      },
      "formatted_address": "RHRV+RJX, Kano-Garko Road, 713104, Dawakin Kudu, Nigeria",
      "google_map_url": "https://maps.google.com?q=11.8421012,8.5941153",
      "google_place_id": "ChIJB3BsMscvrBEReEA5Sp-4TtU"
    }
  },
  {
    "id": "85969",
    "name": "UNGUWAR GARA I",
    "registration_area_id": "4433",
    "precise_location": null,
    "abbreviation": "013",
    "units": "013",
    "delimitation": "19/09/02/013",
    "remark": "EXISTING PU",
    "ward_id": "4433",
    "ward_name": "DANBAGIWA",
    "local_government_id": "378",
    "local_government_name": "DAWAKI KUDU",
    "state_id": "19",
    "state_name": "KANO",
    "location": {
      "latitude": 11.8385058,
      "longitude": 8.5823274,
      "viewport": {
        "northeast": {
          "lat": 11.83986707989272,
          "lng": 8.583625379892723
        },
        "southwest": {
          "lat": 11.83716742010728,
          "lng": 8.58092572010728
        }
      },
      "formatted_address": "RHQJ+9VR, 713104, Dawakin Kudu, Nigeria",
      "google_map_url": "https://maps.google.com?q=11.8385058,8.5823274",
      "google_place_id": "ChIJuwflva8urBERDiznN78l5WU"
    }
  },
  {
    "id": "85970",
    "name": "UNGUWAR GARA II",
    "registration_area_id": "4433",
    "precise_location": null,
    "abbreviation": "014",
    "units": "014",
    "delimitation": "19/09/02/014",
    "remark": "EXISTING PU",
    "ward_id": "4433",
    "ward_name": "DANBAGIWA",
    "local_government_id": "378",
    "local_government_name": "DAWAKI KUDU",
    "state_id": "19",
    "state_name": "KANO",
    "location": null
  },
  {
    "id": "85971",
    "name": "DANBAGINA DAN IDRIS PRI. SCH. II",
    "registration_area_id": "4433",
    "precise_location": null,
    "abbreviation": "015",
    "units": "015",
    "delimitation": "19/09/02/015",
    "remark": "NEW PU",
    "ward_id": "4433",
    "ward_name": "DANBAGIWA",
    "local_government_id": "378",
    "local_government_name": "DAWAKI KUDU",
    "state_id": "19",
    "state_name": "KANO",
    "location": {
      "latitude": 11.8385058,
      "longitude": 8.5823274,
      "viewport": {
        "northeast": {
          "lat": 11.83986707989272,
          "lng": 8.583625379892723
        },
        "southwest": {
          "lat": 11.83716742010728,
          "lng": 8.58092572010728
        }
      },
      "formatted_address": "RHQJ+9VR, 713104, Dawakin Kudu, Nigeria",
      "google_map_url": "https://maps.google.com?q=11.8385058,8.5823274",
      "google_place_id": "ChIJuwflva8urBERDiznN78l5WU"
    }
  },
  {
    "id": "85972",
    "name": "DANBAGINA PRI. SCH. I",
    "registration_area_id": "4433",
    "precise_location": null,
    "abbreviation": "016",
    "units": "016",
    "delimitation": "19/09/02/016",
    "remark": "NEW PU",
    "ward_id": "4433",
    "ward_name": "DANBAGIWA",
    "local_government_id": "378",
    "local_government_name": "DAWAKI KUDU",
    "state_id": "19",
    "state_name": "KANO",
    "location": {
      "latitude": 11.8357918,
      "longitude": 8.5963573,
      "viewport": {
        "northeast": {
          "lat": 11.83713197989272,
          "lng": 8.59765647989272
        },
        "southwest": {
          "lat": 11.83443232010728,
          "lng": 8.594956820107276
        }
      },
      "formatted_address": "RHPW+8G7, Kano-Garko Road, 713104, Dawakin Kudu, Nigeria",
      "google_map_url": "https://maps.google.com?q=11.8357918,8.5963573",
      "google_place_id": "ChIJ6yhdgUQvrBERPvi9jRdhxNk"
    }
  },
  {
    "id": "85973",
    "name": "DANBAGINA PRI. SCH. II",
    "registration_area_id": "4433",
    "precise_location": null,
    "abbreviation": "017",
    "units": "017",
    "delimitation": "19/09/02/017",
    "remark": "NEW PU",
    "ward_id": "4433",
    "ward_name": "DANBAGIWA",
    "local_government_id": "378",
    "local_government_name": "DAWAKI KUDU",
    "state_id": "19",
    "state_name": "KANO",
    "location": {
      "latitude": 11.8357918,
      "longitude": 8.5963573,
      "viewport": {
        "northeast": {
          "lat": 11.83713197989272,
          "lng": 8.59765647989272
        },
        "southwest": {
          "lat": 11.83443232010728,
          "lng": 8.594956820107276
        }
      },
      "formatted_address": "RHPW+8G7, Kano-Garko Road, 713104, Dawakin Kudu, Nigeria",
      "google_map_url": "https://maps.google.com?q=11.8357918,8.5963573",
      "google_place_id": "ChIJ6yhdgUQvrBERPvi9jRdhxNk"
    }
  }
]