[
  {
    "id": "67085",
    "name": "BATALI PRI. SCH. BATALI",
    "registration_area_id": "3668",
    "precise_location": null,
    "abbreviation": "001",
    "units": "001",
    "delimitation": "17/02/02/001",
    "remark": "EXISTING PU",
    "ward_id": "3668",
    "ward_name": "BATALI",
    "local_government_id": "321",
    "local_government_name": "BABURA",
    "state_id": "17",
    "state_name": "JIGAWA",
    "location": {
      "latitude": 12.6268386,
      "longitude": 8.7591311,
      "viewport": {
        "northeast": {
          "lat": 12.682717,
          "lng": 8.8331036
        },
        "southwest": {
          "lat": 12.5613727,
          "lng": 8.691922
        }
      },
      "formatted_address": "Batali, 732104, Nigeria",
      "google_map_url": "https://maps.google.com?q=12.6268386,8.7591311",
      "google_place_id": "ChIJNUcRmpvhrhERUxWDVUqdiYs"
    }
  },
  {
    "id": "67086",
    "name": "GANGARA/GANGARA HANWARE",
    "registration_area_id": "3668",
    "precise_location": null,
    "abbreviation": "002",
    "units": "002",
    "delimitation": "17/02/02/002",
    "remark": "EXISTING PU",
    "ward_id": "3668",
    "ward_name": "BATALI",
    "local_government_id": "321",
    "local_government_name": "BABURA",
    "state_id": "17",
    "state_name": "JIGAWA",
    "location": {
      "latitude": 12.7648837,
      "longitude": 9.0098434,
      "viewport": {
        "northeast": {
          "lat": 12.76626877989272,
          "lng": 9.011570379892722
        },
        "southwest": {
          "lat": 12.76356912010728,
          "lng": 9.008870720107279
        }
      },
      "formatted_address": "732104, Babura, Nigeria",
      "google_map_url": "https://maps.google.com?q=12.7648837,9.0098434",
      "google_place_id": "ChIJP3Zq5_QlrxERgCs1dMJyWh4"
    }
  },
  {
    "id": "67087",
    "name": "HAMMADI/HAMMADI",
    "registration_area_id": "3668",
    "precise_location": null,
    "abbreviation": "003",
    "units": "003",
    "delimitation": "17/02/02/003",
    "remark": "EXISTING PU",
    "ward_id": "3668",
    "ward_name": "BATALI",
    "local_government_id": "321",
    "local_government_name": "BABURA",
    "state_id": "17",
    "state_name": "JIGAWA",
    "location": {
      "latitude": 12.622421,
      "longitude": 8.731254,
      "viewport": {
        "northeast": {
          "lat": 12.62363482989272,
          "lng": 8.732713
        },
        "southwest": {
          "lat": 12.62093517010728,
          "lng": 8.729657999999999
        }
      },
      "formatted_address": "732104, Hammadi, Nigeria",
      "google_map_url": "https://maps.google.com?q=12.622421,8.731254",
      "google_place_id": "ChIJfxZyqTbirhERZUP8o_MzvVg"
    }
  },
  {
    "id": "67088",
    "name": "JAMMUTUM PRI. SCH. JAMMUTUM",
    "registration_area_id": "3668",
    "precise_location": null,
    "abbreviation": "004",
    "units": "004",
    "delimitation": "17/02/02/004",
    "remark": "EXISTING PU",
    "ward_id": "3668",
    "ward_name": "BATALI",
    "local_government_id": "321",
    "local_government_name": "BABURA",
    "state_id": "17",
    "state_name": "JIGAWA",
    "location": {
      "latitude": 12.7645262,
      "longitude": 9.013846,
      "viewport": {
        "northeast": {
          "lat": 12.76580987989272,
          "lng": 9.015023229892721
        },
        "southwest": {
          "lat": 12.76311022010728,
          "lng": 9.012323570107277
        }
      },
      "formatted_address": "Q277+RG9, 732104, Jigawa, Nigeria",
      "google_map_url": "https://maps.google.com?q=12.7645262,9.013846",
      "google_place_id": "ChIJQWLqk18vrxEREBgaeVH7zKY"
    }
  },
  {
    "id": "67089",
    "name": "KANDI PRI. SCH./ KANDI",
    "registration_area_id": "3668",
    "precise_location": null,
    "abbreviation": "005",
    "units": "005",
    "delimitation": "17/02/02/005",
    "remark": "EXISTING PU",
    "ward_id": "3668",
    "ward_name": "BATALI",
    "local_government_id": "321",
    "local_government_name": "BABURA",
    "state_id": "17",
    "state_name": "JIGAWA",
    "location": {
      "latitude": 12.7826637,
      "longitude": 9.0102415,
      "viewport": {
        "northeast": {
          "lat": 12.78390467989272,
          "lng": 9.0110527
        },
        "southwest": {
          "lat": 12.78120502010728,
          "lng": 9.007807899999998
        }
      },
      "formatted_address": "Q2M6+339, 732104, Jigawa, Nigeria",
      "google_map_url": "https://maps.google.com?q=12.7826637,9.0102415",
      "google_place_id": "ChIJ85bEJ4clrxERSbG5x-NTYDA"
    }
  },
  {
    "id": "67090",
    "name": "KURTA FULANI/KURTA KANAWA",
    "registration_area_id": "3668",
    "precise_location": null,
    "abbreviation": "006",
    "units": "006",
    "delimitation": "17/02/02/006",
    "remark": "EXISTING PU",
    "ward_id": "3668",
    "ward_name": "BATALI",
    "local_government_id": "321",
    "local_government_name": "BABURA",
    "state_id": "17",
    "state_name": "JIGAWA",
    "location": null
  },
  {
    "id": "67091",
    "name": "MALAMAWA PRI. SCH. MALAMAWA",
    "registration_area_id": "3668",
    "precise_location": null,
    "abbreviation": "007",
    "units": "007",
    "delimitation": "17/02/02/007",
    "remark": "EXISTING PU",
    "ward_id": "3668",
    "ward_name": "BATALI",
    "local_government_id": "321",
    "local_government_name": "BABURA",
    "state_id": "17",
    "state_name": "JIGAWA",
    "location": {
      "latitude": 12.2428477,
      "longitude": 8.8369878,
      "viewport": {
        "northeast": {
          "lat": 12.24420902989272,
          "lng": 8.838380579892723
        },
        "southwest": {
          "lat": 12.24150937010728,
          "lng": 8.83568092010728
        }
      },
      "formatted_address": "7F4C6RVP+4QM malamawa malamawa, Gidan Danga, Nigeria",
      "google_map_url": "https://maps.google.com?q=12.2428477,8.8369878",
      "google_place_id": "ChIJZ6vdEXK_rhER7Y0uWZGc6D4"
    }
  },
  {
    "id": "67092",
    "name": "RIJIYAR DANZANGO/MIDIRIN TINBAU",
    "registration_area_id": "3668",
    "precise_location": null,
    "abbreviation": "008",
    "units": "008",
    "delimitation": "17/02/02/008",
    "remark": "EXISTING PU",
    "ward_id": "3668",
    "ward_name": "BATALI",
    "local_government_id": "321",
    "local_government_name": "BABURA",
    "state_id": "17",
    "state_name": "JIGAWA",
    "location": null
  },
  {
    "id": "67093",
    "name": "TASAWA/TASAWAR KANDI",
    "registration_area_id": "3668",
    "precise_location": null,
    "abbreviation": "009",
    "units": "009",
    "delimitation": "17/02/02/009",
    "remark": "EXISTING PU",
    "ward_id": "3668",
    "ward_name": "BATALI",
    "local_government_id": "321",
    "local_government_name": "BABURA",
    "state_id": "17",
    "state_name": "JIGAWA",
    "location": {
      "latitude": 12.7648837,
      "longitude": 9.0098434,
      "viewport": {
        "northeast": {
          "lat": 12.76626877989272,
          "lng": 9.011570379892722
        },
        "southwest": {
          "lat": 12.76356912010728,
          "lng": 9.008870720107279
        }
      },
      "formatted_address": "732104, Babura, Nigeria",
      "google_map_url": "https://maps.google.com?q=12.7648837,9.0098434",
      "google_place_id": "ChIJP3Zq5_QlrxERgCs1dMJyWh4"
    }
  },
  {
    "id": "67094",
    "name": "UNGUWAR GANJI/UNGUWAR GANJI",
    "registration_area_id": "3668",
    "precise_location": null,
    "abbreviation": "010",
    "units": "010",
    "delimitation": "17/02/02/010",
    "remark": "EXISTING PU",
    "ward_id": "3668",
    "ward_name": "BATALI",
    "local_government_id": "321",
    "local_government_name": "BABURA",
    "state_id": "17",
    "state_name": "JIGAWA",
    "location": {
      "latitude": 12.7648837,
      "longitude": 9.0098434,
      "viewport": {
        "northeast": {
          "lat": 12.76626877989272,
          "lng": 9.011570379892722
        },
        "southwest": {
          "lat": 12.76356912010728,
          "lng": 9.008870720107279
        }
      },
      "formatted_address": "732104, Babura, Nigeria",
      "google_map_url": "https://maps.google.com?q=12.7648837,9.0098434",
      "google_place_id": "ChIJP3Zq5_QlrxERgCs1dMJyWh4"
    }
  },
  {
    "id": "67095",
    "name": "YARKIRYA PRI. SCH. YARKIRYA",
    "registration_area_id": "3668",
    "precise_location": null,
    "abbreviation": "011",
    "units": "011",
    "delimitation": "17/02/02/011",
    "remark": "EXISTING PU",
    "ward_id": "3668",
    "ward_name": "BATALI",
    "local_government_id": "321",
    "local_government_name": "BABURA",
    "state_id": "17",
    "state_name": "JIGAWA",
    "location": {
      "latitude": 12.7826637,
      "longitude": 9.0102415,
      "viewport": {
        "northeast": {
          "lat": 12.78390467989272,
          "lng": 9.0110527
        },
        "southwest": {
          "lat": 12.78120502010728,
          "lng": 9.007807899999998
        }
      },
      "formatted_address": "Q2M6+339, 732104, Jigawa, Nigeria",
      "google_map_url": "https://maps.google.com?q=12.7826637,9.0102415",
      "google_place_id": "ChIJ85bEJ4clrxERSbG5x-NTYDA"
    }
  },
  {
    "id": "67096",
    "name": "MAISHEKA/ZUNTU",
    "registration_area_id": "3668",
    "precise_location": null,
    "abbreviation": "012",
    "units": "012",
    "delimitation": "17/02/02/012",
    "remark": "EXISTING PU",
    "ward_id": "3668",
    "ward_name": "BATALI",
    "local_government_id": "321",
    "local_government_name": "BABURA",
    "state_id": "17",
    "state_name": "JIGAWA",
    "location": null
  },
  {
    "id": "67097",
    "name": "BATALI PRI. SCH. II",
    "registration_area_id": "3668",
    "precise_location": null,
    "abbreviation": "013",
    "units": "013",
    "delimitation": "17/02/02/013",
    "remark": "NEW PU",
    "ward_id": "3668",
    "ward_name": "BATALI",
    "local_government_id": "321",
    "local_government_name": "BABURA",
    "state_id": "17",
    "state_name": "JIGAWA",
    "location": {
      "latitude": 12.7799976,
      "longitude": 9.0163303,
      "viewport": {
        "northeast": {
          "lat": 12.78153107989272,
          "lng": 9.017397579892721
        },
        "southwest": {
          "lat": 12.77883142010728,
          "lng": 9.014697920107277
        }
      },
      "formatted_address": "Q2H8+XGW, 732104, Jigawa, Nigeria",
      "google_map_url": "https://maps.google.com?q=12.7799976,9.0163303",
      "google_place_id": "ChIJ0cT--XwvrxERu0VWbJYejdc"
    }
  },
  {
    "id": "67098",
    "name": "GANGARA HANWARE II",
    "registration_area_id": "3668",
    "precise_location": null,
    "abbreviation": "014",
    "units": "014",
    "delimitation": "17/02/02/014",
    "remark": "NEW PU",
    "ward_id": "3668",
    "ward_name": "BATALI",
    "local_government_id": "321",
    "local_government_name": "BABURA",
    "state_id": "17",
    "state_name": "JIGAWA",
    "location": {
      "latitude": 12.7648837,
      "longitude": 9.0098434,
      "viewport": {
        "northeast": {
          "lat": 12.76626877989272,
          "lng": 9.011570379892722
        },
        "southwest": {
          "lat": 12.76356912010728,
          "lng": 9.008870720107279
        }
      },
      "formatted_address": "732104, Babura, Nigeria",
      "google_map_url": "https://maps.google.com?q=12.7648837,9.0098434",
      "google_place_id": "ChIJP3Zq5_QlrxERgCs1dMJyWh4"
    }
  },
  {
    "id": "67099",
    "name": "JAN MUTUM PRI SCH II",
    "registration_area_id": "3668",
    "precise_location": null,
    "abbreviation": "015",
    "units": "015",
    "delimitation": "17/02/02/015",
    "remark": "NEW PU",
    "ward_id": "3668",
    "ward_name": "BATALI",
    "local_government_id": "321",
    "local_government_name": "BABURA",
    "state_id": "17",
    "state_name": "JIGAWA",
    "location": {
      "latitude": 12.7799976,
      "longitude": 9.0163303,
      "viewport": {
        "northeast": {
          "lat": 12.78153107989272,
          "lng": 9.017397579892721
        },
        "southwest": {
          "lat": 12.77883142010728,
          "lng": 9.014697920107277
        }
      },
      "formatted_address": "Q2H8+XGW, 732104, Jigawa, Nigeria",
      "google_map_url": "https://maps.google.com?q=12.7799976,9.0163303",
      "google_place_id": "ChIJ0cT--XwvrxERu0VWbJYejdc"
    }
  }
]