[
  {
    "id": "89627",
    "name": "DANFARWA",
    "registration_area_id": "4577",
    "precise_location": null,
    "abbreviation": "001",
    "units": "001",
    "delimitation": "19/22/05/001",
    "remark": "EXISTING PU",
    "ward_id": "4577",
    "ward_name": "KWANYAWA",
    "local_government_id": "391",
    "local_government_name": "KARAYE",
    "state_id": "19",
    "state_name": "KANO",
    "location": {
      "latitude": 11.7686674,
      "longitude": 7.883044999999999,
      "viewport": {
        "northeast": {
          "lat": 11.8180369,
          "lng": 7.9794219
        },
        "southwest": {
          "lat": 11.7287447,
          "lng": 7.857505999999999
        }
      },
      "formatted_address": "Kwanyawa, 704104, Nigeria",
      "google_map_url": "https://maps.google.com?q=11.7686674,7.883044999999999",
      "google_place_id": "ChIJWQgPgH7wrRER_oGoxc0x3FI"
    }
  },
  {
    "id": "89628",
    "name": "GURAWA",
    "registration_area_id": "4577",
    "precise_location": null,
    "abbreviation": "002",
    "units": "002",
    "delimitation": "19/22/05/002",
    "remark": "EXISTING PU",
    "ward_id": "4577",
    "ward_name": "KWANYAWA",
    "local_government_id": "391",
    "local_government_name": "KARAYE",
    "state_id": "19",
    "state_name": "KANO",
    "location": {
      "latitude": 11.7686674,
      "longitude": 7.883044999999999,
      "viewport": {
        "northeast": {
          "lat": 11.8180369,
          "lng": 7.9794219
        },
        "southwest": {
          "lat": 11.7287447,
          "lng": 7.857505999999999
        }
      },
      "formatted_address": "Kwanyawa, 704104, Nigeria",
      "google_map_url": "https://maps.google.com?q=11.7686674,7.883044999999999",
      "google_place_id": "ChIJWQgPgH7wrRER_oGoxc0x3FI"
    }
  },
  {
    "id": "89629",
    "name": "JAKYANKYAN",
    "registration_area_id": "4577",
    "precise_location": null,
    "abbreviation": "003",
    "units": "003",
    "delimitation": "19/22/05/003",
    "remark": "EXISTING PU",
    "ward_id": "4577",
    "ward_name": "KWANYAWA",
    "local_government_id": "391",
    "local_government_name": "KARAYE",
    "state_id": "19",
    "state_name": "KANO",
    "location": {
      "latitude": 11.7686674,
      "longitude": 7.883044999999999,
      "viewport": {
        "northeast": {
          "lat": 11.8180369,
          "lng": 7.9794219
        },
        "southwest": {
          "lat": 11.7287447,
          "lng": 7.857505999999999
        }
      },
      "formatted_address": "Kwanyawa, 704104, Nigeria",
      "google_map_url": "https://maps.google.com?q=11.7686674,7.883044999999999",
      "google_place_id": "ChIJWQgPgH7wrRER_oGoxc0x3FI"
    }
  },
  {
    "id": "89630",
    "name": "KADAFA I",
    "registration_area_id": "4577",
    "precise_location": null,
    "abbreviation": "004",
    "units": "004",
    "delimitation": "19/22/05/004",
    "remark": "EXISTING PU",
    "ward_id": "4577",
    "ward_name": "KWANYAWA",
    "local_government_id": "391",
    "local_government_name": "KARAYE",
    "state_id": "19",
    "state_name": "KANO",
    "location": {
      "latitude": 11.7686674,
      "longitude": 7.883044999999999,
      "viewport": {
        "northeast": {
          "lat": 11.8180369,
          "lng": 7.9794219
        },
        "southwest": {
          "lat": 11.7287447,
          "lng": 7.857505999999999
        }
      },
      "formatted_address": "Kwanyawa, 704104, Nigeria",
      "google_map_url": "https://maps.google.com?q=11.7686674,7.883044999999999",
      "google_place_id": "ChIJWQgPgH7wrRER_oGoxc0x3FI"
    }
  },
  {
    "id": "89631",
    "name": "KADAFA II",
    "registration_area_id": "4577",
    "precise_location": null,
    "abbreviation": "005",
    "units": "005",
    "delimitation": "19/22/05/005",
    "remark": "EXISTING PU",
    "ward_id": "4577",
    "ward_name": "KWANYAWA",
    "local_government_id": "391",
    "local_government_name": "KARAYE",
    "state_id": "19",
    "state_name": "KANO",
    "location": {
      "latitude": 11.7686674,
      "longitude": 7.883044999999999,
      "viewport": {
        "northeast": {
          "lat": 11.8180369,
          "lng": 7.9794219
        },
        "southwest": {
          "lat": 11.7287447,
          "lng": 7.857505999999999
        }
      },
      "formatted_address": "Kwanyawa, 704104, Nigeria",
      "google_map_url": "https://maps.google.com?q=11.7686674,7.883044999999999",
      "google_place_id": "ChIJWQgPgH7wrRER_oGoxc0x3FI"
    }
  },
  {
    "id": "89632",
    "name": "KADARE I",
    "registration_area_id": "4577",
    "precise_location": null,
    "abbreviation": "006",
    "units": "006",
    "delimitation": "19/22/05/006",
    "remark": "EXISTING PU",
    "ward_id": "4577",
    "ward_name": "KWANYAWA",
    "local_government_id": "391",
    "local_government_name": "KARAYE",
    "state_id": "19",
    "state_name": "KANO",
    "location": {
      "latitude": 11.7314249,
      "longitude": 8.0028892,
      "viewport": {
        "northeast": {
          "lat": 11.8834635,
          "lng": 8.1787359
        },
        "southwest": {
          "lat": 11.6378249,
          "lng": 7.8724322
        }
      },
      "formatted_address": "Karaye, Nigeria",
      "google_map_url": "https://maps.google.com?q=11.7314249,8.0028892",
      "google_place_id": "ChIJNeJWbELvrRERskb3MSFG0l0"
    }
  },
  {
    "id": "89633",
    "name": "KADARE II",
    "registration_area_id": "4577",
    "precise_location": null,
    "abbreviation": "007",
    "units": "007",
    "delimitation": "19/22/05/007",
    "remark": "EXISTING PU",
    "ward_id": "4577",
    "ward_name": "KWANYAWA",
    "local_government_id": "391",
    "local_government_name": "KARAYE",
    "state_id": "19",
    "state_name": "KANO",
    "location": {
      "latitude": 11.7314249,
      "longitude": 8.0028892,
      "viewport": {
        "northeast": {
          "lat": 11.8834635,
          "lng": 8.1787359
        },
        "southwest": {
          "lat": 11.6378249,
          "lng": 7.8724322
        }
      },
      "formatted_address": "Karaye, Nigeria",
      "google_map_url": "https://maps.google.com?q=11.7314249,8.0028892",
      "google_place_id": "ChIJNeJWbELvrRERskb3MSFG0l0"
    }
  },
  {
    "id": "89634",
    "name": "KWANYAWA I",
    "registration_area_id": "4577",
    "precise_location": null,
    "abbreviation": "008",
    "units": "008",
    "delimitation": "19/22/05/008",
    "remark": "EXISTING PU",
    "ward_id": "4577",
    "ward_name": "KWANYAWA",
    "local_government_id": "391",
    "local_government_name": "KARAYE",
    "state_id": "19",
    "state_name": "KANO",
    "location": {
      "latitude": 11.7686674,
      "longitude": 7.883044999999999,
      "viewport": {
        "northeast": {
          "lat": 11.8180369,
          "lng": 7.9794219
        },
        "southwest": {
          "lat": 11.7287447,
          "lng": 7.857505999999999
        }
      },
      "formatted_address": "Kwanyawa, 704104, Nigeria",
      "google_map_url": "https://maps.google.com?q=11.7686674,7.883044999999999",
      "google_place_id": "ChIJWQgPgH7wrRER_oGoxc0x3FI"
    }
  },
  {
    "id": "89635",
    "name": "KWANYAWA II",
    "registration_area_id": "4577",
    "precise_location": null,
    "abbreviation": "009",
    "units": "009",
    "delimitation": "19/22/05/009",
    "remark": "EXISTING PU",
    "ward_id": "4577",
    "ward_name": "KWANYAWA",
    "local_government_id": "391",
    "local_government_name": "KARAYE",
    "state_id": "19",
    "state_name": "KANO",
    "location": {
      "latitude": 11.7686674,
      "longitude": 7.883044999999999,
      "viewport": {
        "northeast": {
          "lat": 11.8180369,
          "lng": 7.9794219
        },
        "southwest": {
          "lat": 11.7287447,
          "lng": 7.857505999999999
        }
      },
      "formatted_address": "Kwanyawa, 704104, Nigeria",
      "google_map_url": "https://maps.google.com?q=11.7686674,7.883044999999999",
      "google_place_id": "ChIJWQgPgH7wrRER_oGoxc0x3FI"
    }
  },
  {
    "id": "89636",
    "name": "KWARI",
    "registration_area_id": "4577",
    "precise_location": null,
    "abbreviation": "010",
    "units": "010",
    "delimitation": "19/22/05/010",
    "remark": "EXISTING PU",
    "ward_id": "4577",
    "ward_name": "KWANYAWA",
    "local_government_id": "391",
    "local_government_name": "KARAYE",
    "state_id": "19",
    "state_name": "KANO",
    "location": {
      "latitude": 11.7256972,
      "longitude": 7.9804032,
      "viewport": {
        "northeast": {
          "lat": 11.7305201,
          "lng": 7.986144
        },
        "southwest": {
          "lat": 11.721591,
          "lng": 7.9752129
        }
      },
      "formatted_address": "704104, Kwari, Nigeria",
      "google_map_url": "https://maps.google.com?q=11.7256972,7.9804032",
      "google_place_id": "ChIJmy6hBjburRERAZoovjhkYqg"
    }
  },
  {
    "id": "89637",
    "name": "MAJE",
    "registration_area_id": "4577",
    "precise_location": null,
    "abbreviation": "011",
    "units": "011",
    "delimitation": "19/22/05/011",
    "remark": "EXISTING PU",
    "ward_id": "4577",
    "ward_name": "KWANYAWA",
    "local_government_id": "391",
    "local_government_name": "KARAYE",
    "state_id": "19",
    "state_name": "KANO",
    "location": {
      "latitude": 11.8334175,
      "longitude": 8.1873437,
      "viewport": {
        "northeast": {
          "lat": 11.83462407989272,
          "lng": 8.188840729892721
        },
        "southwest": {
          "lat": 11.83192442010728,
          "lng": 8.186141070107277
        }
      },
      "formatted_address": "7F3CR5MP+9VH Koran Maje Dugabau Kano, Baskore, Nigeria",
      "google_map_url": "https://maps.google.com?q=11.8334175,8.1873437",
      "google_place_id": "ChIJHavYpTLdrRER6Zf_KB1VelU"
    }
  },
  {
    "id": "89638",
    "name": "MUWARE",
    "registration_area_id": "4577",
    "precise_location": null,
    "abbreviation": "012",
    "units": "012",
    "delimitation": "19/22/05/012",
    "remark": "EXISTING PU",
    "ward_id": "4577",
    "ward_name": "KWANYAWA",
    "local_government_id": "391",
    "local_government_name": "KARAYE",
    "state_id": "19",
    "state_name": "KANO",
    "location": {
      "latitude": 11.7686674,
      "longitude": 7.883044999999999,
      "viewport": {
        "northeast": {
          "lat": 11.8180369,
          "lng": 7.9794219
        },
        "southwest": {
          "lat": 11.7287447,
          "lng": 7.857505999999999
        }
      },
      "formatted_address": "Kwanyawa, 704104, Nigeria",
      "google_map_url": "https://maps.google.com?q=11.7686674,7.883044999999999",
      "google_place_id": "ChIJWQgPgH7wrRER_oGoxc0x3FI"
    }
  },
  {
    "id": "89639",
    "name": "SAPELE",
    "registration_area_id": "4577",
    "precise_location": null,
    "abbreviation": "013",
    "units": "013",
    "delimitation": "19/22/05/013",
    "remark": "EXISTING PU",
    "ward_id": "4577",
    "ward_name": "KWANYAWA",
    "local_government_id": "391",
    "local_government_name": "KARAYE",
    "state_id": "19",
    "state_name": "KANO",
    "location": {
      "latitude": 11.7686674,
      "longitude": 7.883044999999999,
      "viewport": {
        "northeast": {
          "lat": 11.8180369,
          "lng": 7.9794219
        },
        "southwest": {
          "lat": 11.7287447,
          "lng": 7.857505999999999
        }
      },
      "formatted_address": "Kwanyawa, 704104, Nigeria",
      "google_map_url": "https://maps.google.com?q=11.7686674,7.883044999999999",
      "google_place_id": "ChIJWQgPgH7wrRER_oGoxc0x3FI"
    }
  },
  {
    "id": "89640",
    "name": "TAMARKE",
    "registration_area_id": "4577",
    "precise_location": null,
    "abbreviation": "014",
    "units": "014",
    "delimitation": "19/22/05/014",
    "remark": "EXISTING PU",
    "ward_id": "4577",
    "ward_name": "KWANYAWA",
    "local_government_id": "391",
    "local_government_name": "KARAYE",
    "state_id": "19",
    "state_name": "KANO",
    "location": {
      "latitude": 11.8032566,
      "longitude": 7.954348599999999,
      "viewport": {
        "northeast": {
          "lat": 11.8090641,
          "lng": 7.958824
        },
        "southwest": {
          "lat": 11.801156,
          "lng": 7.9511481
        }
      },
      "formatted_address": "704104, Tamarke, Nigeria",
      "google_map_url": "https://maps.google.com?q=11.8032566,7.954348599999999",
      "google_place_id": "ChIJ2WCX68v6rRER29a8CqcMdQ4"
    }
  },
  {
    "id": "89641",
    "name": "TUNGA",
    "registration_area_id": "4577",
    "precise_location": null,
    "abbreviation": "015",
    "units": "015",
    "delimitation": "19/22/05/015",
    "remark": "EXISTING PU",
    "ward_id": "4577",
    "ward_name": "KWANYAWA",
    "local_government_id": "391",
    "local_government_name": "KARAYE",
    "state_id": "19",
    "state_name": "KANO",
    "location": {
      "latitude": 11.7686674,
      "longitude": 7.883044999999999,
      "viewport": {
        "northeast": {
          "lat": 11.8180369,
          "lng": 7.9794219
        },
        "southwest": {
          "lat": 11.7287447,
          "lng": 7.857505999999999
        }
      },
      "formatted_address": "Kwanyawa, 704104, Nigeria",
      "google_map_url": "https://maps.google.com?q=11.7686674,7.883044999999999",
      "google_place_id": "ChIJWQgPgH7wrRER_oGoxc0x3FI"
    }
  },
  {
    "id": "89642",
    "name": "UNGUWAR TOFA I",
    "registration_area_id": "4577",
    "precise_location": null,
    "abbreviation": "016",
    "units": "016",
    "delimitation": "19/22/05/016",
    "remark": "EXISTING PU",
    "ward_id": "4577",
    "ward_name": "KWANYAWA",
    "local_government_id": "391",
    "local_government_name": "KARAYE",
    "state_id": "19",
    "state_name": "KANO",
    "location": {
      "latitude": 11.7686674,
      "longitude": 7.883044999999999,
      "viewport": {
        "northeast": {
          "lat": 11.8180369,
          "lng": 7.9794219
        },
        "southwest": {
          "lat": 11.7287447,
          "lng": 7.857505999999999
        }
      },
      "formatted_address": "Kwanyawa, 704104, Nigeria",
      "google_map_url": "https://maps.google.com?q=11.7686674,7.883044999999999",
      "google_place_id": "ChIJWQgPgH7wrRER_oGoxc0x3FI"
    }
  },
  {
    "id": "89643",
    "name": "UNGUWAR TOFA II",
    "registration_area_id": "4577",
    "precise_location": null,
    "abbreviation": "017",
    "units": "017",
    "delimitation": "19/22/05/017",
    "remark": "EXISTING PU",
    "ward_id": "4577",
    "ward_name": "KWANYAWA",
    "local_government_id": "391",
    "local_government_name": "KARAYE",
    "state_id": "19",
    "state_name": "KANO",
    "location": {
      "latitude": 11.7686674,
      "longitude": 7.883044999999999,
      "viewport": {
        "northeast": {
          "lat": 11.8180369,
          "lng": 7.9794219
        },
        "southwest": {
          "lat": 11.7287447,
          "lng": 7.857505999999999
        }
      },
      "formatted_address": "Kwanyawa, 704104, Nigeria",
      "google_map_url": "https://maps.google.com?q=11.7686674,7.883044999999999",
      "google_place_id": "ChIJWQgPgH7wrRER_oGoxc0x3FI"
    }
  },
  {
    "id": "89644",
    "name": "UNGUWAR KOSAU",
    "registration_area_id": "4577",
    "precise_location": null,
    "abbreviation": "018",
    "units": "018",
    "delimitation": "19/22/05/018",
    "remark": "EXISTING PU",
    "ward_id": "4577",
    "ward_name": "KWANYAWA",
    "local_government_id": "391",
    "local_government_name": "KARAYE",
    "state_id": "19",
    "state_name": "KANO",
    "location": {
      "latitude": 11.7686674,
      "longitude": 7.883044999999999,
      "viewport": {
        "northeast": {
          "lat": 11.8180369,
          "lng": 7.9794219
        },
        "southwest": {
          "lat": 11.7287447,
          "lng": 7.857505999999999
        }
      },
      "formatted_address": "Kwanyawa, 704104, Nigeria",
      "google_map_url": "https://maps.google.com?q=11.7686674,7.883044999999999",
      "google_place_id": "ChIJWQgPgH7wrRER_oGoxc0x3FI"
    }
  },
  {
    "id": "89645",
    "name": "YALWA",
    "registration_area_id": "4577",
    "precise_location": null,
    "abbreviation": "019",
    "units": "019",
    "delimitation": "19/22/05/019",
    "remark": "EXISTING PU",
    "ward_id": "4577",
    "ward_name": "KWANYAWA",
    "local_government_id": "391",
    "local_government_name": "KARAYE",
    "state_id": "19",
    "state_name": "KANO",
    "location": {
      "latitude": 11.7536272,
      "longitude": 7.903118600000001,
      "viewport": {
        "northeast": {
          "lat": 11.7549241,
          "lng": 7.908859100000001
        },
        "southwest": {
          "lat": 11.740557,
          "lng": 7.902158000000001
        }
      },
      "formatted_address": "704104, Yalwa, Nigeria",
      "google_map_url": "https://maps.google.com?q=11.7536272,7.903118600000001",
      "google_place_id": "ChIJCxDVMfDwrRERWwzTe6my56Q"
    }
  },
  {
    "id": "89646",
    "name": "YAN'TURU",
    "registration_area_id": "4577",
    "precise_location": null,
    "abbreviation": "020",
    "units": "020",
    "delimitation": "19/22/05/020",
    "remark": "EXISTING PU",
    "ward_id": "4577",
    "ward_name": "KWANYAWA",
    "local_government_id": "391",
    "local_government_name": "KARAYE",
    "state_id": "19",
    "state_name": "KANO",
    "location": {
      "latitude": 11.8175428,
      "longitude": 7.923708299999999,
      "viewport": {
        "northeast": {
          "lat": 11.820525,
          "lng": 7.925987999999999
        },
        "southwest": {
          "lat": 11.814091,
          "lng": 7.920213
        }
      },
      "formatted_address": "Yan Turu, Nigeria",
      "google_map_url": "https://maps.google.com?q=11.8175428,7.923708299999999",
      "google_place_id": "ChIJafs-l_v6rRER26Pg0KgTU2o"
    }
  },
  {
    "id": "89647",
    "name": "ZAMFARAWA",
    "registration_area_id": "4577",
    "precise_location": null,
    "abbreviation": "021",
    "units": "021",
    "delimitation": "19/22/05/021",
    "remark": "EXISTING PU",
    "ward_id": "4577",
    "ward_name": "KWANYAWA",
    "local_government_id": "391",
    "local_government_name": "KARAYE",
    "state_id": "19",
    "state_name": "KANO",
    "location": {
      "latitude": 11.7686674,
      "longitude": 7.883044999999999,
      "viewport": {
        "northeast": {
          "lat": 11.8180369,
          "lng": 7.9794219
        },
        "southwest": {
          "lat": 11.7287447,
          "lng": 7.857505999999999
        }
      },
      "formatted_address": "Kwanyawa, 704104, Nigeria",
      "google_map_url": "https://maps.google.com?q=11.7686674,7.883044999999999",
      "google_place_id": "ChIJWQgPgH7wrRER_oGoxc0x3FI"
    }
  }
]