[
  {
    "id": "81889",
    "name": "GAZARA GARI I/ HEALTH CLINIC",
    "registration_area_id": "4280",
    "precise_location": null,
    "abbreviation": "001",
    "units": "001",
    "delimitation": "18/18/03/001",
    "remark": "EXISTING PU",
    "ward_id": "4280",
    "ward_name": "GAZARA",
    "local_government_id": "364",
    "local_government_name": "MAKARFI",
    "state_id": "18",
    "state_name": "KADUNA",
    "location": {
      "latitude": 11.3667,
      "longitude": 7.916599999999999,
      "viewport": {
        "northeast": {
          "lat": 11.36779127989272,
          "lng": 7.917635579892721
        },
        "southwest": {
          "lat": 11.36509162010728,
          "lng": 7.914935920107277
        }
      },
      "formatted_address": "9W88+MJH, 812103, Kaduna, Nigeria",
      "google_map_url": "https://maps.google.com?q=11.3667,7.916599999999999",
      "google_place_id": "ChIJy-8PsfiErRER-QEvuMP834M"
    }
  },
  {
    "id": "81890",
    "name": "GAZARA GARI II/ PRI. SCH. GAZARA",
    "registration_area_id": "4280",
    "precise_location": null,
    "abbreviation": "002",
    "units": "002",
    "delimitation": "18/18/03/002",
    "remark": "EXISTING PU",
    "ward_id": "4280",
    "ward_name": "GAZARA",
    "local_government_id": "364",
    "local_government_name": "MAKARFI",
    "state_id": "18",
    "state_name": "KADUNA",
    "location": {
      "latitude": 11.3859022,
      "longitude": 7.907742300000001,
      "viewport": {
        "northeast": {
          "lat": 11.38720947989272,
          "lng": 7.909111179892721
        },
        "southwest": {
          "lat": 11.38450982010728,
          "lng": 7.906411520107278
        }
      },
      "formatted_address": "7F399WP5+935, Godai, 812103, Ungwan Alabo, Nigeria",
      "google_map_url": "https://maps.google.com?q=11.3859022,7.907742300000001",
      "google_place_id": "ChIJ44M8kP2FrRERznUSAzz1Gdk"
    }
  },
  {
    "id": "81891",
    "name": "ANG. GODA I/ PRI. SCH. GODA",
    "registration_area_id": "4280",
    "precise_location": null,
    "abbreviation": "003",
    "units": "003",
    "delimitation": "18/18/03/003",
    "remark": "EXISTING PU",
    "ward_id": "4280",
    "ward_name": "GAZARA",
    "local_government_id": "364",
    "local_government_name": "MAKARFI",
    "state_id": "18",
    "state_name": "KADUNA",
    "location": {
      "latitude": 10.5159172,
      "longitude": 7.405274700000001,
      "viewport": {
        "northeast": {
          "lat": 10.51725077989272,
          "lng": 7.406442979892723
        },
        "southwest": {
          "lat": 10.51455112010728,
          "lng": 7.403743320107279
        }
      },
      "formatted_address": "Along Jangre, Saminaka Road, Nigeria",
      "google_map_url": "https://maps.google.com?q=10.5159172,7.405274700000001",
      "google_place_id": "ChIJsblWwOE1TRARGQsUwpCduEc"
    }
  },
  {
    "id": "81892",
    "name": "ANG. MADAKI/ K.M. MADAKI",
    "registration_area_id": "4280",
    "precise_location": null,
    "abbreviation": "004",
    "units": "004",
    "delimitation": "18/18/03/004",
    "remark": "EXISTING PU",
    "ward_id": "4280",
    "ward_name": "GAZARA",
    "local_government_id": "364",
    "local_government_name": "MAKARFI",
    "state_id": "18",
    "state_name": "KADUNA",
    "location": {
      "latitude": 9.873441800000002,
      "longitude": 7.955199899999999,
      "viewport": {
        "northeast": {
          "lat": 9.874775829892721,
          "lng": 7.956550229892723
        },
        "southwest": {
          "lat": 9.872076170107277,
          "lng": 7.953850570107279
        }
      },
      "formatted_address": "Ungwan mission Kachia LGA,kaduna state,nigeria Kachia, Kaduna, Nigeria",
      "google_map_url": "https://maps.google.com?q=9.873441800000002,7.955199899999999",
      "google_place_id": "ChIJla3NL4-HUhARgllX7jR7DJI"
    }
  },
  {
    "id": "81893",
    "name": "ANG. BUZU/ K.M BUZU",
    "registration_area_id": "4280",
    "precise_location": null,
    "abbreviation": "005",
    "units": "005",
    "delimitation": "18/18/03/005",
    "remark": "EXISTING PU",
    "ward_id": "4280",
    "ward_name": "GAZARA",
    "local_government_id": "364",
    "local_government_name": "MAKARFI",
    "state_id": "18",
    "state_name": "KADUNA",
    "location": {
      "latitude": 11.3566706,
      "longitude": 7.890413799999999,
      "viewport": {
        "northeast": {
          "lat": 11.35806082989272,
          "lng": 7.891963429892721
        },
        "southwest": {
          "lat": 11.35536117010728,
          "lng": 7.889263770107277
        }
      },
      "formatted_address": "9V4R+M5J, 812103, Makarfi, Nigeria",
      "google_map_url": "https://maps.google.com?q=11.3566706,7.890413799999999",
      "google_place_id": "ChIJC7JbJzmErRERpE1a_NLmS2I"
    }
  },
  {
    "id": "81894",
    "name": "ANG. MAL. YUSUF/ K.M YUSUF",
    "registration_area_id": "4280",
    "precise_location": null,
    "abbreviation": "006",
    "units": "006",
    "delimitation": "18/18/03/006",
    "remark": "EXISTING PU",
    "ward_id": "4280",
    "ward_name": "GAZARA",
    "local_government_id": "364",
    "local_government_name": "MAKARFI",
    "state_id": "18",
    "state_name": "KADUNA",
    "location": {
      "latitude": 10.52042,
      "longitude": 7.4168826,
      "viewport": {
        "northeast": {
          "lat": 10.52181627989272,
          "lng": 7.41814237989272
        },
        "southwest": {
          "lat": 10.51911662010728,
          "lng": 7.415442720107277
        }
      },
      "formatted_address": "GCC8+5Q6, Tudun Wada 800282, Kaduna, Nigeria",
      "google_map_url": "https://maps.google.com?q=10.52042,7.4168826",
      "google_place_id": "ChIJm1Hr80c1TRARYj1VG5NpdIo"
    }
  },
  {
    "id": "81895",
    "name": "ANG. WAMBAL/ K.M WAMBAL",
    "registration_area_id": "4280",
    "precise_location": null,
    "abbreviation": "007",
    "units": "007",
    "delimitation": "18/18/03/007",
    "remark": "EXISTING PU",
    "ward_id": "4280",
    "ward_name": "GAZARA",
    "local_government_id": "364",
    "local_government_name": "MAKARFI",
    "state_id": "18",
    "state_name": "KADUNA",
    "location": {
      "latitude": 11.3566706,
      "longitude": 7.890413799999999,
      "viewport": {
        "northeast": {
          "lat": 11.35806082989272,
          "lng": 7.891963429892721
        },
        "southwest": {
          "lat": 11.35536117010728,
          "lng": 7.889263770107277
        }
      },
      "formatted_address": "9V4R+M5J, 812103, Makarfi, Nigeria",
      "google_map_url": "https://maps.google.com?q=11.3566706,7.890413799999999",
      "google_place_id": "ChIJC7JbJzmErRERpE1a_NLmS2I"
    }
  },
  {
    "id": "81896",
    "name": "ANG. SARKI GAZARA/ K.M HUSSAINI",
    "registration_area_id": "4280",
    "precise_location": null,
    "abbreviation": "008",
    "units": "008",
    "delimitation": "18/18/03/008",
    "remark": "EXISTING PU",
    "ward_id": "4280",
    "ward_name": "GAZARA",
    "local_government_id": "364",
    "local_government_name": "MAKARFI",
    "state_id": "18",
    "state_name": "KADUNA",
    "location": {
      "latitude": 11.3566706,
      "longitude": 7.890413799999999,
      "viewport": {
        "northeast": {
          "lat": 11.35806082989272,
          "lng": 7.891963429892721
        },
        "southwest": {
          "lat": 11.35536117010728,
          "lng": 7.889263770107277
        }
      },
      "formatted_address": "9V4R+M5J, 812103, Makarfi, Nigeria",
      "google_map_url": "https://maps.google.com?q=11.3566706,7.890413799999999",
      "google_place_id": "ChIJC7JbJzmErRERpE1a_NLmS2I"
    }
  },
  {
    "id": "81897",
    "name": "ANG. JAMA'A/ PRI. SCH. JAMA'A",
    "registration_area_id": "4280",
    "precise_location": null,
    "abbreviation": "009",
    "units": "009",
    "delimitation": "18/18/03/009",
    "remark": "EXISTING PU",
    "ward_id": "4280",
    "ward_name": "GAZARA",
    "local_government_id": "364",
    "local_government_name": "MAKARFI",
    "state_id": "18",
    "state_name": "KADUNA",
    "location": {
      "latitude": 11.3733065,
      "longitude": 7.897946800000001,
      "viewport": {
        "northeast": {
          "lat": 11.37452902989272,
          "lng": 7.899446679892723
        },
        "southwest": {
          "lat": 11.37182937010728,
          "lng": 7.896747020107279
        }
      },
      "formatted_address": "7F399VFX+85G, 812103, Ungwan Alabo, Nigeria",
      "google_map_url": "https://maps.google.com?q=11.3733065,7.897946800000001",
      "google_place_id": "ChIJc8OhCNeFrRERFgUf9L972R4"
    }
  },
  {
    "id": "81898",
    "name": "GANGARA GARI I/ PRI. SCH. GANGARA",
    "registration_area_id": "4280",
    "precise_location": null,
    "abbreviation": "010",
    "units": "010",
    "delimitation": "18/18/03/010",
    "remark": "EXISTING PU",
    "ward_id": "4280",
    "ward_name": "GAZARA",
    "local_government_id": "364",
    "local_government_name": "MAKARFI",
    "state_id": "18",
    "state_name": "KADUNA",
    "location": {
      "latitude": 11.098826,
      "longitude": 7.721708599999999,
      "viewport": {
        "northeast": {
          "lat": 11.10007232989272,
          "lng": 7.723379079892723
        },
        "southwest": {
          "lat": 11.09737267010728,
          "lng": 7.720679420107279
        }
      },
      "formatted_address": "3PXC+GMP, Maje Rd, 810103, Zaria, Nigeria",
      "google_map_url": "https://maps.google.com?q=11.098826,7.721708599999999",
      "google_place_id": "ChIJVdegEA2DshER8ak0ColcbPM"
    }
  },
  {
    "id": "81899",
    "name": "GANGARA GARI II/ K.M. GANGARA",
    "registration_area_id": "4280",
    "precise_location": null,
    "abbreviation": "011",
    "units": "011",
    "delimitation": "18/18/03/011",
    "remark": "EXISTING PU",
    "ward_id": "4280",
    "ward_name": "GAZARA",
    "local_government_id": "364",
    "local_government_name": "MAKARFI",
    "state_id": "18",
    "state_name": "KADUNA",
    "location": null
  },
  {
    "id": "81900",
    "name": "KADABO/ PRI. SCH. KADABO",
    "registration_area_id": "4280",
    "precise_location": null,
    "abbreviation": "012",
    "units": "012",
    "delimitation": "18/18/03/012",
    "remark": "EXISTING PU",
    "ward_id": "4280",
    "ward_name": "GAZARA",
    "local_government_id": "364",
    "local_government_name": "MAKARFI",
    "state_id": "18",
    "state_name": "KADUNA",
    "location": {
      "latitude": 11.4203716,
      "longitude": 7.9216661,
      "viewport": {
        "northeast": {
          "lat": 11.42181312989272,
          "lng": 7.922908179892721
        },
        "southwest": {
          "lat": 11.41911347010728,
          "lng": 7.920208520107277
        }
      },
      "formatted_address": "Kadabo Primary School, 812103, Ungwan Kadabo, Nigeria",
      "google_map_url": "https://maps.google.com?q=11.4203716,7.9216661",
      "google_place_id": "ChIJf6zsKYePrRERCdm1Jt5ozqI"
    }
  },
  {
    "id": "81901",
    "name": "MAKAURATA I/ PRI. SCH. MAKAURATA",
    "registration_area_id": "4280",
    "precise_location": null,
    "abbreviation": "013",
    "units": "013",
    "delimitation": "18/18/03/013",
    "remark": "EXISTING PU",
    "ward_id": "4280",
    "ward_name": "GAZARA",
    "local_government_id": "364",
    "local_government_name": "MAKARFI",
    "state_id": "18",
    "state_name": "KADUNA",
    "location": {
      "latitude": 11.4466435,
      "longitude": 7.9459316,
      "viewport": {
        "northeast": {
          "lat": 11.44800912989272,
          "lng": 7.947354329892722
        },
        "southwest": {
          "lat": 11.44530947010728,
          "lng": 7.944654670107278
        }
      },
      "formatted_address": "7F39CWWW+M93, Makaurata, 812103, Yauran, Nigeria",
      "google_map_url": "https://maps.google.com?q=11.4466435,7.9459316",
      "google_place_id": "ChIJF6C_unePrRERtVtB5asfL6A"
    }
  },
  {
    "id": "81902",
    "name": "MAKAURATA II/ K.M. MAKAURATA",
    "registration_area_id": "4280",
    "precise_location": null,
    "abbreviation": "014",
    "units": "014",
    "delimitation": "18/18/03/014",
    "remark": "EXISTING PU",
    "ward_id": "4280",
    "ward_name": "GAZARA",
    "local_government_id": "364",
    "local_government_name": "MAKARFI",
    "state_id": "18",
    "state_name": "KADUNA",
    "location": {
      "latitude": 11.3566706,
      "longitude": 7.890413799999999,
      "viewport": {
        "northeast": {
          "lat": 11.35806082989272,
          "lng": 7.891963429892721
        },
        "southwest": {
          "lat": 11.35536117010728,
          "lng": 7.889263770107277
        }
      },
      "formatted_address": "9V4R+M5J, 812103, Makarfi, Nigeria",
      "google_map_url": "https://maps.google.com?q=11.3566706,7.890413799999999",
      "google_place_id": "ChIJC7JbJzmErRERpE1a_NLmS2I"
    }
  },
  {
    "id": "81903",
    "name": "ANG. MAHANGI/ PRI. SCH. MAHANGI",
    "registration_area_id": "4280",
    "precise_location": null,
    "abbreviation": "015",
    "units": "015",
    "delimitation": "18/18/03/015",
    "remark": "EXISTING PU",
    "ward_id": "4280",
    "ward_name": "GAZARA",
    "local_government_id": "364",
    "local_government_name": "MAKARFI",
    "state_id": "18",
    "state_name": "KADUNA",
    "location": {
      "latitude": 11.4122683,
      "longitude": 7.961531300000001,
      "viewport": {
        "northeast": {
          "lat": 11.41358922989272,
          "lng": 7.962921629892722
        },
        "southwest": {
          "lat": 11.41088957010728,
          "lng": 7.960221970107278
        }
      },
      "formatted_address": "7F39CX66+WJ2, Mahangi 1, 812103, Ungwan Alabo, Nigeria",
      "google_map_url": "https://maps.google.com?q=11.4122683,7.961531300000001",
      "google_place_id": "ChIJIZRL2a6brREREmHkQCOuGII"
    }
  },
  {
    "id": "81904",
    "name": "GANA/ K.M. GANA",
    "registration_area_id": "4280",
    "precise_location": null,
    "abbreviation": "016",
    "units": "016",
    "delimitation": "18/18/03/016",
    "remark": "EXISTING PU",
    "ward_id": "4280",
    "ward_name": "GAZARA",
    "local_government_id": "364",
    "local_government_name": "MAKARFI",
    "state_id": "18",
    "state_name": "KADUNA",
    "location": {
      "latitude": 11.3743687,
      "longitude": 7.859044099999998,
      "viewport": {
        "northeast": {
          "lat": 11.37571782989272,
          "lng": 7.86038197989272
        },
        "southwest": {
          "lat": 11.37301817010728,
          "lng": 7.857682320107276
        }
      },
      "formatted_address": "7F399VF5+PJV Danbakwa Makarfi, Ungwan Giwa, Nigeria",
      "google_map_url": "https://maps.google.com?q=11.3743687,7.859044099999998",
      "google_place_id": "ChIJLXPr04mGrRERS6z7kX5GoGY"
    }
  },
  {
    "id": "81905",
    "name": "GAZARA GARI II/PRIMARY SCHOOL GAZARA",
    "registration_area_id": "4280",
    "precise_location": null,
    "abbreviation": "017",
    "units": "017",
    "delimitation": "18/18/03/017",
    "remark": "EXISTING PU",
    "ward_id": "4280",
    "ward_name": "GAZARA",
    "local_government_id": "364",
    "local_government_name": "MAKARFI",
    "state_id": "18",
    "state_name": "KADUNA",
    "location": {
      "latitude": 11.3859022,
      "longitude": 7.907742300000001,
      "viewport": {
        "northeast": {
          "lat": 11.38720947989272,
          "lng": 7.909111179892721
        },
        "southwest": {
          "lat": 11.38450982010728,
          "lng": 7.906411520107278
        }
      },
      "formatted_address": "7F399WP5+935, Godai, 812103, Ungwan Alabo, Nigeria",
      "google_map_url": "https://maps.google.com?q=11.3859022,7.907742300000001",
      "google_place_id": "ChIJ44M8kP2FrRERznUSAzz1Gdk"
    }
  },
  {
    "id": "81906",
    "name": "UNG. JAMA'A II/ PRI. SCH. JAMA'A",
    "registration_area_id": "4280",
    "precise_location": null,
    "abbreviation": "018",
    "units": "018",
    "delimitation": "18/18/03/018",
    "remark": "EXISTING PU",
    "ward_id": "4280",
    "ward_name": "GAZARA",
    "local_government_id": "364",
    "local_government_name": "MAKARFI",
    "state_id": "18",
    "state_name": "KADUNA",
    "location": {
      "latitude": 11.3785431,
      "longitude": 7.884942300000001,
      "viewport": {
        "northeast": {
          "lat": 11.37986652989272,
          "lng": 7.88610457989272
        },
        "southwest": {
          "lat": 11.37716687010728,
          "lng": 7.883404920107276
        }
      },
      "formatted_address": "7F399VHM+CX8, 812103, Markafi, Nigeria",
      "google_map_url": "https://maps.google.com?q=11.3785431,7.884942300000001",
      "google_place_id": "ChIJ3T2GLaeFrRERl7h_DRYnNaI"
    }
  },
  {
    "id": "81907",
    "name": "GAZARA GARI II/PRI SCH. 2",
    "registration_area_id": "4280",
    "precise_location": null,
    "abbreviation": "019",
    "units": "019",
    "delimitation": "18/18/03/019",
    "remark": "NEW PU",
    "ward_id": "4280",
    "ward_name": "GAZARA",
    "local_government_id": "364",
    "local_government_name": "MAKARFI",
    "state_id": "18",
    "state_name": "KADUNA",
    "location": {
      "latitude": 11.3785431,
      "longitude": 7.884942300000001,
      "viewport": {
        "northeast": {
          "lat": 11.37986652989272,
          "lng": 7.88610457989272
        },
        "southwest": {
          "lat": 11.37716687010728,
          "lng": 7.883404920107276
        }
      },
      "formatted_address": "7F399VHM+CX8, 812103, Markafi, Nigeria",
      "google_map_url": "https://maps.google.com?q=11.3785431,7.884942300000001",
      "google_place_id": "ChIJ3T2GLaeFrRERl7h_DRYnNaI"
    }
  },
  {
    "id": "81908",
    "name": "ANG. GODAI I/PRI SCH. GODAI 2",
    "registration_area_id": "4280",
    "precise_location": null,
    "abbreviation": "020",
    "units": "020",
    "delimitation": "18/18/03/020",
    "remark": "NEW PU",
    "ward_id": "4280",
    "ward_name": "GAZARA",
    "local_government_id": "364",
    "local_government_name": "MAKARFI",
    "state_id": "18",
    "state_name": "KADUNA",
    "location": {
      "latitude": 11.3859022,
      "longitude": 7.907742300000001,
      "viewport": {
        "northeast": {
          "lat": 11.38720947989272,
          "lng": 7.909111179892721
        },
        "southwest": {
          "lat": 11.38450982010728,
          "lng": 7.906411520107278
        }
      },
      "formatted_address": "7F399WP5+935, Godai, 812103, Ungwan Alabo, Nigeria",
      "google_map_url": "https://maps.google.com?q=11.3859022,7.907742300000001",
      "google_place_id": "ChIJ44M8kP2FrRERznUSAzz1Gdk"
    }
  },
  {
    "id": "81909",
    "name": "UBE PRI SCH/ANG MADAKI",
    "registration_area_id": "4280",
    "precise_location": null,
    "abbreviation": "021",
    "units": "021",
    "delimitation": "18/18/03/021",
    "remark": "NEW PU",
    "ward_id": "4280",
    "ward_name": "GAZARA",
    "local_government_id": "364",
    "local_government_name": "MAKARFI",
    "state_id": "18",
    "state_name": "KADUNA",
    "location": {
      "latitude": 11.3810668,
      "longitude": 7.884891899999999,
      "viewport": {
        "northeast": {
          "lat": 11.38236192989272,
          "lng": 7.886339629892722
        },
        "southwest": {
          "lat": 11.37966227010728,
          "lng": 7.883639970107279
        }
      },
      "formatted_address": "9VJM+CXC, 812103, Makarfi, Nigeria",
      "google_map_url": "https://maps.google.com?q=11.3810668,7.884891899999999",
      "google_place_id": "ChIJRyV5RM6FrRERqu_3kCF7Q70"
    }
  },
  {
    "id": "81910",
    "name": "ANG. WAMBAI PRI SCH.",
    "registration_area_id": "4280",
    "precise_location": null,
    "abbreviation": "022",
    "units": "022",
    "delimitation": "18/18/03/022",
    "remark": "NEW PU",
    "ward_id": "4280",
    "ward_name": "GAZARA",
    "local_government_id": "364",
    "local_government_name": "MAKARFI",
    "state_id": "18",
    "state_name": "KADUNA",
    "location": {
      "latitude": 11.3566706,
      "longitude": 7.890413799999999,
      "viewport": {
        "northeast": {
          "lat": 11.35806082989272,
          "lng": 7.891963429892721
        },
        "southwest": {
          "lat": 11.35536117010728,
          "lng": 7.889263770107277
        }
      },
      "formatted_address": "9V4R+M5J, 812103, Makarfi, Nigeria",
      "google_map_url": "https://maps.google.com?q=11.3566706,7.890413799999999",
      "google_place_id": "ChIJC7JbJzmErRERpE1a_NLmS2I"
    }
  },
  {
    "id": "81911",
    "name": "ANG. KOFAR YAMMA",
    "registration_area_id": "4280",
    "precise_location": null,
    "abbreviation": "023",
    "units": "023",
    "delimitation": "18/18/03/023",
    "remark": "NEW PU",
    "ward_id": "4280",
    "ward_name": "GAZARA",
    "local_government_id": "364",
    "local_government_name": "MAKARFI",
    "state_id": "18",
    "state_name": "KADUNA",
    "location": {
      "latitude": 11.3484355,
      "longitude": 7.917299299999999,
      "viewport": {
        "northeast": {
          "lat": 11.34976957989272,
          "lng": 7.918661629892719
        },
        "southwest": {
          "lat": 11.34706992010728,
          "lng": 7.915961970107276
        }
      },
      "formatted_address": "Old Kano-Zaria Road Makarfi, Kaduna State Makarfi Kaduna NG, 800273, Nigeria",
      "google_map_url": "https://maps.google.com?q=11.3484355,7.917299299999999",
      "google_place_id": "ChIJmezrsNiFrRERWmX01qJ7CQ4"
    }
  },
  {
    "id": "81912",
    "name": "GANGARA TASHA",
    "registration_area_id": "4280",
    "precise_location": null,
    "abbreviation": "024",
    "units": "024",
    "delimitation": "18/18/03/024",
    "remark": "NEW PU",
    "ward_id": "4280",
    "ward_name": "GAZARA",
    "local_government_id": "364",
    "local_government_name": "MAKARFI",
    "state_id": "18",
    "state_name": "KADUNA",
    "location": {
      "latitude": 10.5078621,
      "longitude": 7.408421300000001,
      "viewport": {
        "northeast": {
          "lat": 10.50928757989272,
          "lng": 7.409872679892723
        },
        "southwest": {
          "lat": 10.50658792010728,
          "lng": 7.40717302010728
        }
      },
      "formatted_address": "BYE, BYE PASS, beside GUARANTY TRUST BANK, Tudun Wada 800282, Kaduna, Nigeria",
      "google_map_url": "https://maps.google.com?q=10.5078621,7.408421300000001",
      "google_place_id": "ChIJzcaO_Ns1TRARAslosKDbq1E"
    }
  },
  {
    "id": "81913",
    "name": "GANGARA GARI II/SOLAR BOREHOLE",
    "registration_area_id": "4280",
    "precise_location": null,
    "abbreviation": "025",
    "units": "025",
    "delimitation": "18/18/03/025",
    "remark": "NEW PU",
    "ward_id": "4280",
    "ward_name": "GAZARA",
    "local_government_id": "364",
    "local_government_name": "MAKARFI",
    "state_id": "18",
    "state_name": "KADUNA",
    "location": null
  },
  {
    "id": "81914",
    "name": "KADABO/PRI SCH. 2",
    "registration_area_id": "4280",
    "precise_location": null,
    "abbreviation": "026",
    "units": "026",
    "delimitation": "18/18/03/026",
    "remark": "NEW PU",
    "ward_id": "4280",
    "ward_name": "GAZARA",
    "local_government_id": "364",
    "local_government_name": "MAKARFI",
    "state_id": "18",
    "state_name": "KADUNA",
    "location": {
      "latitude": 11.4203716,
      "longitude": 7.9216661,
      "viewport": {
        "northeast": {
          "lat": 11.42181312989272,
          "lng": 7.922908179892721
        },
        "southwest": {
          "lat": 11.41911347010728,
          "lng": 7.920208520107277
        }
      },
      "formatted_address": "Kadabo Primary School, 812103, Ungwan Kadabo, Nigeria",
      "google_map_url": "https://maps.google.com?q=11.4203716,7.9216661",
      "google_place_id": "ChIJf6zsKYePrRERCdm1Jt5ozqI"
    }
  }
]