[
  {
    "id": "63741",
    "name": "OFOAZIRI PRI. SCH.",
    "registration_area_id": "3458",
    "precise_location": null,
    "abbreviation": "001",
    "units": "001",
    "delimitation": "16/09/11/001",
    "remark": "EXISTING PU",
    "ward_id": "3458",
    "ward_name": "UMUOZU",
    "local_government_id": "301",
    "local_government_name": "ISIALA MBANO (UMUELEMAI)",
    "state_id": "16",
    "state_name": "IMO",
    "location": {
      "latitude": 5.721299699999999,
      "longitude": 7.177406,
      "viewport": {
        "northeast": {
          "lat": 5.722664929892722,
          "lng": 7.178744979892723
        },
        "southwest": {
          "lat": 5.719965270107278,
          "lng": 7.176045320107279
        }
      },
      "formatted_address": "P5CG+FWX, 471123, Isiala Mbano, Nigeria",
      "google_map_url": "https://maps.google.com?q=5.721299699999999,7.177406",
      "google_place_id": "ChIJwRc4H40BQxARu-rB40NoH0I"
    }
  },
  {
    "id": "63742",
    "name": "COMM. SCHOOL UMUOZU",
    "registration_area_id": "3458",
    "precise_location": null,
    "abbreviation": "002",
    "units": "002",
    "delimitation": "16/09/11/002",
    "remark": "EXISTING PU",
    "ward_id": "3458",
    "ward_name": "UMUOZU",
    "local_government_id": "301",
    "local_government_name": "ISIALA MBANO (UMUELEMAI)",
    "state_id": "16",
    "state_name": "IMO",
    "location": {
      "latitude": 5.7190768,
      "longitude": 7.131267999999999,
      "viewport": {
        "northeast": {
          "lat": 5.720343079892722,
          "lng": 7.13274822989272
        },
        "southwest": {
          "lat": 5.717643420107278,
          "lng": 7.130048570107276
        }
      },
      "formatted_address": "P49J+JGC, 471125, Amaigbo, Nigeria",
      "google_map_url": "https://maps.google.com?q=5.7190768,7.131267999999999",
      "google_place_id": "ChIJa4cKG2gBQxARjY3xoAJcEvs"
    }
  },
  {
    "id": "63743",
    "name": "UMUOZU SEC. SCH.",
    "registration_area_id": "3458",
    "precise_location": null,
    "abbreviation": "003",
    "units": "003",
    "delimitation": "16/09/11/003",
    "remark": "EXISTING PU",
    "ward_id": "3458",
    "ward_name": "UMUOZU",
    "local_government_id": "301",
    "local_government_name": "ISIALA MBANO (UMUELEMAI)",
    "state_id": "16",
    "state_name": "IMO",
    "location": {
      "latitude": 5.6626864,
      "longitude": 7.198241299999999,
      "viewport": {
        "northeast": {
          "lat": 5.663907529892722,
          "lng": 7.199126229892722
        },
        "southwest": {
          "lat": 5.661207870107278,
          "lng": 7.196426570107278
        }
      },
      "formatted_address": "M57X+37H, 471104, Obolo, Nigeria",
      "google_map_url": "https://maps.google.com?q=5.6626864,7.198241299999999",
      "google_place_id": "ChIJV0PxMjD9QhARWqdHtAV9Pog"
    }
  },
  {
    "id": "63744",
    "name": "UMUEZEALAIRE HALL",
    "registration_area_id": "3458",
    "precise_location": null,
    "abbreviation": "004",
    "units": "004",
    "delimitation": "16/09/11/004",
    "remark": "EXISTING PU",
    "ward_id": "3458",
    "ward_name": "UMUOZU",
    "local_government_id": "301",
    "local_government_name": "ISIALA MBANO (UMUELEMAI)",
    "state_id": "16",
    "state_name": "IMO",
    "location": {
      "latitude": 5.6881863,
      "longitude": 7.1573197,
      "viewport": {
        "northeast": {
          "lat": 5.689651779892723,
          "lng": 7.158657729892721
        },
        "southwest": {
          "lat": 5.686952120107279,
          "lng": 7.155958070107277
        }
      },
      "formatted_address": "M5Q4+7W3, beside Ibezim Group Hospital Umuelemai, 471124, Isiala Mbano, Nigeria",
      "google_map_url": "https://maps.google.com?q=5.6881863,7.1573197",
      "google_place_id": "ChIJ287BJ0sBQxARYO91mTJb8Kg"
    }
  },
  {
    "id": "63745",
    "name": "UMUHIEOFO TOWN HALL",
    "registration_area_id": "3458",
    "precise_location": null,
    "abbreviation": "005",
    "units": "005",
    "delimitation": "16/09/11/005",
    "remark": "EXISTING PU",
    "ward_id": "3458",
    "ward_name": "UMUOZU",
    "local_government_id": "301",
    "local_government_name": "ISIALA MBANO (UMUELEMAI)",
    "state_id": "16",
    "state_name": "IMO",
    "location": {
      "latitude": 5.6881863,
      "longitude": 7.1573197,
      "viewport": {
        "northeast": {
          "lat": 5.689651779892723,
          "lng": 7.158657729892721
        },
        "southwest": {
          "lat": 5.686952120107279,
          "lng": 7.155958070107277
        }
      },
      "formatted_address": "M5Q4+7W3, beside Ibezim Group Hospital Umuelemai, 471124, Isiala Mbano, Nigeria",
      "google_map_url": "https://maps.google.com?q=5.6881863,7.1573197",
      "google_place_id": "ChIJ287BJ0sBQxARYO91mTJb8Kg"
    }
  },
  {
    "id": "63746",
    "name": "UMUCHOKO TOWN HALL",
    "registration_area_id": "3458",
    "precise_location": null,
    "abbreviation": "006",
    "units": "006",
    "delimitation": "16/09/11/006",
    "remark": "EXISTING PU",
    "ward_id": "3458",
    "ward_name": "UMUOZU",
    "local_government_id": "301",
    "local_government_name": "ISIALA MBANO (UMUELEMAI)",
    "state_id": "16",
    "state_name": "IMO",
    "location": {
      "latitude": 5.6144321,
      "longitude": 7.214055699999999,
      "viewport": {
        "northeast": {
          "lat": 5.635204900000001,
          "lng": 7.223303599999999
        },
        "southwest": {
          "lat": 5.6022346,
          "lng": 7.203772700000001
        }
      },
      "formatted_address": "Umuozu, Nigeria",
      "google_map_url": "https://maps.google.com?q=5.6144321,7.214055699999999",
      "google_place_id": "ChIJv313W2b8QhARpoBpn9wUM2o"
    }
  },
  {
    "id": "63747",
    "name": "UMUDURUOLUWE VILLAGE HALL",
    "registration_area_id": "3458",
    "precise_location": null,
    "abbreviation": "007",
    "units": "007",
    "delimitation": "16/09/11/007",
    "remark": "NEW PU",
    "ward_id": "3458",
    "ward_name": "UMUOZU",
    "local_government_id": "301",
    "local_government_name": "ISIALA MBANO (UMUELEMAI)",
    "state_id": "16",
    "state_name": "IMO",
    "location": {
      "latitude": 5.6881863,
      "longitude": 7.1573197,
      "viewport": {
        "northeast": {
          "lat": 5.689651779892723,
          "lng": 7.158657729892721
        },
        "southwest": {
          "lat": 5.686952120107279,
          "lng": 7.155958070107277
        }
      },
      "formatted_address": "M5Q4+7W3, beside Ibezim Group Hospital Umuelemai, 471124, Isiala Mbano, Nigeria",
      "google_map_url": "https://maps.google.com?q=5.6881863,7.1573197",
      "google_place_id": "ChIJ287BJ0sBQxARYO91mTJb8Kg"
    }
  }
]