[
  {
    "id": "7331",
    "name": "BABAL",
    "registration_area_id": "376",
    "precise_location": null,
    "abbreviation": "001",
    "units": "001",
    "delimitation": "02/18/09/001",
    "remark": "EXISTING PU",
    "ward_id": "376",
    "ward_name": "SONG WAJE",
    "local_government_id": "35",
    "local_government_name": "SONG",
    "state_id": "2",
    "state_name": "ADAMAWA",
    "location": null
  },
  {
    "id": "7332",
    "name": "BURTUM",
    "registration_area_id": "376",
    "precise_location": null,
    "abbreviation": "002",
    "units": "002",
    "delimitation": "02/18/09/002",
    "remark": "EXISTING PU",
    "ward_id": "376",
    "ward_name": "SONG WAJE",
    "local_government_id": "35",
    "local_government_name": "SONG",
    "state_id": "2",
    "state_name": "ADAMAWA",
    "location": {
      "latitude": 9.825752,
      "longitude": 12.61588,
      "viewport": {
        "northeast": {
          "lat": 9.82703932989272,
          "lng": 12.61697672989272
        },
        "southwest": {
          "lat": 9.824339670107276,
          "lng": 12.61427707010728
        }
      },
      "formatted_address": "Local Govt Area, 652106, Song, Nigeria",
      "google_map_url": "https://maps.google.com?q=9.825752,12.61588",
      "google_place_id": "ChIJNTRbVU2x_RARQwelp3pJ_QE"
    }
  },
  {
    "id": "7333",
    "name": "DIDANGO",
    "registration_area_id": "376",
    "precise_location": null,
    "abbreviation": "003",
    "units": "003",
    "delimitation": "02/18/09/003",
    "remark": "EXISTING PU",
    "ward_id": "376",
    "ward_name": "SONG WAJE",
    "local_government_id": "35",
    "local_government_name": "SONG",
    "state_id": "2",
    "state_name": "ADAMAWA",
    "location": {
      "latitude": 9.757895999999999,
      "longitude": 12.5298028,
      "viewport": {
        "northeast": {
          "lat": 10.0451485,
          "lng": 13.0925489
        },
        "southwest": {
          "lat": 9.5218932,
          "lng": 12.1932925
        }
      },
      "formatted_address": "Song, Nigeria",
      "google_map_url": "https://maps.google.com?q=9.757895999999999,12.5298028",
      "google_place_id": "ChIJQ4xP9Diu_RARfYKhEeUuP_g"
    }
  },
  {
    "id": "7334",
    "name": "GALAMBA",
    "registration_area_id": "376",
    "precise_location": null,
    "abbreviation": "004",
    "units": "004",
    "delimitation": "02/18/09/004",
    "remark": "EXISTING PU",
    "ward_id": "376",
    "ward_name": "SONG WAJE",
    "local_government_id": "35",
    "local_government_name": "SONG",
    "state_id": "2",
    "state_name": "ADAMAWA",
    "location": {
      "latitude": 9.825752,
      "longitude": 12.61588,
      "viewport": {
        "northeast": {
          "lat": 9.82703932989272,
          "lng": 12.61697672989272
        },
        "southwest": {
          "lat": 9.824339670107276,
          "lng": 12.61427707010728
        }
      },
      "formatted_address": "Local Govt Area, 652106, Song, Nigeria",
      "google_map_url": "https://maps.google.com?q=9.825752,12.61588",
      "google_place_id": "ChIJNTRbVU2x_RARQwelp3pJ_QE"
    }
  },
  {
    "id": "7335",
    "name": "GEWAN PRI. SCH.",
    "registration_area_id": "376",
    "precise_location": null,
    "abbreviation": "005",
    "units": "005",
    "delimitation": "02/18/09/005",
    "remark": "EXISTING PU",
    "ward_id": "376",
    "ward_name": "SONG WAJE",
    "local_government_id": "35",
    "local_government_name": "SONG",
    "state_id": "2",
    "state_name": "ADAMAWA",
    "location": {
      "latitude": 9.1953538,
      "longitude": 12.4818591,
      "viewport": {
        "northeast": {
          "lat": 9.196701179892722,
          "lng": 12.48326587989272
        },
        "southwest": {
          "lat": 9.194001520107278,
          "lng": 12.48056622010728
        }
      },
      "formatted_address": "5FWJ+4PX, Madumari 640284, Yola, Nigeria",
      "google_map_url": "https://maps.google.com?q=9.1953538,12.4818591",
      "google_place_id": "ChIJY3OYpf9s_BARTXBeuumv1HQ"
    }
  },
  {
    "id": "7336",
    "name": "KOFAR ARDO MURKE II",
    "registration_area_id": "376",
    "precise_location": null,
    "abbreviation": "006",
    "units": "006",
    "delimitation": "02/18/09/006",
    "remark": "EXISTING PU",
    "ward_id": "376",
    "ward_name": "SONG WAJE",
    "local_government_id": "35",
    "local_government_name": "SONG",
    "state_id": "2",
    "state_name": "ADAMAWA",
    "location": null
  },
  {
    "id": "7337",
    "name": "KOFAR ARDO MURKE II",
    "registration_area_id": "376",
    "precise_location": null,
    "abbreviation": "007",
    "units": "007",
    "delimitation": "02/18/09/007",
    "remark": "EXISTING PU",
    "ward_id": "376",
    "ward_name": "SONG WAJE",
    "local_government_id": "35",
    "local_government_name": "SONG",
    "state_id": "2",
    "state_name": "ADAMAWA",
    "location": null
  },
  {
    "id": "7338",
    "name": "KOFAR MAIRIGA",
    "registration_area_id": "376",
    "precise_location": null,
    "abbreviation": "008",
    "units": "008",
    "delimitation": "02/18/09/008",
    "remark": "EXISTING PU",
    "ward_id": "376",
    "ward_name": "SONG WAJE",
    "local_government_id": "35",
    "local_government_name": "SONG",
    "state_id": "2",
    "state_name": "ADAMAWA",
    "location": {
      "latitude": 9.8250993,
      "longitude": 12.6073128,
      "viewport": {
        "northeast": {
          "lat": 9.82644912989272,
          "lng": 12.60866262989272
        },
        "southwest": {
          "lat": 9.823749470107277,
          "lng": 12.60596297010727
        }
      },
      "formatted_address": "RJG4+2WP, 652106, Song, Nigeria",
      "google_map_url": "https://maps.google.com?q=9.8250993,12.6073128",
      "google_place_id": "ChIJ052_cHGx_RARnWCI2Oi4Dik"
    }
  },
  {
    "id": "7339",
    "name": "MUDUNGO",
    "registration_area_id": "376",
    "precise_location": null,
    "abbreviation": "009",
    "units": "009",
    "delimitation": "02/18/09/009",
    "remark": "EXISTING PU",
    "ward_id": "376",
    "ward_name": "SONG WAJE",
    "local_government_id": "35",
    "local_government_name": "SONG",
    "state_id": "2",
    "state_name": "ADAMAWA",
    "location": {
      "latitude": 9.757895999999999,
      "longitude": 12.5298028,
      "viewport": {
        "northeast": {
          "lat": 10.0451485,
          "lng": 13.0925489
        },
        "southwest": {
          "lat": 9.5218932,
          "lng": 12.1932925
        }
      },
      "formatted_address": "Song, Nigeria",
      "google_map_url": "https://maps.google.com?q=9.757895999999999,12.5298028",
      "google_place_id": "ChIJQ4xP9Diu_RARfYKhEeUuP_g"
    }
  },
  {
    "id": "7340",
    "name": "MULENG KURO",
    "registration_area_id": "376",
    "precise_location": null,
    "abbreviation": "010",
    "units": "010",
    "delimitation": "02/18/09/010",
    "remark": "EXISTING PU",
    "ward_id": "376",
    "ward_name": "SONG WAJE",
    "local_government_id": "35",
    "local_government_name": "SONG",
    "state_id": "2",
    "state_name": "ADAMAWA",
    "location": {
      "latitude": 9.8250993,
      "longitude": 12.6073128,
      "viewport": {
        "northeast": {
          "lat": 9.82644912989272,
          "lng": 12.60866262989272
        },
        "southwest": {
          "lat": 9.823749470107277,
          "lng": 12.60596297010727
        }
      },
      "formatted_address": "RJG4+2WP, 652106, Song, Nigeria",
      "google_map_url": "https://maps.google.com?q=9.8250993,12.6073128",
      "google_place_id": "ChIJ052_cHGx_RARnWCI2Oi4Dik"
    }
  },
  {
    "id": "7341",
    "name": "SAYEJO",
    "registration_area_id": "376",
    "precise_location": null,
    "abbreviation": "011",
    "units": "011",
    "delimitation": "02/18/09/011",
    "remark": "EXISTING PU",
    "ward_id": "376",
    "ward_name": "SONG WAJE",
    "local_government_id": "35",
    "local_government_name": "SONG",
    "state_id": "2",
    "state_name": "ADAMAWA",
    "location": {
      "latitude": 9.6541967,
      "longitude": 12.5570018,
      "viewport": {
        "northeast": {
          "lat": 9.656312999999999,
          "lng": 12.561602
        },
        "southwest": {
          "lat": 9.644924,
          "lng": 12.549102
        }
      },
      "formatted_address": "652102, Mulke Barikin Sayejo, Nigeria",
      "google_map_url": "https://maps.google.com?q=9.6541967,12.5570018",
      "google_place_id": "ChIJJQy2hPpM_BAReFN7lAiiJEM"
    }
  },
  {
    "id": "7342",
    "name": "WURO KONCHA",
    "registration_area_id": "376",
    "precise_location": null,
    "abbreviation": "012",
    "units": "012",
    "delimitation": "02/18/09/012",
    "remark": "EXISTING PU",
    "ward_id": "376",
    "ward_name": "SONG WAJE",
    "local_government_id": "35",
    "local_government_name": "SONG",
    "state_id": "2",
    "state_name": "ADAMAWA",
    "location": {
      "latitude": 9.797602,
      "longitude": 12.6624426,
      "viewport": {
        "northeast": {
          "lat": 9.798940829892722,
          "lng": 12.66378537989272
        },
        "southwest": {
          "lat": 9.796241170107278,
          "lng": 12.66108572010728
        }
      },
      "formatted_address": "652102, Wuro Koncha, Nigeria",
      "google_map_url": "https://maps.google.com?q=9.797602,12.6624426",
      "google_place_id": "ChIJ55Wfb6qv_RARqMU4163EdmA"
    }
  },
  {
    "id": "7343",
    "name": "WURO LAINDE I",
    "registration_area_id": "376",
    "precise_location": null,
    "abbreviation": "013",
    "units": "013",
    "delimitation": "02/18/09/013",
    "remark": "EXISTING PU",
    "ward_id": "376",
    "ward_name": "SONG WAJE",
    "local_government_id": "35",
    "local_government_name": "SONG",
    "state_id": "2",
    "state_name": "ADAMAWA",
    "location": {
      "latitude": 9.7317649,
      "longitude": 12.644587,
      "viewport": {
        "northeast": {
          "lat": 9.894718,
          "lng": 12.8061571
        },
        "southwest": {
          "lat": 9.551079699999999,
          "lng": 12.4685674
        }
      },
      "formatted_address": "Song Waje, Nigeria",
      "google_map_url": "https://maps.google.com?q=9.7317649,12.644587",
      "google_place_id": "ChIJkQ3o6ZCt_RARI-iLFLV13bY"
    }
  },
  {
    "id": "7344",
    "name": "WURO LAINDE II",
    "registration_area_id": "376",
    "precise_location": null,
    "abbreviation": "014",
    "units": "014",
    "delimitation": "02/18/09/014",
    "remark": "EXISTING PU",
    "ward_id": "376",
    "ward_name": "SONG WAJE",
    "local_government_id": "35",
    "local_government_name": "SONG",
    "state_id": "2",
    "state_name": "ADAMAWA",
    "location": {
      "latitude": 9.7317649,
      "longitude": 12.644587,
      "viewport": {
        "northeast": {
          "lat": 9.894718,
          "lng": 12.8061571
        },
        "southwest": {
          "lat": 9.551079699999999,
          "lng": 12.4685674
        }
      },
      "formatted_address": "Song Waje, Nigeria",
      "google_map_url": "https://maps.google.com?q=9.7317649,12.644587",
      "google_place_id": "ChIJkQ3o6ZCt_RARI-iLFLV13bY"
    }
  },
  {
    "id": "7345",
    "name": "MAMBURSO PRIMARY SCHOOL",
    "registration_area_id": "376",
    "precise_location": null,
    "abbreviation": "015",
    "units": "015",
    "delimitation": "02/18/09/015",
    "remark": "NEW PU",
    "ward_id": "376",
    "ward_name": "SONG WAJE",
    "local_government_id": "35",
    "local_government_name": "SONG",
    "state_id": "2",
    "state_name": "ADAMAWA",
    "location": {
      "latitude": 9.2847759,
      "longitude": 12.4237297,
      "viewport": {
        "northeast": {
          "lat": 9.286110729892723,
          "lng": 12.42505212989272
        },
        "southwest": {
          "lat": 9.28341107010728,
          "lng": 12.42235247010728
        }
      },
      "formatted_address": "Jambutu 640101, Jimeta, Nigeria",
      "google_map_url": "https://maps.google.com?q=9.2847759,12.4237297",
      "google_place_id": "ChIJq6qqqicV_BARqj8wsCd4HXo"
    }
  },
  {
    "id": "7346",
    "name": "MARARABAN DUMNE PRIMARY SCHOOL",
    "registration_area_id": "376",
    "precise_location": null,
    "abbreviation": "016",
    "units": "016",
    "delimitation": "02/18/09/016",
    "remark": "NEW PU",
    "ward_id": "376",
    "ward_name": "SONG WAJE",
    "local_government_id": "35",
    "local_government_name": "SONG",
    "state_id": "2",
    "state_name": "ADAMAWA",
    "location": {
      "latitude": 9.831612600000001,
      "longitude": 12.6222563,
      "viewport": {
        "northeast": {
          "lat": 9.832731929892722,
          "lng": 12.62345772989272
        },
        "southwest": {
          "lat": 9.830032270107278,
          "lng": 12.62075807010728
        }
      },
      "formatted_address": "RJJC+MV9, Unnamed Road, 652106, Song, Nigeria",
      "google_map_url": "https://maps.google.com?q=9.831612600000001,12.6222563",
      "google_place_id": "ChIJxdmSFi6v_RARhVdR1Yk_5TE"
    }
  },
  {
    "id": "7347",
    "name": "HAWA PRIMARY SCHOOL",
    "registration_area_id": "376",
    "precise_location": null,
    "abbreviation": "017",
    "units": "017",
    "delimitation": "02/18/09/017",
    "remark": "NEW PU",
    "ward_id": "376",
    "ward_name": "SONG WAJE",
    "local_government_id": "35",
    "local_government_name": "SONG",
    "state_id": "2",
    "state_name": "ADAMAWA",
    "location": {
      "latitude": 9.831612600000001,
      "longitude": 12.6222563,
      "viewport": {
        "northeast": {
          "lat": 9.832731929892722,
          "lng": 12.62345772989272
        },
        "southwest": {
          "lat": 9.830032270107278,
          "lng": 12.62075807010728
        }
      },
      "formatted_address": "RJJC+MV9, Unnamed Road, 652106, Song, Nigeria",
      "google_map_url": "https://maps.google.com?q=9.831612600000001,12.6222563",
      "google_place_id": "ChIJxdmSFi6v_RARhVdR1Yk_5TE"
    }
  },
  {
    "id": "7348",
    "name": "MULLENG KURO I OPEN SPACE",
    "registration_area_id": "376",
    "precise_location": null,
    "abbreviation": "018",
    "units": "018",
    "delimitation": "02/18/09/018",
    "remark": "NEW PU",
    "ward_id": "376",
    "ward_name": "SONG WAJE",
    "local_government_id": "35",
    "local_government_name": "SONG",
    "state_id": "2",
    "state_name": "ADAMAWA",
    "location": {
      "latitude": 9.825752,
      "longitude": 12.61588,
      "viewport": {
        "northeast": {
          "lat": 9.82703932989272,
          "lng": 12.61697672989272
        },
        "southwest": {
          "lat": 9.824339670107276,
          "lng": 12.61427707010728
        }
      },
      "formatted_address": "Local Govt Area, 652106, Song, Nigeria",
      "google_map_url": "https://maps.google.com?q=9.825752,12.61588",
      "google_place_id": "ChIJNTRbVU2x_RARQwelp3pJ_QE"
    }
  },
  {
    "id": "7349",
    "name": "MAYO DELMO PRIMARY SCHOOL",
    "registration_area_id": "376",
    "precise_location": null,
    "abbreviation": "019",
    "units": "019",
    "delimitation": "02/18/09/019",
    "remark": "NEW PU",
    "ward_id": "376",
    "ward_name": "SONG WAJE",
    "local_government_id": "35",
    "local_government_name": "SONG",
    "state_id": "2",
    "state_name": "ADAMAWA",
    "location": {
      "latitude": 9.0620104,
      "longitude": 12.0535389,
      "viewport": {
        "northeast": {
          "lat": 9.063488429892722,
          "lng": 12.05489912989272
        },
        "southwest": {
          "lat": 9.060788770107278,
          "lng": 12.05219947010728
        }
      },
      "formatted_address": "3363+RC3, 641102, Mayo Belwa, Nigeria",
      "google_map_url": "https://maps.google.com?q=9.0620104,12.0535389",
      "google_place_id": "ChIJUUVgvBaq_hARRkaI6QJkKxM"
    }
  },
  {
    "id": "7350",
    "name": "KANGTA HAUSA BORE HOLE OPEN SPACE",
    "registration_area_id": "376",
    "precise_location": null,
    "abbreviation": "020",
    "units": "020",
    "delimitation": "02/18/09/020",
    "remark": "NEW PU",
    "ward_id": "376",
    "ward_name": "SONG WAJE",
    "local_government_id": "35",
    "local_government_name": "SONG",
    "state_id": "2",
    "state_name": "ADAMAWA",
    "location": null
  }
]