[
  {
    "id": "32559",
    "name": "ALI GAMBORI",
    "registration_area_id": "1765",
    "precise_location": null,
    "abbreviation": "001",
    "units": "001",
    "delimitation": "08/10/08/001",
    "remark": "EXISTING PU",
    "ward_id": "1765",
    "ward_name": "MAIRARI",
    "local_government_id": "151",
    "local_government_name": "GUZAMALA",
    "state_id": "8",
    "state_name": "BORNO",
    "location": {
      "latitude": 12.6412699,
      "longitude": 13.3950139,
      "viewport": {
        "northeast": {
          "lat": 12.64266282989272,
          "lng": 13.39642427989272
        },
        "southwest": {
          "lat": 12.63996317010728,
          "lng": 13.39372462010728
        }
      },
      "formatted_address": "612102, Ali Gambori Gana, Nigeria",
      "google_map_url": "https://maps.google.com?q=12.6412699,13.3950139",
      "google_place_id": "ChIJM89ExtAvBRERH3p6BZDTrzg"
    }
  },
  {
    "id": "32560",
    "name": "GONI ABBARI",
    "registration_area_id": "1765",
    "precise_location": null,
    "abbreviation": "002",
    "units": "002",
    "delimitation": "08/10/08/002",
    "remark": "EXISTING PU",
    "ward_id": "1765",
    "ward_name": "MAIRARI",
    "local_government_id": "151",
    "local_government_name": "GUZAMALA",
    "state_id": "8",
    "state_name": "BORNO",
    "location": {
      "latitude": 12.6685503,
      "longitude": 13.4280586,
      "viewport": {
        "northeast": {
          "lat": 12.8177428,
          "lng": 13.5243289
        },
        "southwest": {
          "lat": 12.5811299,
          "lng": 13.3263191
        }
      },
      "formatted_address": "Mairari, Nigeria",
      "google_map_url": "https://maps.google.com?q=12.6685503,13.4280586",
      "google_place_id": "ChIJxU-p_wwxBRERcUlaLMzX-pM"
    }
  },
  {
    "id": "32561",
    "name": "KADIGRE",
    "registration_area_id": "1765",
    "precise_location": null,
    "abbreviation": "003",
    "units": "003",
    "delimitation": "08/10/08/003",
    "remark": "EXISTING PU",
    "ward_id": "1765",
    "ward_name": "MAIRARI",
    "local_government_id": "151",
    "local_government_name": "GUZAMALA",
    "state_id": "8",
    "state_name": "BORNO",
    "location": {
      "latitude": 12.6685503,
      "longitude": 13.4280586,
      "viewport": {
        "northeast": {
          "lat": 12.8177428,
          "lng": 13.5243289
        },
        "southwest": {
          "lat": 12.5811299,
          "lng": 13.3263191
        }
      },
      "formatted_address": "Mairari, Nigeria",
      "google_map_url": "https://maps.google.com?q=12.6685503,13.4280586",
      "google_place_id": "ChIJxU-p_wwxBRERcUlaLMzX-pM"
    }
  },
  {
    "id": "32562",
    "name": "GONI USMANTI",
    "registration_area_id": "1765",
    "precise_location": null,
    "abbreviation": "004",
    "units": "004",
    "delimitation": "08/10/08/004",
    "remark": "EXISTING PU",
    "ward_id": "1765",
    "ward_name": "MAIRARI",
    "local_government_id": "151",
    "local_government_name": "GUZAMALA",
    "state_id": "8",
    "state_name": "BORNO",
    "location": {
      "latitude": 11.8470382,
      "longitude": 13.149646,
      "viewport": {
        "northeast": {
          "lat": 11.84812472989272,
          "lng": 13.15109947989272
        },
        "southwest": {
          "lat": 11.84542507010728,
          "lng": 13.14839982010728
        }
      },
      "formatted_address": "R4WX+RV6, Mafoni 600282, Maiduguri, Nigeria",
      "google_map_url": "https://maps.google.com?q=11.8470382,13.149646",
      "google_place_id": "ChIJ4Z5fCeWfBBER-fjLvDtxohY"
    }
  },
  {
    "id": "32563",
    "name": "MAIRARI I",
    "registration_area_id": "1765",
    "precise_location": null,
    "abbreviation": "005",
    "units": "005",
    "delimitation": "08/10/08/005",
    "remark": "EXISTING PU",
    "ward_id": "1765",
    "ward_name": "MAIRARI",
    "local_government_id": "151",
    "local_government_name": "GUZAMALA",
    "state_id": "8",
    "state_name": "BORNO",
    "location": {
      "latitude": 12.6685503,
      "longitude": 13.4280586,
      "viewport": {
        "northeast": {
          "lat": 12.8177428,
          "lng": 13.5243289
        },
        "southwest": {
          "lat": 12.5811299,
          "lng": 13.3263191
        }
      },
      "formatted_address": "Mairari, Nigeria",
      "google_map_url": "https://maps.google.com?q=12.6685503,13.4280586",
      "google_place_id": "ChIJxU-p_wwxBRERcUlaLMzX-pM"
    }
  },
  {
    "id": "32564",
    "name": "MAIRARI  II",
    "registration_area_id": "1765",
    "precise_location": null,
    "abbreviation": "006",
    "units": "006",
    "delimitation": "08/10/08/006",
    "remark": "EXISTING PU",
    "ward_id": "1765",
    "ward_name": "MAIRARI",
    "local_government_id": "151",
    "local_government_name": "GUZAMALA",
    "state_id": "8",
    "state_name": "BORNO",
    "location": {
      "latitude": 12.6685503,
      "longitude": 13.4280586,
      "viewport": {
        "northeast": {
          "lat": 12.8177428,
          "lng": 13.5243289
        },
        "southwest": {
          "lat": 12.5811299,
          "lng": 13.3263191
        }
      },
      "formatted_address": "Mairari, Nigeria",
      "google_map_url": "https://maps.google.com?q=12.6685503,13.4280586",
      "google_place_id": "ChIJxU-p_wwxBRERcUlaLMzX-pM"
    }
  },
  {
    "id": "32565",
    "name": "KINGARWA GANA",
    "registration_area_id": "1765",
    "precise_location": null,
    "abbreviation": "007",
    "units": "007",
    "delimitation": "08/10/08/007",
    "remark": "EXISTING PU",
    "ward_id": "1765",
    "ward_name": "MAIRARI",
    "local_government_id": "151",
    "local_government_name": "GUZAMALA",
    "state_id": "8",
    "state_name": "BORNO",
    "location": null
  },
  {
    "id": "32566",
    "name": "AL-AJARI",
    "registration_area_id": "1765",
    "precise_location": null,
    "abbreviation": "008",
    "units": "008",
    "delimitation": "08/10/08/008",
    "remark": "NEW PU",
    "ward_id": "1765",
    "ward_name": "MAIRARI",
    "local_government_id": "151",
    "local_government_name": "GUZAMALA",
    "state_id": "8",
    "state_name": "BORNO",
    "location": null
  },
  {
    "id": "32567",
    "name": "MAIRARI DISPENSARY",
    "registration_area_id": "1765",
    "precise_location": null,
    "abbreviation": "009",
    "units": "009",
    "delimitation": "08/10/08/009",
    "remark": "NEW PU",
    "ward_id": "1765",
    "ward_name": "MAIRARI",
    "local_government_id": "151",
    "local_government_name": "GUZAMALA",
    "state_id": "8",
    "state_name": "BORNO",
    "location": {
      "latitude": 11.8306984,
      "longitude": 13.0847056,
      "viewport": {
        "northeast": {
          "lat": 11.83179627989272,
          "lng": 13.08615297989272
        },
        "southwest": {
          "lat": 11.82909662010728,
          "lng": 13.08345332010728
        }
      },
      "formatted_address": "R3JM+7VG, 600104, Maiduguri, Nigeria",
      "google_map_url": "https://maps.google.com?q=11.8306984,13.0847056",
      "google_place_id": "ChIJ-ckB-J6eBBERAXxpBMsMiDM"
    }
  },
  {
    "id": "32568",
    "name": "YURAMTI",
    "registration_area_id": "1765",
    "precise_location": null,
    "abbreviation": "010",
    "units": "010",
    "delimitation": "08/10/08/010",
    "remark": "NEW PU",
    "ward_id": "1765",
    "ward_name": "MAIRARI",
    "local_government_id": "151",
    "local_government_name": "GUZAMALA",
    "state_id": "8",
    "state_name": "BORNO",
    "location": {
      "latitude": 12.6685503,
      "longitude": 13.4280586,
      "viewport": {
        "northeast": {
          "lat": 12.8177428,
          "lng": 13.5243289
        },
        "southwest": {
          "lat": 12.5811299,
          "lng": 13.3263191
        }
      },
      "formatted_address": "Mairari, Nigeria",
      "google_map_url": "https://maps.google.com?q=12.6685503,13.4280586",
      "google_place_id": "ChIJxU-p_wwxBRERcUlaLMzX-pM"
    }
  }
]