[
  {
    "id": "351147",
    "name": "ERUKU HALL I",
    "registration_area_id": "17933",
    "precise_location": null,
    "abbreviation": "001",
    "units": "001",
    "delimitation": "29/22/09/001",
    "remark": "EXISTING PU",
    "ward_id": "17933",
    "ward_name": "OOSA ADIFA",
    "local_government_id": "619",
    "local_government_name": "ISOKAN",
    "state_id": "29",
    "state_name": "OSUN",
    "location": {
      "latitude": 7.781093599999998,
      "longitude": 4.5544454,
      "viewport": {
        "northeast": {
          "lat": 7.782395079892721,
          "lng": 4.555808429892721
        },
        "southwest": {
          "lat": 7.779695420107277,
          "lng": 4.553108770107277
        }
      },
      "formatted_address": "QHJ3+CQP, Obafemi Awolowo Way, 230103, Osogbo, Nigeria",
      "google_map_url": "https://maps.google.com?q=7.781093599999998,4.5544454",
      "google_place_id": "ChIJBZ4zmeeHNxARoR7gNSaOL1k"
    }
  },
  {
    "id": "351148",
    "name": "ERUKU HALL II",
    "registration_area_id": "17933",
    "precise_location": null,
    "abbreviation": "002",
    "units": "002",
    "delimitation": "29/22/09/002",
    "remark": "EXISTING PU",
    "ward_id": "17933",
    "ward_name": "OOSA ADIFA",
    "local_government_id": "619",
    "local_government_name": "ISOKAN",
    "state_id": "29",
    "state_name": "OSUN",
    "location": null
  },
  {
    "id": "351149",
    "name": "OOSA EKANADE",
    "registration_area_id": "17933",
    "precise_location": null,
    "abbreviation": "003",
    "units": "003",
    "delimitation": "29/22/09/003",
    "remark": "EXISTING PU",
    "ward_id": "17933",
    "ward_name": "OOSA ADIFA",
    "local_government_id": "619",
    "local_government_name": "ISOKAN",
    "state_id": "29",
    "state_name": "OSUN",
    "location": null
  },
  {
    "id": "351150",
    "name": "EJEMU HALL",
    "registration_area_id": "17933",
    "precise_location": null,
    "abbreviation": "004",
    "units": "004",
    "delimitation": "29/22/09/004",
    "remark": "EXISTING PU",
    "ward_id": "17933",
    "ward_name": "OOSA ADIFA",
    "local_government_id": "619",
    "local_government_name": "ISOKAN",
    "state_id": "29",
    "state_name": "OSUN",
    "location": {
      "latitude": 7.355064899999999,
      "longitude": 4.177781,
      "viewport": {
        "northeast": {
          "lat": 7.35641472989272,
          "lng": 4.179130829892722
        },
        "southwest": {
          "lat": 7.353715070107277,
          "lng": 4.176431170107278
        }
      },
      "formatted_address": "Oluso, 221105, Ikire, Nigeria",
      "google_map_url": "https://maps.google.com?q=7.355064899999999,4.177781",
      "google_place_id": "ChIJa4CJXRO5ORARuWsCYEVznTE"
    }
  },
  {
    "id": "351151",
    "name": "ARO OLADELE",
    "registration_area_id": "17933",
    "precise_location": null,
    "abbreviation": "005",
    "units": "005",
    "delimitation": "29/22/09/005",
    "remark": "EXISTING PU",
    "ward_id": "17933",
    "ward_name": "OOSA ADIFA",
    "local_government_id": "619",
    "local_government_name": "ISOKAN",
    "state_id": "29",
    "state_name": "OSUN",
    "location": {
      "latitude": 7.6533669,
      "longitude": 4.8154938,
      "viewport": {
        "northeast": {
          "lat": 7.65458897989272,
          "lng": 4.816833679892722
        },
        "southwest": {
          "lat": 7.651889320107276,
          "lng": 4.814134020107278
        }
      },
      "formatted_address": "Oba Oladele Olashore Way, P.M.B.5059, 233116, Iloko-Ijesa, Nigeria",
      "google_map_url": "https://maps.google.com?q=7.6533669,4.8154938",
      "google_place_id": "ChIJ_5k7beEbOBARkbPEpd_JEag"
    }
  },
  {
    "id": "351152",
    "name": "BODUDE AREA",
    "registration_area_id": "17933",
    "precise_location": null,
    "abbreviation": "006",
    "units": "006",
    "delimitation": "29/22/09/006",
    "remark": "EXISTING PU",
    "ward_id": "17933",
    "ward_name": "OOSA ADIFA",
    "local_government_id": "619",
    "local_government_name": "ISOKAN",
    "state_id": "29",
    "state_name": "OSUN",
    "location": {
      "latitude": 7.233867800000001,
      "longitude": 4.2556081,
      "viewport": {
        "northeast": {
          "lat": 7.2353,
          "lng": 4.256423
        },
        "southwest": {
          "lat": 7.2277,
          "lng": 4.251314
        }
      },
      "formatted_address": "221102, Bodude, Nigeria",
      "google_map_url": "https://maps.google.com?q=7.233867800000001,4.2556081",
      "google_place_id": "ChIJR8x7eMKvORARE2F2m_37FNA"
    }
  },
  {
    "id": "351153",
    "name": "OPEN SPACE, IRAYE, APOMU",
    "registration_area_id": "17933",
    "precise_location": null,
    "abbreviation": "007",
    "units": "007",
    "delimitation": "29/22/09/007",
    "remark": "NEW PU",
    "ward_id": "17933",
    "ward_name": "OOSA ADIFA",
    "local_government_id": "619",
    "local_government_name": "ISOKAN",
    "state_id": "29",
    "state_name": "OSUN",
    "location": {
      "latitude": 7.3484488,
      "longitude": 4.1871735,
      "viewport": {
        "northeast": {
          "lat": 7.349787529892722,
          "lng": 4.188535329892722
        },
        "southwest": {
          "lat": 7.347087870107278,
          "lng": 4.185835670107278
        }
      },
      "formatted_address": "85XP+9VF, Yidi Area, 221105, Apomu, Nigeria",
      "google_map_url": "https://maps.google.com?q=7.3484488,4.1871735",
      "google_place_id": "ChIJAQAAAHS5ORAR5OeltmG2Ywo"
    }
  },
  {
    "id": "351154",
    "name": "OPEN SPACE, LAGBADA APOMU",
    "registration_area_id": "17933",
    "precise_location": null,
    "abbreviation": "008",
    "units": "008",
    "delimitation": "29/22/09/008",
    "remark": "NEW PU",
    "ward_id": "17933",
    "ward_name": "OOSA ADIFA",
    "local_government_id": "619",
    "local_government_name": "ISOKAN",
    "state_id": "29",
    "state_name": "OSUN",
    "location": {
      "latitude": 7.3484488,
      "longitude": 4.1871735,
      "viewport": {
        "northeast": {
          "lat": 7.349787529892722,
          "lng": 4.188535329892722
        },
        "southwest": {
          "lat": 7.347087870107278,
          "lng": 4.185835670107278
        }
      },
      "formatted_address": "85XP+9VF, Yidi Area, 221105, Apomu, Nigeria",
      "google_map_url": "https://maps.google.com?q=7.3484488,4.1871735",
      "google_place_id": "ChIJAQAAAHS5ORAR5OeltmG2Ywo"
    }
  },
  {
    "id": "351155",
    "name": "OPEN SPACE, LABU",
    "registration_area_id": "17933",
    "precise_location": null,
    "abbreviation": "009",
    "units": "009",
    "delimitation": "29/22/09/009",
    "remark": "NEW PU",
    "ward_id": "17933",
    "ward_name": "OOSA ADIFA",
    "local_government_id": "619",
    "local_government_name": "ISOKAN",
    "state_id": "29",
    "state_name": "OSUN",
    "location": {
      "latitude": 7.4989964,
      "longitude": 3.9486295,
      "viewport": {
        "northeast": {
          "lat": 7.500400029892722,
          "lng": 3.949984029892722
        },
        "southwest": {
          "lat": 7.497700370107278,
          "lng": 3.947284370107278
        }
      },
      "formatted_address": "FWXX+JF5 Dominion Quarters, Arulogun Road, off Omilabu, 200132, Ibadan, Nigeria",
      "google_map_url": "https://maps.google.com?q=7.4989964,3.9486295",
      "google_place_id": "ChIJsbZXFw7tORARB5zNhF8gczg"
    }
  },
  {
    "id": "351156",
    "name": "OPEN SPACE, AAGBERI OPPOSITE PROJECT HALL APOMU",
    "registration_area_id": "17933",
    "precise_location": null,
    "abbreviation": "010",
    "units": "010",
    "delimitation": "29/22/09/010",
    "remark": "NEW PU",
    "ward_id": "17933",
    "ward_name": "OOSA ADIFA",
    "local_government_id": "619",
    "local_government_name": "ISOKAN",
    "state_id": "29",
    "state_name": "OSUN",
    "location": {
      "latitude": 7.354668299999999,
      "longitude": 4.177446,
      "viewport": {
        "northeast": {
          "lat": 7.355994729892722,
          "lng": 4.178837829892722
        },
        "southwest": {
          "lat": 7.353295070107278,
          "lng": 4.176138170107278
        }
      },
      "formatted_address": "5 Quarry Area, 221105, Apomu, Nigeria",
      "google_map_url": "https://maps.google.com?q=7.354668299999999,4.177446",
      "google_place_id": "ChIJc40xdvu5ORARXGLReIuxJcI"
    }
  },
  {
    "id": "351157",
    "name": "OPEN SPACE ALARAN AREA, APOMU",
    "registration_area_id": "17933",
    "precise_location": null,
    "abbreviation": "011",
    "units": "011",
    "delimitation": "29/22/09/011",
    "remark": "NEW PU",
    "ward_id": "17933",
    "ward_name": "OOSA ADIFA",
    "local_government_id": "619",
    "local_government_name": "ISOKAN",
    "state_id": "29",
    "state_name": "OSUN",
    "location": {
      "latitude": 7.348599999999999,
      "longitude": 4.187037999999999,
      "viewport": {
        "northeast": {
          "lat": 7.349864779892722,
          "lng": 4.188479579892721
        },
        "southwest": {
          "lat": 7.347165120107278,
          "lng": 4.185779920107277
        }
      },
      "formatted_address": "85XP+CRV, Quary Area, Opposite Solex House, Isokan, Local Government Area, 234035, Apomu, Nigeria",
      "google_map_url": "https://maps.google.com?q=7.348599999999999,4.187037999999999",
      "google_place_id": "ChIJQ63-_nO5ORARm82eWVqOy-M"
    }
  }
]