[
  {
    "id": "3180",
    "name": "CENTRAL SCHOOL OHURU - OHURU  I",
    "registration_area_id": "139",
    "precise_location": null,
    "abbreviation": "001",
    "units": "001",
    "delimitation": "01/13/09/001",
    "remark": "EXISTING PU",
    "ward_id": "139",
    "ward_name": "NKPOROBE/OHURU",
    "local_government_id": "13",
    "local_government_name": "UKWA EAST",
    "state_id": "1",
    "state_name": "ABIA",
    "location": {
      "latitude": 4.9687389,
      "longitude": 7.3695579,
      "viewport": {
        "northeast": {
          "lat": 4.970088729892722,
          "lng": 7.370907729892722
        },
        "southwest": {
          "lat": 4.967389070107278,
          "lng": 7.368208070107278
        }
      },
      "formatted_address": "X999+FRV, Obohia Rd, 452104, Ndoki, Nigeria",
      "google_map_url": "https://maps.google.com?q=4.9687389,7.3695579",
      "google_place_id": "ChIJPfazqOchaBARvdc22JPB9zk"
    }
  },
  {
    "id": "3181",
    "name": "UKEBE VILLAGE HALL - OHURU  II",
    "registration_area_id": "139",
    "precise_location": null,
    "abbreviation": "002",
    "units": "002",
    "delimitation": "01/13/09/002",
    "remark": "EXISTING PU",
    "ward_id": "139",
    "ward_name": "NKPOROBE/OHURU",
    "local_government_id": "13",
    "local_government_name": "UKWA EAST",
    "state_id": "1",
    "state_name": "ABIA",
    "location": {
      "latitude": 4.889575499999999,
      "longitude": 7.357136300000001,
      "viewport": {
        "northeast": {
          "lat": 4.890829029892722,
          "lng": 7.358492079892722
        },
        "southwest": {
          "lat": 4.888129370107278,
          "lng": 7.355792420107278
        }
      },
      "formatted_address": "Road, 452103, Akwete, Nigeria",
      "google_map_url": "https://maps.google.com?q=4.889575499999999,7.357136300000001",
      "google_place_id": "ChIJ1T4u0TQjaBARmDPdP6oB5rY"
    }
  },
  {
    "id": "3182",
    "name": "OSUGWU VILLAGE HALL - OHURU  III",
    "registration_area_id": "139",
    "precise_location": null,
    "abbreviation": "003",
    "units": "003",
    "delimitation": "01/13/09/003",
    "remark": "EXISTING PU",
    "ward_id": "139",
    "ward_name": "NKPOROBE/OHURU",
    "local_government_id": "13",
    "local_government_name": "UKWA EAST",
    "state_id": "1",
    "state_name": "ABIA",
    "location": {
      "latitude": 4.889575499999999,
      "longitude": 7.357136300000001,
      "viewport": {
        "northeast": {
          "lat": 4.890829029892722,
          "lng": 7.358492079892722
        },
        "southwest": {
          "lat": 4.888129370107278,
          "lng": 7.355792420107278
        }
      },
      "formatted_address": "Road, 452103, Akwete, Nigeria",
      "google_map_url": "https://maps.google.com?q=4.889575499999999,7.357136300000001",
      "google_place_id": "ChIJ1T4u0TQjaBARmDPdP6oB5rY"
    }
  },
  {
    "id": "3183",
    "name": "OBOZU VILLAGE HALL - OBOZU",
    "registration_area_id": "139",
    "precise_location": null,
    "abbreviation": "004",
    "units": "004",
    "delimitation": "01/13/09/004",
    "remark": "EXISTING PU",
    "ward_id": "139",
    "ward_name": "NKPOROBE/OHURU",
    "local_government_id": "13",
    "local_government_name": "UKWA EAST",
    "state_id": "1",
    "state_name": "ABIA",
    "location": {
      "latitude": 4.9845587,
      "longitude": 7.3258611,
      "viewport": {
        "northeast": {
          "lat": 4.985896729892721,
          "lng": 7.32714002989272
        },
        "southwest": {
          "lat": 4.983197070107277,
          "lng": 7.324440370107276
        }
      },
      "formatted_address": "X8MG+Q8M, 453120, Obehie, Nigeria",
      "google_map_url": "https://maps.google.com?q=4.9845587,7.3258611",
      "google_place_id": "ChIJxwO7bRknaBAR6r0XhP5ObFQ"
    }
  },
  {
    "id": "3184",
    "name": "OBEGU CPS - OBEGU  I",
    "registration_area_id": "139",
    "precise_location": null,
    "abbreviation": "005",
    "units": "005",
    "delimitation": "01/13/09/005",
    "remark": "EXISTING PU",
    "ward_id": "139",
    "ward_name": "NKPOROBE/OHURU",
    "local_government_id": "13",
    "local_government_name": "UKWA EAST",
    "state_id": "1",
    "state_name": "ABIA",
    "location": {
      "latitude": 4.9845587,
      "longitude": 7.3258611,
      "viewport": {
        "northeast": {
          "lat": 4.985896729892721,
          "lng": 7.32714002989272
        },
        "southwest": {
          "lat": 4.983197070107277,
          "lng": 7.324440370107276
        }
      },
      "formatted_address": "X8MG+Q8M, 453120, Obehie, Nigeria",
      "google_map_url": "https://maps.google.com?q=4.9845587,7.3258611",
      "google_place_id": "ChIJxwO7bRknaBAR6r0XhP5ObFQ"
    }
  },
  {
    "id": "3185",
    "name": "UMUOPARA VILLAGE HALL  - OBEGU  II",
    "registration_area_id": "139",
    "precise_location": null,
    "abbreviation": "006",
    "units": "006",
    "delimitation": "01/13/09/006",
    "remark": "EXISTING PU",
    "ward_id": "139",
    "ward_name": "NKPOROBE/OHURU",
    "local_government_id": "13",
    "local_government_name": "UKWA EAST",
    "state_id": "1",
    "state_name": "ABIA",
    "location": {
      "latitude": 4.889575499999999,
      "longitude": 7.357136300000001,
      "viewport": {
        "northeast": {
          "lat": 4.890829029892722,
          "lng": 7.358492079892722
        },
        "southwest": {
          "lat": 4.888129370107278,
          "lng": 7.355792420107278
        }
      },
      "formatted_address": "Road, 452103, Akwete, Nigeria",
      "google_map_url": "https://maps.google.com?q=4.889575499999999,7.357136300000001",
      "google_place_id": "ChIJ1T4u0TQjaBARmDPdP6oB5rY"
    }
  },
  {
    "id": "3186",
    "name": "UKEBE VILLAGE HALL - OHURU  IV",
    "registration_area_id": "139",
    "precise_location": null,
    "abbreviation": "007",
    "units": "007",
    "delimitation": "01/13/09/007",
    "remark": "EXISTING PU",
    "ward_id": "139",
    "ward_name": "NKPOROBE/OHURU",
    "local_government_id": "13",
    "local_government_name": "UKWA EAST",
    "state_id": "1",
    "state_name": "ABIA",
    "location": {
      "latitude": 4.889575499999999,
      "longitude": 7.357136300000001,
      "viewport": {
        "northeast": {
          "lat": 4.890829029892722,
          "lng": 7.358492079892722
        },
        "southwest": {
          "lat": 4.888129370107278,
          "lng": 7.355792420107278
        }
      },
      "formatted_address": "Road, 452103, Akwete, Nigeria",
      "google_map_url": "https://maps.google.com?q=4.889575499999999,7.357136300000001",
      "google_place_id": "ChIJ1T4u0TQjaBARmDPdP6oB5rY"
    }
  },
  {
    "id": "3187",
    "name": "UMUOKARA VILLAGE HALL",
    "registration_area_id": "139",
    "precise_location": null,
    "abbreviation": "008",
    "units": "008",
    "delimitation": "01/13/09/008",
    "remark": "NEW PU",
    "ward_id": "139",
    "ward_name": "NKPOROBE/OHURU",
    "local_government_id": "13",
    "local_government_name": "UKWA EAST",
    "state_id": "1",
    "state_name": "ABIA",
    "location": {
      "latitude": 4.889575499999999,
      "longitude": 7.357136300000001,
      "viewport": {
        "northeast": {
          "lat": 4.890829029892722,
          "lng": 7.358492079892722
        },
        "southwest": {
          "lat": 4.888129370107278,
          "lng": 7.355792420107278
        }
      },
      "formatted_address": "Road, 452103, Akwete, Nigeria",
      "google_map_url": "https://maps.google.com?q=4.889575499999999,7.357136300000001",
      "google_place_id": "ChIJ1T4u0TQjaBARmDPdP6oB5rY"
    }
  },
  {
    "id": "3188",
    "name": "UMUODOMBA VILLAGE HALL",
    "registration_area_id": "139",
    "precise_location": null,
    "abbreviation": "009",
    "units": "009",
    "delimitation": "01/13/09/009",
    "remark": "NEW PU",
    "ward_id": "139",
    "ward_name": "NKPOROBE/OHURU",
    "local_government_id": "13",
    "local_government_name": "UKWA EAST",
    "state_id": "1",
    "state_name": "ABIA",
    "location": {
      "latitude": 4.9561272,
      "longitude": 7.3648256,
      "viewport": {
        "northeast": {
          "lat": 4.957498529892722,
          "lng": 7.366152329892722
        },
        "southwest": {
          "lat": 4.954798870107278,
          "lng": 7.363452670107278
        }
      },
      "formatted_address": "X947+FW4, Umuodo Ohuru Ndoki, Ohuru, Nigeria",
      "google_map_url": "https://maps.google.com?q=4.9561272,7.3648256",
      "google_place_id": "ChIJCzdTgUchaBARJ-NLY64ZoKk"
    }
  },
  {
    "id": "3189",
    "name": "UMUODARA VILLAGE HALL",
    "registration_area_id": "139",
    "precise_location": null,
    "abbreviation": "010",
    "units": "010",
    "delimitation": "01/13/09/010",
    "remark": "NEW PU",
    "ward_id": "139",
    "ward_name": "NKPOROBE/OHURU",
    "local_government_id": "13",
    "local_government_name": "UKWA EAST",
    "state_id": "1",
    "state_name": "ABIA",
    "location": {
      "latitude": 4.889575499999999,
      "longitude": 7.357136300000001,
      "viewport": {
        "northeast": {
          "lat": 4.890829029892722,
          "lng": 7.358492079892722
        },
        "southwest": {
          "lat": 4.888129370107278,
          "lng": 7.355792420107278
        }
      },
      "formatted_address": "Road, 452103, Akwete, Nigeria",
      "google_map_url": "https://maps.google.com?q=4.889575499999999,7.357136300000001",
      "google_place_id": "ChIJ1T4u0TQjaBARmDPdP6oB5rY"
    }
  },
  {
    "id": "3190",
    "name": "UMUISO VILLAGE HALL, MKPOROBE",
    "registration_area_id": "139",
    "precise_location": null,
    "abbreviation": "011",
    "units": "011",
    "delimitation": "01/13/09/011",
    "remark": "NEW PU",
    "ward_id": "139",
    "ward_name": "NKPOROBE/OHURU",
    "local_government_id": "13",
    "local_government_name": "UKWA EAST",
    "state_id": "1",
    "state_name": "ABIA",
    "location": {
      "latitude": 4.889575499999999,
      "longitude": 7.357136300000001,
      "viewport": {
        "northeast": {
          "lat": 4.890829029892722,
          "lng": 7.358492079892722
        },
        "southwest": {
          "lat": 4.888129370107278,
          "lng": 7.355792420107278
        }
      },
      "formatted_address": "Road, 452103, Akwete, Nigeria",
      "google_map_url": "https://maps.google.com?q=4.889575499999999,7.357136300000001",
      "google_place_id": "ChIJ1T4u0TQjaBARmDPdP6oB5rY"
    }
  },
  {
    "id": "3191",
    "name": "COMMUNITY PRIMARY SCHOOL, OBOZU",
    "registration_area_id": "139",
    "precise_location": null,
    "abbreviation": "012",
    "units": "012",
    "delimitation": "01/13/09/012",
    "remark": "NEW PU",
    "ward_id": "139",
    "ward_name": "NKPOROBE/OHURU",
    "local_government_id": "13",
    "local_government_name": "UKWA EAST",
    "state_id": "1",
    "state_name": "ABIA",
    "location": {
      "latitude": 4.9514806,
      "longitude": 7.339433499999999,
      "viewport": {
        "northeast": {
          "lat": 4.952827629892723,
          "lng": 7.340768229892721
        },
        "southwest": {
          "lat": 4.950127970107279,
          "lng": 7.338068570107277
        }
      },
      "formatted_address": "X82Q+HQV, Mkporobe ndoki, Nkporobo, Nigeria",
      "google_map_url": "https://maps.google.com?q=4.9514806,7.339433499999999",
      "google_place_id": "ChIJ-2KZbf0naBARo_v-X--r-eM"
    }
  }
]