[
  {
    "id": "110564",
    "name": "ECWA L.G.E.A SCH I",
    "registration_area_id": "5746",
    "precise_location": null,
    "abbreviation": "001",
    "units": "001",
    "delimitation": "23/08/04/001",
    "remark": "EXISTING PU",
    "ward_id": "5746",
    "ward_name": "BADARI",
    "local_government_id": "497",
    "local_government_name": "ILORIN-WEST",
    "state_id": "23",
    "state_name": "KWARA",
    "location": {
      "latitude": 8.458414399999999,
      "longitude": 4.5311031,
      "viewport": {
        "northeast": {
          "lat": 8.459865729892721,
          "lng": 4.532515729892721
        },
        "southwest": {
          "lat": 8.457166070107277,
          "lng": 4.529816070107278
        }
      },
      "formatted_address": "Osere power line, No 1 The Shalon Church Road, 240281, Ilorin, Nigeria",
      "google_map_url": "https://maps.google.com?q=8.458414399999999,4.5311031",
      "google_place_id": "ChIJkxo7xVRTNhARuFzzy3v_kJE"
    }
  },
  {
    "id": "110565",
    "name": "ECWA L.G.E.A SCH II",
    "registration_area_id": "5746",
    "precise_location": null,
    "abbreviation": "002",
    "units": "002",
    "delimitation": "23/08/04/002",
    "remark": "EXISTING PU",
    "ward_id": "5746",
    "ward_name": "BADARI",
    "local_government_id": "497",
    "local_government_name": "ILORIN-WEST",
    "state_id": "23",
    "state_name": "KWARA",
    "location": {
      "latitude": 8.458414399999999,
      "longitude": 4.5311031,
      "viewport": {
        "northeast": {
          "lat": 8.459865729892721,
          "lng": 4.532515729892721
        },
        "southwest": {
          "lat": 8.457166070107277,
          "lng": 4.529816070107278
        }
      },
      "formatted_address": "Osere power line, No 1 The Shalon Church Road, 240281, Ilorin, Nigeria",
      "google_map_url": "https://maps.google.com?q=8.458414399999999,4.5311031",
      "google_place_id": "ChIJkxo7xVRTNhARuFzzy3v_kJE"
    }
  },
  {
    "id": "110566",
    "name": "ODE BILEWU",
    "registration_area_id": "5746",
    "precise_location": null,
    "abbreviation": "003",
    "units": "003",
    "delimitation": "23/08/04/003",
    "remark": "EXISTING PU",
    "ward_id": "5746",
    "ward_name": "BADARI",
    "local_government_id": "497",
    "local_government_name": "ILORIN-WEST",
    "state_id": "23",
    "state_name": "KWARA",
    "location": {
      "latitude": 8.4772913,
      "longitude": 4.5289253,
      "viewport": {
        "northeast": {
          "lat": 8.488013,
          "lng": 4.5387056
        },
        "southwest": {
          "lat": 8.472973099999999,
          "lng": 4.5196
        }
      },
      "formatted_address": "Badari, 240281, Oko Erin, Nigeria",
      "google_map_url": "https://maps.google.com?q=8.4772913,4.5289253",
      "google_place_id": "ChIJ68i8g-dSNhARXVi3yXoYQXw"
    }
  },
  {
    "id": "110567",
    "name": "ILORIN TEACHER'S COLLEGE I",
    "registration_area_id": "5746",
    "precise_location": null,
    "abbreviation": "004",
    "units": "004",
    "delimitation": "23/08/04/004",
    "remark": "EXISTING PU",
    "ward_id": "5746",
    "ward_name": "BADARI",
    "local_government_id": "497",
    "local_government_name": "ILORIN-WEST",
    "state_id": "23",
    "state_name": "KWARA",
    "location": {
      "latitude": 8.4753738,
      "longitude": 4.5274902,
      "viewport": {
        "northeast": {
          "lat": 8.476693229892723,
          "lng": 4.528857629892722
        },
        "southwest": {
          "lat": 8.473993570107279,
          "lng": 4.526157970107278
        }
      },
      "formatted_address": "FGGG+4XX, Kwara State College of Education Shopping Complex, Ilorin, Nigeria",
      "google_map_url": "https://maps.google.com?q=8.4753738,4.5274902",
      "google_place_id": "ChIJDep_d9xSNhARdTl7lXHEbSs"
    }
  },
  {
    "id": "110568",
    "name": "AGBO-OBA ILORIN I",
    "registration_area_id": "5746",
    "precise_location": null,
    "abbreviation": "005",
    "units": "005",
    "delimitation": "23/08/04/005",
    "remark": "EXISTING PU",
    "ward_id": "5746",
    "ward_name": "BADARI",
    "local_government_id": "497",
    "local_government_name": "ILORIN-WEST",
    "state_id": "23",
    "state_name": "KWARA",
    "location": {
      "latitude": 8.4822013,
      "longitude": 4.5022275,
      "viewport": {
        "northeast": {
          "lat": 8.483579279892721,
          "lng": 4.503563079892721
        },
        "southwest": {
          "lat": 8.480879620107277,
          "lng": 4.500863420107277
        }
      },
      "formatted_address": "FGJ2+VVQ, 240281, Ilorin, Nigeria",
      "google_map_url": "https://maps.google.com?q=8.4822013,4.5022275",
      "google_place_id": "ChIJ0cF68QpTNhARZ5CxEF4scLA"
    }
  },
  {
    "id": "110569",
    "name": "AGBO-OBA ILORIN II",
    "registration_area_id": "5746",
    "precise_location": null,
    "abbreviation": "006",
    "units": "006",
    "delimitation": "23/08/04/006",
    "remark": "EXISTING PU",
    "ward_id": "5746",
    "ward_name": "BADARI",
    "local_government_id": "497",
    "local_government_name": "ILORIN-WEST",
    "state_id": "23",
    "state_name": "KWARA",
    "location": {
      "latitude": 8.4822013,
      "longitude": 4.5022275,
      "viewport": {
        "northeast": {
          "lat": 8.483579279892721,
          "lng": 4.503563079892721
        },
        "southwest": {
          "lat": 8.480879620107277,
          "lng": 4.500863420107277
        }
      },
      "formatted_address": "FGJ2+VVQ, 240281, Ilorin, Nigeria",
      "google_map_url": "https://maps.google.com?q=8.4822013,4.5022275",
      "google_place_id": "ChIJ0cF68QpTNhARZ5CxEF4scLA"
    }
  },
  {
    "id": "110570",
    "name": "COLLEGE OF EDUCATION",
    "registration_area_id": "5746",
    "precise_location": null,
    "abbreviation": "007",
    "units": "007",
    "delimitation": "23/08/04/007",
    "remark": "EXISTING PU",
    "ward_id": "5746",
    "ward_name": "BADARI",
    "local_government_id": "497",
    "local_government_name": "ILORIN-WEST",
    "state_id": "23",
    "state_name": "KWARA",
    "location": {
      "latitude": 8.4753738,
      "longitude": 4.5274902,
      "viewport": {
        "northeast": {
          "lat": 8.476693229892723,
          "lng": 4.528857629892722
        },
        "southwest": {
          "lat": 8.473993570107279,
          "lng": 4.526157970107278
        }
      },
      "formatted_address": "FGGG+4XX, Kwara State College of Education Shopping Complex, Ilorin, Nigeria",
      "google_map_url": "https://maps.google.com?q=8.4753738,4.5274902",
      "google_place_id": "ChIJDep_d9xSNhARdTl7lXHEbSs"
    }
  },
  {
    "id": "110571",
    "name": "UNIVERSITY OF ILORIN I",
    "registration_area_id": "5746",
    "precise_location": null,
    "abbreviation": "008",
    "units": "008",
    "delimitation": "23/08/04/008",
    "remark": "EXISTING PU",
    "ward_id": "5746",
    "ward_name": "BADARI",
    "local_government_id": "497",
    "local_government_name": "ILORIN-WEST",
    "state_id": "23",
    "state_name": "KWARA",
    "location": {
      "latitude": 8.5372781,
      "longitude": 4.5444192,
      "viewport": {
        "northeast": {
          "lat": 8.538693929892721,
          "lng": 4.545776829892722
        },
        "southwest": {
          "lat": 8.535994270107278,
          "lng": 4.543077170107278
        }
      },
      "formatted_address": "031221691 240101, Ilorin, Nigeria",
      "google_map_url": "https://maps.google.com?q=8.5372781,4.5444192",
      "google_place_id": "ChIJP0hSDRlTNhARipJPsYJa_QU"
    }
  },
  {
    "id": "110572",
    "name": "UNIVERSITY OF ILORIN II",
    "registration_area_id": "5746",
    "precise_location": null,
    "abbreviation": "009",
    "units": "009",
    "delimitation": "23/08/04/009",
    "remark": "EXISTING PU",
    "ward_id": "5746",
    "ward_name": "BADARI",
    "local_government_id": "497",
    "local_government_name": "ILORIN-WEST",
    "state_id": "23",
    "state_name": "KWARA",
    "location": {
      "latitude": 8.4826935,
      "longitude": 4.5271455,
      "viewport": {
        "northeast": {
          "lat": 8.484170579892723,
          "lng": 4.528435779892722
        },
        "southwest": {
          "lat": 8.481470920107279,
          "lng": 4.525736120107277
        }
      },
      "formatted_address": "FGMG+3QH, University of Ilorin, Mini Campus, 240281, Ilorin, Nigeria",
      "google_map_url": "https://maps.google.com?q=8.4826935,4.5271455",
      "google_place_id": "ChIJtXN3KOdSNhARU9XIRDakfc8"
    }
  },
  {
    "id": "110573",
    "name": "BUNMI NURSERY/PRY SCH",
    "registration_area_id": "5746",
    "precise_location": null,
    "abbreviation": "010",
    "units": "010",
    "delimitation": "23/08/04/010",
    "remark": "EXISTING PU",
    "ward_id": "5746",
    "ward_name": "BADARI",
    "local_government_id": "497",
    "local_government_name": "ILORIN-WEST",
    "state_id": "23",
    "state_name": "KWARA",
    "location": {
      "latitude": 8.4599089,
      "longitude": 4.596374099999999,
      "viewport": {
        "northeast": {
          "lat": 8.461247329892723,
          "lng": 4.597760429892721
        },
        "southwest": {
          "lat": 8.45854767010728,
          "lng": 4.595060770107277
        }
      },
      "formatted_address": "Olorunsogo , Upper Gaa-Akanbi, Ilorin, Nigeria",
      "google_map_url": "https://maps.google.com?q=8.4599089,4.596374099999999",
      "google_place_id": "ChIJQaoh-SxNNhARERhAaCNX_zI"
    }
  },
  {
    "id": "110574",
    "name": "ODE BILEWU",
    "registration_area_id": "5746",
    "precise_location": null,
    "abbreviation": "011",
    "units": "011",
    "delimitation": "23/08/04/011",
    "remark": "EXISTING PU",
    "ward_id": "5746",
    "ward_name": "BADARI",
    "local_government_id": "497",
    "local_government_name": "ILORIN-WEST",
    "state_id": "23",
    "state_name": "KWARA",
    "location": {
      "latitude": 8.4772913,
      "longitude": 4.5289253,
      "viewport": {
        "northeast": {
          "lat": 8.488013,
          "lng": 4.5387056
        },
        "southwest": {
          "lat": 8.472973099999999,
          "lng": 4.5196
        }
      },
      "formatted_address": "Badari, 240281, Oko Erin, Nigeria",
      "google_map_url": "https://maps.google.com?q=8.4772913,4.5289253",
      "google_place_id": "ChIJ68i8g-dSNhARXVi3yXoYQXw"
    }
  },
  {
    "id": "110575",
    "name": "ODE MAFOLAKU",
    "registration_area_id": "5746",
    "precise_location": null,
    "abbreviation": "012",
    "units": "012",
    "delimitation": "23/08/04/012",
    "remark": "EXISTING PU",
    "ward_id": "5746",
    "ward_name": "BADARI",
    "local_government_id": "497",
    "local_government_name": "ILORIN-WEST",
    "state_id": "23",
    "state_name": "KWARA",
    "location": {
      "latitude": 8.5024227,
      "longitude": 4.540524599999999,
      "viewport": {
        "northeast": {
          "lat": 8.503812479892723,
          "lng": 4.541862929892722
        },
        "southwest": {
          "lat": 8.501112820107279,
          "lng": 4.539163270107278
        }
      },
      "formatted_address": "GG2R+X6, 240101, Ilorin, Nigeria",
      "google_map_url": "https://maps.google.com?q=8.5024227,4.540524599999999",
      "google_place_id": "ChIJITH1UuVTNhAR2mtmrvW-_mU"
    }
  },
  {
    "id": "110576",
    "name": "AGBO OBA ILORIN III",
    "registration_area_id": "5746",
    "precise_location": null,
    "abbreviation": "013",
    "units": "013",
    "delimitation": "23/08/04/013",
    "remark": "EXISTING PU",
    "ward_id": "5746",
    "ward_name": "BADARI",
    "local_government_id": "497",
    "local_government_name": "ILORIN-WEST",
    "state_id": "23",
    "state_name": "KWARA",
    "location": {
      "latitude": 8.4822013,
      "longitude": 4.5022275,
      "viewport": {
        "northeast": {
          "lat": 8.483579279892721,
          "lng": 4.503563079892721
        },
        "southwest": {
          "lat": 8.480879620107277,
          "lng": 4.500863420107277
        }
      },
      "formatted_address": "FGJ2+VVQ, 240281, Ilorin, Nigeria",
      "google_map_url": "https://maps.google.com?q=8.4822013,4.5022275",
      "google_place_id": "ChIJ0cF68QpTNhARZ5CxEF4scLA"
    }
  },
  {
    "id": "110577",
    "name": "ECWA L.G.E.A SCH III",
    "registration_area_id": "5746",
    "precise_location": null,
    "abbreviation": "014",
    "units": "014",
    "delimitation": "23/08/04/014",
    "remark": "EXISTING PU",
    "ward_id": "5746",
    "ward_name": "BADARI",
    "local_government_id": "497",
    "local_government_name": "ILORIN-WEST",
    "state_id": "23",
    "state_name": "KWARA",
    "location": null
  },
  {
    "id": "110578",
    "name": "ILORIN TEACHER'S COLLEGE II",
    "registration_area_id": "5746",
    "precise_location": null,
    "abbreviation": "015",
    "units": "015",
    "delimitation": "23/08/04/015",
    "remark": "EXISTING PU",
    "ward_id": "5746",
    "ward_name": "BADARI",
    "local_government_id": "497",
    "local_government_name": "ILORIN-WEST",
    "state_id": "23",
    "state_name": "KWARA",
    "location": {
      "latitude": 8.4753738,
      "longitude": 4.5274902,
      "viewport": {
        "northeast": {
          "lat": 8.476693229892723,
          "lng": 4.528857629892722
        },
        "southwest": {
          "lat": 8.473993570107279,
          "lng": 4.526157970107278
        }
      },
      "formatted_address": "FGGG+4XX, Kwara State College of Education Shopping Complex, Ilorin, Nigeria",
      "google_map_url": "https://maps.google.com?q=8.4753738,4.5274902",
      "google_place_id": "ChIJDep_d9xSNhARdTl7lXHEbSs"
    }
  },
  {
    "id": "110579",
    "name": "UNIVERSITY OF ILORIN III",
    "registration_area_id": "5746",
    "precise_location": null,
    "abbreviation": "016",
    "units": "016",
    "delimitation": "23/08/04/016",
    "remark": "EXISTING PU",
    "ward_id": "5746",
    "ward_name": "BADARI",
    "local_government_id": "497",
    "local_government_name": "ILORIN-WEST",
    "state_id": "23",
    "state_name": "KWARA",
    "location": {
      "latitude": 8.4826935,
      "longitude": 4.5271455,
      "viewport": {
        "northeast": {
          "lat": 8.484170579892723,
          "lng": 4.528435779892722
        },
        "southwest": {
          "lat": 8.481470920107279,
          "lng": 4.525736120107277
        }
      },
      "formatted_address": "FGMG+3QH, University of Ilorin, Mini Campus, 240281, Ilorin, Nigeria",
      "google_map_url": "https://maps.google.com?q=8.4826935,4.5271455",
      "google_place_id": "ChIJtXN3KOdSNhARU9XIRDakfc8"
    }
  },
  {
    "id": "110580",
    "name": "ECWA L.G.E.A IV",
    "registration_area_id": "5746",
    "precise_location": null,
    "abbreviation": "017",
    "units": "017",
    "delimitation": "23/08/04/017",
    "remark": "NEW PU",
    "ward_id": "5746",
    "ward_name": "BADARI",
    "local_government_id": "497",
    "local_government_name": "ILORIN-WEST",
    "state_id": "23",
    "state_name": "KWARA",
    "location": null
  },
  {
    "id": "110581",
    "name": "ODE MAGAJI IYA OBA",
    "registration_area_id": "5746",
    "precise_location": null,
    "abbreviation": "018",
    "units": "018",
    "delimitation": "23/08/04/018",
    "remark": "NEW PU",
    "ward_id": "5746",
    "ward_name": "BADARI",
    "local_government_id": "497",
    "local_government_name": "ILORIN-WEST",
    "state_id": "23",
    "state_name": "KWARA",
    "location": null
  },
  {
    "id": "110582",
    "name": "ORI ITA OJA IYA OPEN SPACE",
    "registration_area_id": "5746",
    "precise_location": null,
    "abbreviation": "019",
    "units": "019",
    "delimitation": "23/08/04/019",
    "remark": "NEW PU",
    "ward_id": "5746",
    "ward_name": "BADARI",
    "local_government_id": "497",
    "local_government_name": "ILORIN-WEST",
    "state_id": "23",
    "state_name": "KWARA",
    "location": null
  },
  {
    "id": "110583",
    "name": "OPEN SPACE ODE SEGI ITA AMODU",
    "registration_area_id": "5746",
    "precise_location": null,
    "abbreviation": "020",
    "units": "020",
    "delimitation": "23/08/04/020",
    "remark": "NEW PU",
    "ward_id": "5746",
    "ward_name": "BADARI",
    "local_government_id": "497",
    "local_government_name": "ILORIN-WEST",
    "state_id": "23",
    "state_name": "KWARA",
    "location": null
  },
  {
    "id": "110584",
    "name": "ODE ILE ALAGBON",
    "registration_area_id": "5746",
    "precise_location": null,
    "abbreviation": "021",
    "units": "021",
    "delimitation": "23/08/04/021",
    "remark": "NEW PU",
    "ward_id": "5746",
    "ward_name": "BADARI",
    "local_government_id": "497",
    "local_government_name": "ILORIN-WEST",
    "state_id": "23",
    "state_name": "KWARA",
    "location": {
      "latitude": 8.4911827,
      "longitude": 4.5108862,
      "viewport": {
        "northeast": {
          "lat": 8.571591399999999,
          "lng": 4.5897451
        },
        "southwest": {
          "lat": 8.4046709,
          "lng": 4.4753191
        }
      },
      "formatted_address": "Ilorin West, Nigeria",
      "google_map_url": "https://maps.google.com?q=8.4911827,4.5108862",
      "google_place_id": "ChIJNfjrde9SNhARiQFH8BMA1rg"
    }
  },
  {
    "id": "110585",
    "name": "JAMAITAL PRY SCH OPEN SPACE",
    "registration_area_id": "5746",
    "precise_location": null,
    "abbreviation": "022",
    "units": "022",
    "delimitation": "23/08/04/022",
    "remark": "NEW PU",
    "ward_id": "5746",
    "ward_name": "BADARI",
    "local_government_id": "497",
    "local_government_name": "ILORIN-WEST",
    "state_id": "23",
    "state_name": "KWARA",
    "location": null
  },
  {
    "id": "110586",
    "name": "OPEN SPACE ODE AKANBI",
    "registration_area_id": "5746",
    "precise_location": null,
    "abbreviation": "023",
    "units": "023",
    "delimitation": "23/08/04/023",
    "remark": "NEW PU",
    "ward_id": "5746",
    "ward_name": "BADARI",
    "local_government_id": "497",
    "local_government_name": "ILORIN-WEST",
    "state_id": "23",
    "state_name": "KWARA",
    "location": null
  },
  {
    "id": "110587",
    "name": "ODE ILE CUSTOM",
    "registration_area_id": "5746",
    "precise_location": null,
    "abbreviation": "024",
    "units": "024",
    "delimitation": "23/08/04/024",
    "remark": "NEW PU",
    "ward_id": "5746",
    "ward_name": "BADARI",
    "local_government_id": "497",
    "local_government_name": "ILORIN-WEST",
    "state_id": "23",
    "state_name": "KWARA",
    "location": {
      "latitude": 8.499283199999999,
      "longitude": 4.554109,
      "viewport": {
        "northeast": {
          "lat": 8.500621429892721,
          "lng": 4.555494879892723
        },
        "southwest": {
          "lat": 8.497921770107277,
          "lng": 4.552795220107279
        }
      },
      "formatted_address": "FHX3+MJX, Balogun Fulani Rd, 240101, Ilorin, Nigeria",
      "google_map_url": "https://maps.google.com?q=8.499283199999999,4.554109",
      "google_place_id": "ChIJ0bd5ioZSNhARqtHA0Lrl7hQ"
    }
  },
  {
    "id": "110588",
    "name": "ODE ILE ALATA",
    "registration_area_id": "5746",
    "precise_location": null,
    "abbreviation": "025",
    "units": "025",
    "delimitation": "23/08/04/025",
    "remark": "NEW PU",
    "ward_id": "5746",
    "ward_name": "BADARI",
    "local_government_id": "497",
    "local_government_name": "ILORIN-WEST",
    "state_id": "23",
    "state_name": "KWARA",
    "location": {
      "latitude": 8.4772913,
      "longitude": 4.5289253,
      "viewport": {
        "northeast": {
          "lat": 8.488013,
          "lng": 4.5387056
        },
        "southwest": {
          "lat": 8.472973099999999,
          "lng": 4.5196
        }
      },
      "formatted_address": "Badari, 240281, Oko Erin, Nigeria",
      "google_map_url": "https://maps.google.com?q=8.4772913,4.5289253",
      "google_place_id": "ChIJ68i8g-dSNhARXVi3yXoYQXw"
    }
  },
  {
    "id": "110589",
    "name": "OPEN SPACE BEHIND OKE SUNA UNIVERSITY OF ILORIN",
    "registration_area_id": "5746",
    "precise_location": null,
    "abbreviation": "026",
    "units": "026",
    "delimitation": "23/08/04/026",
    "remark": "NEW PU",
    "ward_id": "5746",
    "ward_name": "BADARI",
    "local_government_id": "497",
    "local_government_name": "ILORIN-WEST",
    "state_id": "23",
    "state_name": "KWARA",
    "location": {
      "latitude": 8.4795412,
      "longitude": 4.6712231,
      "viewport": {
        "northeast": {
          "lat": 8.480848079892723,
          "lng": 4.672584279892722
        },
        "southwest": {
          "lat": 8.47814842010728,
          "lng": 4.669884620107278
        }
      },
      "formatted_address": "1515, P.M.B, Ilorin, Nigeria",
      "google_map_url": "https://maps.google.com?q=8.4795412,4.6712231",
      "google_place_id": "ChIJL3RbqMJSNhARytZhn68RML8"
    }
  },
  {
    "id": "110590",
    "name": "OPEN SPACE ODE LASAKI",
    "registration_area_id": "5746",
    "precise_location": null,
    "abbreviation": "027",
    "units": "027",
    "delimitation": "23/08/04/027",
    "remark": "NEW PU",
    "ward_id": "5746",
    "ward_name": "BADARI",
    "local_government_id": "497",
    "local_government_name": "ILORIN-WEST",
    "state_id": "23",
    "state_name": "KWARA",
    "location": {
      "latitude": 8.5024227,
      "longitude": 4.540524599999999,
      "viewport": {
        "northeast": {
          "lat": 8.503812479892723,
          "lng": 4.541862929892722
        },
        "southwest": {
          "lat": 8.501112820107279,
          "lng": 4.539163270107278
        }
      },
      "formatted_address": "GG2R+X6, 240101, Ilorin, Nigeria",
      "google_map_url": "https://maps.google.com?q=8.5024227,4.540524599999999",
      "google_place_id": "ChIJITH1UuVTNhAR2mtmrvW-_mU"
    }
  },
  {
    "id": "110591",
    "name": "ODE AKEWUSHOLA BAMIDELE",
    "registration_area_id": "5746",
    "precise_location": null,
    "abbreviation": "028",
    "units": "028",
    "delimitation": "23/08/04/028",
    "remark": "NEW PU",
    "ward_id": "5746",
    "ward_name": "BADARI",
    "local_government_id": "497",
    "local_government_name": "ILORIN-WEST",
    "state_id": "23",
    "state_name": "KWARA",
    "location": null
  },
  {
    "id": "110592",
    "name": "OPEN SPACE IN FRONT OF AWOLADE HOUSE",
    "registration_area_id": "5746",
    "precise_location": null,
    "abbreviation": "029",
    "units": "029",
    "delimitation": "23/08/04/029",
    "remark": "NEW PU",
    "ward_id": "5746",
    "ward_name": "BADARI",
    "local_government_id": "497",
    "local_government_name": "ILORIN-WEST",
    "state_id": "23",
    "state_name": "KWARA",
    "location": null
  },
  {
    "id": "110593",
    "name": "ODE ZULU MAJIDADI OJA IYA",
    "registration_area_id": "5746",
    "precise_location": null,
    "abbreviation": "030",
    "units": "030",
    "delimitation": "23/08/04/030",
    "remark": "NEW PU",
    "ward_id": "5746",
    "ward_name": "BADARI",
    "local_government_id": "497",
    "local_government_name": "ILORIN-WEST",
    "state_id": "23",
    "state_name": "KWARA",
    "location": null
  },
  {
    "id": "110594",
    "name": "OPEN SPACE ODE OLOWO COOLER",
    "registration_area_id": "5746",
    "precise_location": null,
    "abbreviation": "031",
    "units": "031",
    "delimitation": "23/08/04/031",
    "remark": "NEW PU",
    "ward_id": "5746",
    "ward_name": "BADARI",
    "local_government_id": "497",
    "local_government_name": "ILORIN-WEST",
    "state_id": "23",
    "state_name": "KWARA",
    "location": null
  },
  {
    "id": "110595",
    "name": "OPEN SPACE OPPOSITE B DIVISION",
    "registration_area_id": "5746",
    "precise_location": null,
    "abbreviation": "032",
    "units": "032",
    "delimitation": "23/08/04/032",
    "remark": "NEW PU",
    "ward_id": "5746",
    "ward_name": "BADARI",
    "local_government_id": "497",
    "local_government_name": "ILORIN-WEST",
    "state_id": "23",
    "state_name": "KWARA",
    "location": null
  }
]