[
  {
    "id": "332709",
    "name": "ECWA PRI.SCHOOL - PB",
    "registration_area_id": "16900",
    "precise_location": null,
    "abbreviation": "001",
    "units": "001",
    "delimitation": "25/06/07/001",
    "remark": "EXISTING PU",
    "ward_id": "16900",
    "ward_name": "ANG.RIMI",
    "local_government_id": "531",
    "local_government_name": "KEFFI",
    "state_id": "25",
    "state_name": "NASARAWA",
    "location": {
      "latitude": 8.850380699999999,
      "longitude": 7.8852584,
      "viewport": {
        "northeast": {
          "lat": 8.85180902989272,
          "lng": 7.886739529892722
        },
        "southwest": {
          "lat": 8.849109370107277,
          "lng": 7.884039870107278
        }
      },
      "formatted_address": "VV2P+542, 961101, Keffi, Nigeria",
      "google_map_url": "https://maps.google.com?q=8.850380699999999,7.8852584",
      "google_place_id": "ChIJfbac8BrkURAR5xYhH9F1XZU"
    }
  },
  {
    "id": "332710",
    "name": "ECWA PRIMARY SCHOOL",
    "registration_area_id": "16900",
    "precise_location": null,
    "abbreviation": "002",
    "units": "002",
    "delimitation": "25/06/07/002",
    "remark": "EXISTING PU",
    "ward_id": "16900",
    "ward_name": "ANG.RIMI",
    "local_government_id": "531",
    "local_government_name": "KEFFI",
    "state_id": "25",
    "state_name": "NASARAWA",
    "location": null
  },
  {
    "id": "332711",
    "name": "KOFAR G/LIMAN - OP",
    "registration_area_id": "16900",
    "precise_location": null,
    "abbreviation": "003",
    "units": "003",
    "delimitation": "25/06/07/003",
    "remark": "EXISTING PU",
    "ward_id": "16900",
    "ward_name": "ANG.RIMI",
    "local_government_id": "531",
    "local_government_name": "KEFFI",
    "state_id": "25",
    "state_name": "NASARAWA",
    "location": {
      "latitude": 8.8471213,
      "longitude": 7.8776023,
      "viewport": {
        "northeast": {
          "lat": 8.848300629892721,
          "lng": 7.879032079892722
        },
        "southwest": {
          "lat": 8.845600970107277,
          "lng": 7.876332420107278
        }
      },
      "formatted_address": "NASARAWA STATE UNIVERSITY, 911019, Keffi, Nigeria",
      "google_map_url": "https://maps.google.com?q=8.8471213,7.8776023",
      "google_place_id": "ChIJeyBwSijkURARPVbSxse_J90"
    }
  },
  {
    "id": "332712",
    "name": "MAKERA - OP",
    "registration_area_id": "16900",
    "precise_location": null,
    "abbreviation": "004",
    "units": "004",
    "delimitation": "25/06/07/004",
    "remark": "EXISTING PU",
    "ward_id": "16900",
    "ward_name": "ANG.RIMI",
    "local_government_id": "531",
    "local_government_name": "KEFFI",
    "state_id": "25",
    "state_name": "NASARAWA",
    "location": {
      "latitude": 8.8957945,
      "longitude": 8.3979843,
      "viewport": {
        "northeast": {
          "lat": 8.89718912989272,
          "lng": 8.399311879892723
        },
        "southwest": {
          "lat": 8.894489470107276,
          "lng": 8.39661222010728
        }
      },
      "formatted_address": "V9WX+855, 960101, Akwanga, Nigeria",
      "google_map_url": "https://maps.google.com?q=8.8957945,8.3979843",
      "google_place_id": "ChIJmWY4LwCdURAR0VWVhmwD-kI"
    }
  },
  {
    "id": "332713",
    "name": "ANG.RIMI - OP",
    "registration_area_id": "16900",
    "precise_location": null,
    "abbreviation": "005",
    "units": "005",
    "delimitation": "25/06/07/005",
    "remark": "EXISTING PU",
    "ward_id": "16900",
    "ward_name": "ANG.RIMI",
    "local_government_id": "531",
    "local_government_name": "KEFFI",
    "state_id": "25",
    "state_name": "NASARAWA",
    "location": {
      "latitude": 8.8471213,
      "longitude": 7.8776023,
      "viewport": {
        "northeast": {
          "lat": 8.848300629892721,
          "lng": 7.879032079892722
        },
        "southwest": {
          "lat": 8.845600970107277,
          "lng": 7.876332420107278
        }
      },
      "formatted_address": "NASARAWA STATE UNIVERSITY, 911019, Keffi, Nigeria",
      "google_map_url": "https://maps.google.com?q=8.8471213,7.8776023",
      "google_place_id": "ChIJeyBwSijkURARPVbSxse_J90"
    }
  },
  {
    "id": "332714",
    "name": "ANG.M'ADA - OP",
    "registration_area_id": "16900",
    "precise_location": null,
    "abbreviation": "006",
    "units": "006",
    "delimitation": "25/06/07/006",
    "remark": "EXISTING PU",
    "ward_id": "16900",
    "ward_name": "ANG.RIMI",
    "local_government_id": "531",
    "local_government_name": "KEFFI",
    "state_id": "25",
    "state_name": "NASARAWA",
    "location": {
      "latitude": 8.8471213,
      "longitude": 7.8776023,
      "viewport": {
        "northeast": {
          "lat": 8.848300629892721,
          "lng": 7.879032079892722
        },
        "southwest": {
          "lat": 8.845600970107277,
          "lng": 7.876332420107278
        }
      },
      "formatted_address": "NASARAWA STATE UNIVERSITY, 911019, Keffi, Nigeria",
      "google_map_url": "https://maps.google.com?q=8.8471213,7.8776023",
      "google_place_id": "ChIJeyBwSijkURARPVbSxse_J90"
    }
  },
  {
    "id": "332715",
    "name": "POLICE STATION - PB",
    "registration_area_id": "16900",
    "precise_location": null,
    "abbreviation": "007",
    "units": "007",
    "delimitation": "25/06/07/007",
    "remark": "EXISTING PU",
    "ward_id": "16900",
    "ward_name": "ANG.RIMI",
    "local_government_id": "531",
    "local_government_name": "KEFFI",
    "state_id": "25",
    "state_name": "NASARAWA",
    "location": {
      "latitude": 8.904938999999999,
      "longitude": 7.721090999999999,
      "viewport": {
        "northeast": {
          "lat": 8.906265379892721,
          "lng": 7.722384979892722
        },
        "southwest": {
          "lat": 8.903565720107277,
          "lng": 7.719685320107279
        }
      },
      "formatted_address": "WP3C+XCG, Abuja-Keffi Rd, 961103, New Karu, Nigeria",
      "google_map_url": "https://maps.google.com?q=8.904938999999999,7.721090999999999",
      "google_place_id": "ChIJT9MCoewcThAR_B6K2tLpxeA"
    }
  },
  {
    "id": "332716",
    "name": "KOFAR MASA",
    "registration_area_id": "16900",
    "precise_location": null,
    "abbreviation": "008",
    "units": "008",
    "delimitation": "25/06/07/008",
    "remark": "EXISTING PU",
    "ward_id": "16900",
    "ward_name": "ANG.RIMI",
    "local_government_id": "531",
    "local_government_name": "KEFFI",
    "state_id": "25",
    "state_name": "NASARAWA",
    "location": {
      "latitude": 8.8471213,
      "longitude": 7.8776023,
      "viewport": {
        "northeast": {
          "lat": 8.848300629892721,
          "lng": 7.879032079892722
        },
        "southwest": {
          "lat": 8.845600970107277,
          "lng": 7.876332420107278
        }
      },
      "formatted_address": "NASARAWA STATE UNIVERSITY, 911019, Keffi, Nigeria",
      "google_map_url": "https://maps.google.com?q=8.8471213,7.8776023",
      "google_place_id": "ChIJeyBwSijkURARPVbSxse_J90"
    }
  },
  {
    "id": "332717",
    "name": "G.R.A (G.C) - PB",
    "registration_area_id": "16900",
    "precise_location": null,
    "abbreviation": "009",
    "units": "009",
    "delimitation": "25/06/07/009",
    "remark": "EXISTING PU",
    "ward_id": "16900",
    "ward_name": "ANG.RIMI",
    "local_government_id": "531",
    "local_government_name": "KEFFI",
    "state_id": "25",
    "state_name": "NASARAWA",
    "location": {
      "latitude": 8.850765899999999,
      "longitude": 7.892818699999999,
      "viewport": {
        "northeast": {
          "lat": 8.852139679892721,
          "lng": 7.894138429892722
        },
        "southwest": {
          "lat": 8.849440020107277,
          "lng": 7.891438770107278
        }
      },
      "formatted_address": "Local Government Area, GRA 961101, Keffi, Nigeria",
      "google_map_url": "https://maps.google.com?q=8.850765899999999,7.892818699999999",
      "google_place_id": "ChIJDxElaxjkURARhckm1jjp2IQ"
    }
  },
  {
    "id": "332718",
    "name": "GRA (A 1) - PB",
    "registration_area_id": "16900",
    "precise_location": null,
    "abbreviation": "010",
    "units": "010",
    "delimitation": "25/06/07/010",
    "remark": "EXISTING PU",
    "ward_id": "16900",
    "ward_name": "ANG.RIMI",
    "local_government_id": "531",
    "local_government_name": "KEFFI",
    "state_id": "25",
    "state_name": "NASARAWA",
    "location": {
      "latitude": 8.8471213,
      "longitude": 7.8776023,
      "viewport": {
        "northeast": {
          "lat": 8.848300629892721,
          "lng": 7.879032079892722
        },
        "southwest": {
          "lat": 8.845600970107277,
          "lng": 7.876332420107278
        }
      },
      "formatted_address": "NASARAWA STATE UNIVERSITY, 911019, Keffi, Nigeria",
      "google_map_url": "https://maps.google.com?q=8.8471213,7.8776023",
      "google_place_id": "ChIJeyBwSijkURARPVbSxse_J90"
    }
  },
  {
    "id": "332719",
    "name": "KOFAR NA MALAMA - PB",
    "registration_area_id": "16900",
    "precise_location": null,
    "abbreviation": "011",
    "units": "011",
    "delimitation": "25/06/07/011",
    "remark": "EXISTING PU",
    "ward_id": "16900",
    "ward_name": "ANG.RIMI",
    "local_government_id": "531",
    "local_government_name": "KEFFI",
    "state_id": "25",
    "state_name": "NASARAWA",
    "location": {
      "latitude": 8.8471213,
      "longitude": 7.8776023,
      "viewport": {
        "northeast": {
          "lat": 8.848300629892721,
          "lng": 7.879032079892722
        },
        "southwest": {
          "lat": 8.845600970107277,
          "lng": 7.876332420107278
        }
      },
      "formatted_address": "NASARAWA STATE UNIVERSITY, 911019, Keffi, Nigeria",
      "google_map_url": "https://maps.google.com?q=8.8471213,7.8776023",
      "google_place_id": "ChIJeyBwSijkURARPVbSxse_J90"
    }
  },
  {
    "id": "332720",
    "name": "CENTRAL MOTOR PARK",
    "registration_area_id": "16900",
    "precise_location": null,
    "abbreviation": "012",
    "units": "012",
    "delimitation": "25/06/07/012",
    "remark": "NEW PU",
    "ward_id": "16900",
    "ward_name": "ANG.RIMI",
    "local_government_id": "531",
    "local_government_name": "KEFFI",
    "state_id": "25",
    "state_name": "NASARAWA",
    "location": {
      "latitude": 8.848072,
      "longitude": 7.8826747,
      "viewport": {
        "northeast": {
          "lat": 8.849384979892724,
          "lng": 7.883976629892721
        },
        "southwest": {
          "lat": 8.84668532010728,
          "lng": 7.881276970107277
        }
      },
      "formatted_address": "RVXM+63F, 961101, Keffi, Nigeria",
      "google_map_url": "https://maps.google.com?q=8.848072,7.8826747",
      "google_place_id": "ChIJw0tvDJXlURARfjHmNHtwZfk"
    }
  },
  {
    "id": "332721",
    "name": "KOFAR AHMADU ABDULLAHI",
    "registration_area_id": "16900",
    "precise_location": null,
    "abbreviation": "013",
    "units": "013",
    "delimitation": "25/06/07/013",
    "remark": "NEW PU",
    "ward_id": "16900",
    "ward_name": "ANG.RIMI",
    "local_government_id": "531",
    "local_government_name": "KEFFI",
    "state_id": "25",
    "state_name": "NASARAWA",
    "location": {
      "latitude": 8.8471213,
      "longitude": 7.8776023,
      "viewport": {
        "northeast": {
          "lat": 8.848300629892721,
          "lng": 7.879032079892722
        },
        "southwest": {
          "lat": 8.845600970107277,
          "lng": 7.876332420107278
        }
      },
      "formatted_address": "NASARAWA STATE UNIVERSITY, 911019, Keffi, Nigeria",
      "google_map_url": "https://maps.google.com?q=8.8471213,7.8776023",
      "google_place_id": "ChIJeyBwSijkURARPVbSxse_J90"
    }
  },
  {
    "id": "332722",
    "name": "KOFAR ALHAJI ZANGINA",
    "registration_area_id": "16900",
    "precise_location": null,
    "abbreviation": "014",
    "units": "014",
    "delimitation": "25/06/07/014",
    "remark": "NEW PU",
    "ward_id": "16900",
    "ward_name": "ANG.RIMI",
    "local_government_id": "531",
    "local_government_name": "KEFFI",
    "state_id": "25",
    "state_name": "NASARAWA",
    "location": {
      "latitude": 8.844313,
      "longitude": 7.9099464,
      "viewport": {
        "northeast": {
          "lat": 8.845756979892721,
          "lng": 7.911338629892722
        },
        "southwest": {
          "lat": 8.843057320107278,
          "lng": 7.908638970107278
        }
      },
      "formatted_address": "nsuk staff quarters block B flat 2, Nigeria",
      "google_map_url": "https://maps.google.com?q=8.844313,7.9099464",
      "google_place_id": "ChIJd9NqeSvkURARlUVi2WJB7NY"
    }
  },
  {
    "id": "332723",
    "name": "MAGISTRATE COURT",
    "registration_area_id": "16900",
    "precise_location": null,
    "abbreviation": "015",
    "units": "015",
    "delimitation": "25/06/07/015",
    "remark": "NEW PU",
    "ward_id": "16900",
    "ward_name": "ANG.RIMI",
    "local_government_id": "531",
    "local_government_name": "KEFFI",
    "state_id": "25",
    "state_name": "NASARAWA",
    "location": {
      "latitude": 8.8487523,
      "longitude": 7.9015916,
      "viewport": {
        "northeast": {
          "lat": 8.850130929892723,
          "lng": 7.902947379892724
        },
        "southwest": {
          "lat": 8.847431270107279,
          "lng": 7.90024772010728
        }
      },
      "formatted_address": "1Keffi, Agwaga Road, Keffi, Nigeria",
      "google_map_url": "https://maps.google.com?q=8.8487523,7.9015916",
      "google_place_id": "ChIJzb-ch1zlURARs-XTANVXU7Q"
    }
  },
  {
    "id": "332724",
    "name": "KOFAR GIDAN SIDI LAWAL",
    "registration_area_id": "16900",
    "precise_location": null,
    "abbreviation": "016",
    "units": "016",
    "delimitation": "25/06/07/016",
    "remark": "NEW PU",
    "ward_id": "16900",
    "ward_name": "ANG.RIMI",
    "local_government_id": "531",
    "local_government_name": "KEFFI",
    "state_id": "25",
    "state_name": "NASARAWA",
    "location": {
      "latitude": 8.8471213,
      "longitude": 7.8776023,
      "viewport": {
        "northeast": {
          "lat": 8.848300629892721,
          "lng": 7.879032079892722
        },
        "southwest": {
          "lat": 8.845600970107277,
          "lng": 7.876332420107278
        }
      },
      "formatted_address": "NASARAWA STATE UNIVERSITY, 911019, Keffi, Nigeria",
      "google_map_url": "https://maps.google.com?q=8.8471213,7.8776023",
      "google_place_id": "ChIJeyBwSijkURARPVbSxse_J90"
    }
  },
  {
    "id": "332725",
    "name": "KOFAR GIDAN AUDU BUZU",
    "registration_area_id": "16900",
    "precise_location": null,
    "abbreviation": "017",
    "units": "017",
    "delimitation": "25/06/07/017",
    "remark": "NEW PU",
    "ward_id": "16900",
    "ward_name": "ANG.RIMI",
    "local_government_id": "531",
    "local_government_name": "KEFFI",
    "state_id": "25",
    "state_name": "NASARAWA",
    "location": {
      "latitude": 8.8469571,
      "longitude": 7.9089047,
      "viewport": {
        "northeast": {
          "lat": 8.848307079892722,
          "lng": 7.910253829892723
        },
        "southwest": {
          "lat": 8.845607420107278,
          "lng": 7.907554170107279
        }
      },
      "formatted_address": "Nassarawa state University, Keffi, Nigeria",
      "google_map_url": "https://maps.google.com?q=8.8469571,7.9089047",
      "google_place_id": "ChIJw2YeHvnlURARN0V8F0RrBu4"
    }
  },
  {
    "id": "332726",
    "name": "KOFAR SADIQU AGWAN RAMA",
    "registration_area_id": "16900",
    "precise_location": null,
    "abbreviation": "018",
    "units": "018",
    "delimitation": "25/06/07/018",
    "remark": "NEW PU",
    "ward_id": "16900",
    "ward_name": "ANG.RIMI",
    "local_government_id": "531",
    "local_government_name": "KEFFI",
    "state_id": "25",
    "state_name": "NASARAWA",
    "location": {
      "latitude": 8.844313,
      "longitude": 7.9099464,
      "viewport": {
        "northeast": {
          "lat": 8.845756979892721,
          "lng": 7.911338629892722
        },
        "southwest": {
          "lat": 8.843057320107278,
          "lng": 7.908638970107278
        }
      },
      "formatted_address": "nsuk staff quarters block B flat 2, Nigeria",
      "google_map_url": "https://maps.google.com?q=8.844313,7.9099464",
      "google_place_id": "ChIJd9NqeSvkURARlUVi2WJB7NY"
    }
  },
  {
    "id": "332727",
    "name": "KOFAR DAN MUSA DAN WADAU",
    "registration_area_id": "16900",
    "precise_location": null,
    "abbreviation": "019",
    "units": "019",
    "delimitation": "25/06/07/019",
    "remark": "NEW PU",
    "ward_id": "16900",
    "ward_name": "ANG.RIMI",
    "local_government_id": "531",
    "local_government_name": "KEFFI",
    "state_id": "25",
    "state_name": "NASARAWA",
    "location": {
      "latitude": 8.8471213,
      "longitude": 7.8776023,
      "viewport": {
        "northeast": {
          "lat": 8.848300629892721,
          "lng": 7.879032079892722
        },
        "southwest": {
          "lat": 8.845600970107277,
          "lng": 7.876332420107278
        }
      },
      "formatted_address": "NASARAWA STATE UNIVERSITY, 911019, Keffi, Nigeria",
      "google_map_url": "https://maps.google.com?q=8.8471213,7.8776023",
      "google_place_id": "ChIJeyBwSijkURARPVbSxse_J90"
    }
  },
  {
    "id": "332728",
    "name": "KOFAR GIDAN MADAKI KEFFI",
    "registration_area_id": "16900",
    "precise_location": null,
    "abbreviation": "020",
    "units": "020",
    "delimitation": "25/06/07/020",
    "remark": "NEW PU",
    "ward_id": "16900",
    "ward_name": "ANG.RIMI",
    "local_government_id": "531",
    "local_government_name": "KEFFI",
    "state_id": "25",
    "state_name": "NASARAWA",
    "location": {
      "latitude": 8.8469571,
      "longitude": 7.9089047,
      "viewport": {
        "northeast": {
          "lat": 8.848307079892722,
          "lng": 7.910253829892723
        },
        "southwest": {
          "lat": 8.845607420107278,
          "lng": 7.907554170107279
        }
      },
      "formatted_address": "Nassarawa state University, Keffi, Nigeria",
      "google_map_url": "https://maps.google.com?q=8.8469571,7.9089047",
      "google_place_id": "ChIJw2YeHvnlURARN0V8F0RrBu4"
    }
  },
  {
    "id": "332729",
    "name": "KOFAR MALAM ALI BABALE",
    "registration_area_id": "16900",
    "precise_location": null,
    "abbreviation": "021",
    "units": "021",
    "delimitation": "25/06/07/021",
    "remark": "NEW PU",
    "ward_id": "16900",
    "ward_name": "ANG.RIMI",
    "local_government_id": "531",
    "local_government_name": "KEFFI",
    "state_id": "25",
    "state_name": "NASARAWA",
    "location": {
      "latitude": 8.8471213,
      "longitude": 7.8776023,
      "viewport": {
        "northeast": {
          "lat": 8.848300629892721,
          "lng": 7.879032079892722
        },
        "southwest": {
          "lat": 8.845600970107277,
          "lng": 7.876332420107278
        }
      },
      "formatted_address": "NASARAWA STATE UNIVERSITY, 911019, Keffi, Nigeria",
      "google_map_url": "https://maps.google.com?q=8.8471213,7.8776023",
      "google_place_id": "ChIJeyBwSijkURARPVbSxse_J90"
    }
  },
  {
    "id": "332730",
    "name": "POLICE STATION II",
    "registration_area_id": "16900",
    "precise_location": null,
    "abbreviation": "022",
    "units": "022",
    "delimitation": "25/06/07/022",
    "remark": "NEW PU",
    "ward_id": "16900",
    "ward_name": "ANG.RIMI",
    "local_government_id": "531",
    "local_government_name": "KEFFI",
    "state_id": "25",
    "state_name": "NASARAWA",
    "location": {
      "latitude": 8.854485799999999,
      "longitude": 7.8763852,
      "viewport": {
        "northeast": {
          "lat": 8.855811579892723,
          "lng": 7.877709829892719
        },
        "southwest": {
          "lat": 8.85311192010728,
          "lng": 7.875010170107275
        }
      },
      "formatted_address": "VV3G+QHR, 961101, Keffi, Nigeria",
      "google_map_url": "https://maps.google.com?q=8.854485799999999,7.8763852",
      "google_place_id": "ChIJJ0VyxAjkURARoLFE6uCYzTE"
    }
  },
  {
    "id": "332731",
    "name": "KOFAR ALHAJI SHEHU",
    "registration_area_id": "16900",
    "precise_location": null,
    "abbreviation": "023",
    "units": "023",
    "delimitation": "25/06/07/023",
    "remark": "NEW PU",
    "ward_id": "16900",
    "ward_name": "ANG.RIMI",
    "local_government_id": "531",
    "local_government_name": "KEFFI",
    "state_id": "25",
    "state_name": "NASARAWA",
    "location": {
      "latitude": 8.8471213,
      "longitude": 7.8776023,
      "viewport": {
        "northeast": {
          "lat": 8.848300629892721,
          "lng": 7.879032079892722
        },
        "southwest": {
          "lat": 8.845600970107277,
          "lng": 7.876332420107278
        }
      },
      "formatted_address": "NASARAWA STATE UNIVERSITY, 911019, Keffi, Nigeria",
      "google_map_url": "https://maps.google.com?q=8.8471213,7.8776023",
      "google_place_id": "ChIJeyBwSijkURARPVbSxse_J90"
    }
  },
  {
    "id": "332732",
    "name": "KOFAR ALHAJI MU'AZU ISYAKU",
    "registration_area_id": "16900",
    "precise_location": null,
    "abbreviation": "024",
    "units": "024",
    "delimitation": "25/06/07/024",
    "remark": "NEW PU",
    "ward_id": "16900",
    "ward_name": "ANG.RIMI",
    "local_government_id": "531",
    "local_government_name": "KEFFI",
    "state_id": "25",
    "state_name": "NASARAWA",
    "location": {
      "latitude": 8.8469571,
      "longitude": 7.9089047,
      "viewport": {
        "northeast": {
          "lat": 8.848307079892722,
          "lng": 7.910253829892723
        },
        "southwest": {
          "lat": 8.845607420107278,
          "lng": 7.907554170107279
        }
      },
      "formatted_address": "Nassarawa state University, Keffi, Nigeria",
      "google_map_url": "https://maps.google.com?q=8.8469571,7.9089047",
      "google_place_id": "ChIJw2YeHvnlURARN0V8F0RrBu4"
    }
  },
  {
    "id": "332733",
    "name": "YOUTH CENTER",
    "registration_area_id": "16900",
    "precise_location": null,
    "abbreviation": "025",
    "units": "025",
    "delimitation": "25/06/07/025",
    "remark": "NEW PU",
    "ward_id": "16900",
    "ward_name": "ANG.RIMI",
    "local_government_id": "531",
    "local_government_name": "KEFFI",
    "state_id": "25",
    "state_name": "NASARAWA",
    "location": {
      "latitude": 8.852855,
      "longitude": 7.8784293,
      "viewport": {
        "northeast": {
          "lat": 8.854075679892723,
          "lng": 7.87966692989272
        },
        "southwest": {
          "lat": 8.85137602010728,
          "lng": 7.876967270107277
        }
      },
      "formatted_address": "VV3H+595, 961101, Keffi, Nigeria",
      "google_map_url": "https://maps.google.com?q=8.852855,7.8784293",
      "google_place_id": "ChIJ6_B5WQ_kURARcZiMZdEH7Qg"
    }
  },
  {
    "id": "332734",
    "name": "ANGWAN KWARA KOFAR GIDAN LATE MAI ANGWA",
    "registration_area_id": "16900",
    "precise_location": null,
    "abbreviation": "026",
    "units": "026",
    "delimitation": "25/06/07/026",
    "remark": "NEW PU",
    "ward_id": "16900",
    "ward_name": "ANG.RIMI",
    "local_government_id": "531",
    "local_government_name": "KEFFI",
    "state_id": "25",
    "state_name": "NASARAWA",
    "location": {
      "latitude": 8.8471213,
      "longitude": 7.8776023,
      "viewport": {
        "northeast": {
          "lat": 8.848300629892721,
          "lng": 7.879032079892722
        },
        "southwest": {
          "lat": 8.845600970107277,
          "lng": 7.876332420107278
        }
      },
      "formatted_address": "NASARAWA STATE UNIVERSITY, 911019, Keffi, Nigeria",
      "google_map_url": "https://maps.google.com?q=8.8471213,7.8776023",
      "google_place_id": "ChIJeyBwSijkURARPVbSxse_J90"
    }
  },
  {
    "id": "332735",
    "name": "ANGWAN MU'AZU",
    "registration_area_id": "16900",
    "precise_location": null,
    "abbreviation": "027",
    "units": "027",
    "delimitation": "25/06/07/027",
    "remark": "NEW PU",
    "ward_id": "16900",
    "ward_name": "ANG.RIMI",
    "local_government_id": "531",
    "local_government_name": "KEFFI",
    "state_id": "25",
    "state_name": "NASARAWA",
    "location": {
      "latitude": 8.844313,
      "longitude": 7.9099464,
      "viewport": {
        "northeast": {
          "lat": 8.845756979892721,
          "lng": 7.911338629892722
        },
        "southwest": {
          "lat": 8.843057320107278,
          "lng": 7.908638970107278
        }
      },
      "formatted_address": "nsuk staff quarters block B flat 2, Nigeria",
      "google_map_url": "https://maps.google.com?q=8.844313,7.9099464",
      "google_place_id": "ChIJd9NqeSvkURARlUVi2WJB7NY"
    }
  },
  {
    "id": "332736",
    "name": "KOFAR WAMBAI-HON IBRAHIM ABDULLAHI",
    "registration_area_id": "16900",
    "precise_location": null,
    "abbreviation": "028",
    "units": "028",
    "delimitation": "25/06/07/028",
    "remark": "NEW PU",
    "ward_id": "16900",
    "ward_name": "ANG.RIMI",
    "local_government_id": "531",
    "local_government_name": "KEFFI",
    "state_id": "25",
    "state_name": "NASARAWA",
    "location": {
      "latitude": 8.8471213,
      "longitude": 7.8776023,
      "viewport": {
        "northeast": {
          "lat": 8.848300629892721,
          "lng": 7.879032079892722
        },
        "southwest": {
          "lat": 8.845600970107277,
          "lng": 7.876332420107278
        }
      },
      "formatted_address": "NASARAWA STATE UNIVERSITY, 911019, Keffi, Nigeria",
      "google_map_url": "https://maps.google.com?q=8.8471213,7.8776023",
      "google_place_id": "ChIJeyBwSijkURARPVbSxse_J90"
    }
  },
  {
    "id": "332737",
    "name": "KOFAR GIDAN LATE  WAZIRI",
    "registration_area_id": "16900",
    "precise_location": null,
    "abbreviation": "029",
    "units": "029",
    "delimitation": "25/06/07/029",
    "remark": "NEW PU",
    "ward_id": "16900",
    "ward_name": "ANG.RIMI",
    "local_government_id": "531",
    "local_government_name": "KEFFI",
    "state_id": "25",
    "state_name": "NASARAWA",
    "location": {
      "latitude": 8.859828600000002,
      "longitude": 7.9035391,
      "viewport": {
        "northeast": {
          "lat": 8.860651129892723,
          "lng": 7.905187129892722
        },
        "southwest": {
          "lat": 8.85795147010728,
          "lng": 7.902487470107278
        }
      },
      "formatted_address": "VW53+WCM, Fmc Road, 961101, Keffi, Nigeria",
      "google_map_url": "https://maps.google.com?q=8.859828600000002,7.9035391",
      "google_place_id": "ChIJhev1aV_lURARwe4brlPWfk0"
    }
  },
  {
    "id": "332738",
    "name": "G.R.A. WATER BOARD",
    "registration_area_id": "16900",
    "precise_location": null,
    "abbreviation": "030",
    "units": "030",
    "delimitation": "25/06/07/030",
    "remark": "NEW PU",
    "ward_id": "16900",
    "ward_name": "ANG.RIMI",
    "local_government_id": "531",
    "local_government_name": "KEFFI",
    "state_id": "25",
    "state_name": "NASARAWA",
    "location": {
      "latitude": 8.8470861,
      "longitude": 7.877618799999999,
      "viewport": {
        "northeast": {
          "lat": 8.848300629892721,
          "lng": 7.879032079892722
        },
        "southwest": {
          "lat": 8.845600970107277,
          "lng": 7.876332420107278
        }
      },
      "formatted_address": "NASARAWA STATE UNIVERSITY, Lafia, Nigeria",
      "google_map_url": "https://maps.google.com?q=8.8470861,7.877618799999999",
      "google_place_id": "ChIJ284LXVHlURARXIdeRA2FR_s"
    }
  },
  {
    "id": "332739",
    "name": "G.R.A. ANGWAN SAKKWATAWA",
    "registration_area_id": "16900",
    "precise_location": null,
    "abbreviation": "031",
    "units": "031",
    "delimitation": "25/06/07/031",
    "remark": "NEW PU",
    "ward_id": "16900",
    "ward_name": "ANG.RIMI",
    "local_government_id": "531",
    "local_government_name": "KEFFI",
    "state_id": "25",
    "state_name": "NASARAWA",
    "location": {
      "latitude": 8.8471213,
      "longitude": 7.8776023,
      "viewport": {
        "northeast": {
          "lat": 8.848300629892721,
          "lng": 7.879032079892722
        },
        "southwest": {
          "lat": 8.845600970107277,
          "lng": 7.876332420107278
        }
      },
      "formatted_address": "NASARAWA STATE UNIVERSITY, 911019, Keffi, Nigeria",
      "google_map_url": "https://maps.google.com?q=8.8471213,7.8776023",
      "google_place_id": "ChIJeyBwSijkURARPVbSxse_J90"
    }
  },
  {
    "id": "332740",
    "name": "KOFAR GIDAN BELLO NITEL LOW COST",
    "registration_area_id": "16900",
    "precise_location": null,
    "abbreviation": "032",
    "units": "032",
    "delimitation": "25/06/07/032",
    "remark": "NEW PU",
    "ward_id": "16900",
    "ward_name": "ANG.RIMI",
    "local_government_id": "531",
    "local_government_name": "KEFFI",
    "state_id": "25",
    "state_name": "NASARAWA",
    "location": null
  },
  {
    "id": "332741",
    "name": "KOFAR MAI ANGWA KURMIN DAUDU",
    "registration_area_id": "16900",
    "precise_location": null,
    "abbreviation": "033",
    "units": "033",
    "delimitation": "25/06/07/033",
    "remark": "NEW PU",
    "ward_id": "16900",
    "ward_name": "ANG.RIMI",
    "local_government_id": "531",
    "local_government_name": "KEFFI",
    "state_id": "25",
    "state_name": "NASARAWA",
    "location": {
      "latitude": 8.8471213,
      "longitude": 7.8776023,
      "viewport": {
        "northeast": {
          "lat": 8.848300629892721,
          "lng": 7.879032079892722
        },
        "southwest": {
          "lat": 8.845600970107277,
          "lng": 7.876332420107278
        }
      },
      "formatted_address": "NASARAWA STATE UNIVERSITY, 911019, Keffi, Nigeria",
      "google_map_url": "https://maps.google.com?q=8.8471213,7.8776023",
      "google_place_id": "ChIJeyBwSijkURARPVbSxse_J90"
    }
  },
  {
    "id": "332742",
    "name": "KOFAR RABON KAUYE KURMIN DAUDU",
    "registration_area_id": "16900",
    "precise_location": null,
    "abbreviation": "034",
    "units": "034",
    "delimitation": "25/06/07/034",
    "remark": "NEW PU",
    "ward_id": "16900",
    "ward_name": "ANG.RIMI",
    "local_government_id": "531",
    "local_government_name": "KEFFI",
    "state_id": "25",
    "state_name": "NASARAWA",
    "location": {
      "latitude": 8.8471213,
      "longitude": 7.8776023,
      "viewport": {
        "northeast": {
          "lat": 8.848300629892721,
          "lng": 7.879032079892722
        },
        "southwest": {
          "lat": 8.845600970107277,
          "lng": 7.876332420107278
        }
      },
      "formatted_address": "NASARAWA STATE UNIVERSITY, 911019, Keffi, Nigeria",
      "google_map_url": "https://maps.google.com?q=8.8471213,7.8776023",
      "google_place_id": "ChIJeyBwSijkURARPVbSxse_J90"
    }
  },
  {
    "id": "332743",
    "name": "ANGWAN JA'MA (FED. MIN. OF WORKS GATE )",
    "registration_area_id": "16900",
    "precise_location": null,
    "abbreviation": "035",
    "units": "035",
    "delimitation": "25/06/07/035",
    "remark": "NEW PU",
    "ward_id": "16900",
    "ward_name": "ANG.RIMI",
    "local_government_id": "531",
    "local_government_name": "KEFFI",
    "state_id": "25",
    "state_name": "NASARAWA",
    "location": {
      "latitude": 8.8471213,
      "longitude": 7.8776023,
      "viewport": {
        "northeast": {
          "lat": 8.848300629892721,
          "lng": 7.879032079892722
        },
        "southwest": {
          "lat": 8.845600970107277,
          "lng": 7.876332420107278
        }
      },
      "formatted_address": "NASARAWA STATE UNIVERSITY, 911019, Keffi, Nigeria",
      "google_map_url": "https://maps.google.com?q=8.8471213,7.8776023",
      "google_place_id": "ChIJeyBwSijkURARPVbSxse_J90"
    }
  },
  {
    "id": "332744",
    "name": "KOFAR HAUSA SEC. SCH.",
    "registration_area_id": "16900",
    "precise_location": null,
    "abbreviation": "036",
    "units": "036",
    "delimitation": "25/06/07/036",
    "remark": "NEW PU",
    "ward_id": "16900",
    "ward_name": "ANG.RIMI",
    "local_government_id": "531",
    "local_government_name": "KEFFI",
    "state_id": "25",
    "state_name": "NASARAWA",
    "location": {
      "latitude": 8.8697618,
      "longitude": 7.8823035,
      "viewport": {
        "northeast": {
          "lat": 8.871069979892722,
          "lng": 7.883528829892723
        },
        "southwest": {
          "lat": 8.868370320107278,
          "lng": 7.880829170107279
        }
      },
      "formatted_address": "VV9J+WW3, Unnamed Road, Keffi, Nigeria",
      "google_map_url": "https://maps.google.com?q=8.8697618,7.8823035",
      "google_place_id": "ChIJq6tqLvXlURAR5WY10Hjpre4"
    }
  },
  {
    "id": "332745",
    "name": "KOFAR AUDI MAKERI",
    "registration_area_id": "16900",
    "precise_location": null,
    "abbreviation": "037",
    "units": "037",
    "delimitation": "25/06/07/037",
    "remark": "NEW PU",
    "ward_id": "16900",
    "ward_name": "ANG.RIMI",
    "local_government_id": "531",
    "local_government_name": "KEFFI",
    "state_id": "25",
    "state_name": "NASARAWA",
    "location": {
      "latitude": 8.8471213,
      "longitude": 7.8776023,
      "viewport": {
        "northeast": {
          "lat": 8.848300629892721,
          "lng": 7.879032079892722
        },
        "southwest": {
          "lat": 8.845600970107277,
          "lng": 7.876332420107278
        }
      },
      "formatted_address": "NASARAWA STATE UNIVERSITY, 911019, Keffi, Nigeria",
      "google_map_url": "https://maps.google.com?q=8.8471213,7.8776023",
      "google_place_id": "ChIJeyBwSijkURARPVbSxse_J90"
    }
  },
  {
    "id": "332746",
    "name": "KOFAR HAUSA PRI. SCH. DADIN KOWA",
    "registration_area_id": "16900",
    "precise_location": null,
    "abbreviation": "038",
    "units": "038",
    "delimitation": "25/06/07/038",
    "remark": "NEW PU",
    "ward_id": "16900",
    "ward_name": "ANG.RIMI",
    "local_government_id": "531",
    "local_government_name": "KEFFI",
    "state_id": "25",
    "state_name": "NASARAWA",
    "location": {
      "latitude": 8.8471213,
      "longitude": 7.8776023,
      "viewport": {
        "northeast": {
          "lat": 8.848300629892721,
          "lng": 7.879032079892722
        },
        "southwest": {
          "lat": 8.845600970107277,
          "lng": 7.876332420107278
        }
      },
      "formatted_address": "NASARAWA STATE UNIVERSITY, 911019, Keffi, Nigeria",
      "google_map_url": "https://maps.google.com?q=8.8471213,7.8776023",
      "google_place_id": "ChIJeyBwSijkURARPVbSxse_J90"
    }
  }
]