[
  {
    "id": "348973",
    "name": "OJA OBA SQUARE",
    "registration_area_id": "17752",
    "precise_location": null,
    "abbreviation": "001",
    "units": "001",
    "delimitation": "29/05/09/001",
    "remark": "EXISTING PU",
    "ward_id": "17752",
    "ward_name": "IRESI  I",
    "local_government_id": "604",
    "local_government_name": "BOLUWADURO",
    "state_id": "29",
    "state_name": "OSUN",
    "location": {
      "latitude": 7.9363755,
      "longitude": 4.8528473,
      "viewport": {
        "northeast": {
          "lat": 7.937969329892721,
          "lng": 4.854840379892722
        },
        "southwest": {
          "lat": 7.935269670107277,
          "lng": 4.852140720107277
        }
      },
      "formatted_address": "231118, Iresi, Nigeria",
      "google_map_url": "https://maps.google.com?q=7.9363755,4.8528473",
      "google_place_id": "ChIJwWBmEazvNxARsugSw3vJT-w"
    }
  },
  {
    "id": "348974",
    "name": "BAPTIST DAY SCHOOL",
    "registration_area_id": "17752",
    "precise_location": null,
    "abbreviation": "002",
    "units": "002",
    "delimitation": "29/05/09/002",
    "remark": "EXISTING PU",
    "ward_id": "17752",
    "ward_name": "IRESI  I",
    "local_government_id": "604",
    "local_government_name": "BOLUWADURO",
    "state_id": "29",
    "state_name": "OSUN",
    "location": {
      "latitude": 7.9051929,
      "longitude": 4.872230099999999,
      "viewport": {
        "northeast": {
          "lat": 7.906562179892722,
          "lng": 4.873964279892722
        },
        "southwest": {
          "lat": 7.903862520107278,
          "lng": 4.871264620107278
        }
      },
      "formatted_address": "WV4C+3R9, 231118, Igbajo, Nigeria",
      "google_map_url": "https://maps.google.com?q=7.9051929,4.872230099999999",
      "google_place_id": "ChIJ17NO3UHwNxARUtqJyBbfh4Y"
    }
  },
  {
    "id": "348975",
    "name": "SABO OLOBI",
    "registration_area_id": "17752",
    "precise_location": null,
    "abbreviation": "003",
    "units": "003",
    "delimitation": "29/05/09/003",
    "remark": "EXISTING PU",
    "ward_id": "17752",
    "ward_name": "IRESI  I",
    "local_government_id": "604",
    "local_government_name": "BOLUWADURO",
    "state_id": "29",
    "state_name": "OSUN",
    "location": {
      "latitude": 7.9363755,
      "longitude": 4.8528473,
      "viewport": {
        "northeast": {
          "lat": 7.937969329892721,
          "lng": 4.854840379892722
        },
        "southwest": {
          "lat": 7.935269670107277,
          "lng": 4.852140720107277
        }
      },
      "formatted_address": "231118, Iresi, Nigeria",
      "google_map_url": "https://maps.google.com?q=7.9363755,4.8528473",
      "google_place_id": "ChIJwWBmEazvNxARsugSw3vJT-w"
    }
  },
  {
    "id": "348976",
    "name": "OKE ERI SQUARE",
    "registration_area_id": "17752",
    "precise_location": null,
    "abbreviation": "004",
    "units": "004",
    "delimitation": "29/05/09/004",
    "remark": "EXISTING PU",
    "ward_id": "17752",
    "ward_name": "IRESI  I",
    "local_government_id": "604",
    "local_government_name": "BOLUWADURO",
    "state_id": "29",
    "state_name": "OSUN",
    "location": {
      "latitude": 7.9363755,
      "longitude": 4.8528473,
      "viewport": {
        "northeast": {
          "lat": 7.937969329892721,
          "lng": 4.854840379892722
        },
        "southwest": {
          "lat": 7.935269670107277,
          "lng": 4.852140720107277
        }
      },
      "formatted_address": "231118, Iresi, Nigeria",
      "google_map_url": "https://maps.google.com?q=7.9363755,4.8528473",
      "google_place_id": "ChIJwWBmEazvNxARsugSw3vJT-w"
    }
  },
  {
    "id": "348977",
    "name": "OGBON ODO ODE",
    "registration_area_id": "17752",
    "precise_location": null,
    "abbreviation": "005",
    "units": "005",
    "delimitation": "29/05/09/005",
    "remark": "EXISTING PU",
    "ward_id": "17752",
    "ward_name": "IRESI  I",
    "local_government_id": "604",
    "local_government_name": "BOLUWADURO",
    "state_id": "29",
    "state_name": "OSUN",
    "location": {
      "latitude": 7.9363755,
      "longitude": 4.8528473,
      "viewport": {
        "northeast": {
          "lat": 7.937969329892721,
          "lng": 4.854840379892722
        },
        "southwest": {
          "lat": 7.935269670107277,
          "lng": 4.852140720107277
        }
      },
      "formatted_address": "231118, Iresi, Nigeria",
      "google_map_url": "https://maps.google.com?q=7.9363755,4.8528473",
      "google_place_id": "ChIJwWBmEazvNxARsugSw3vJT-w"
    }
  },
  {
    "id": "348978",
    "name": "AGO FULANI",
    "registration_area_id": "17752",
    "precise_location": null,
    "abbreviation": "006",
    "units": "006",
    "delimitation": "29/05/09/006",
    "remark": "EXISTING PU",
    "ward_id": "17752",
    "ward_name": "IRESI  I",
    "local_government_id": "604",
    "local_government_name": "BOLUWADURO",
    "state_id": "29",
    "state_name": "OSUN",
    "location": {
      "latitude": 7.9363755,
      "longitude": 4.8528473,
      "viewport": {
        "northeast": {
          "lat": 7.937969329892721,
          "lng": 4.854840379892722
        },
        "southwest": {
          "lat": 7.935269670107277,
          "lng": 4.852140720107277
        }
      },
      "formatted_address": "231118, Iresi, Nigeria",
      "google_map_url": "https://maps.google.com?q=7.9363755,4.8528473",
      "google_place_id": "ChIJwWBmEazvNxARsugSw3vJT-w"
    }
  },
  {
    "id": "348979",
    "name": "OROKORO PRY. SCHOOL",
    "registration_area_id": "17752",
    "precise_location": null,
    "abbreviation": "007",
    "units": "007",
    "delimitation": "29/05/09/007",
    "remark": "EXISTING PU",
    "ward_id": "17752",
    "ward_name": "IRESI  I",
    "local_government_id": "604",
    "local_government_name": "BOLUWADURO",
    "state_id": "29",
    "state_name": "OSUN",
    "location": {
      "latitude": 7.9363755,
      "longitude": 4.8528473,
      "viewport": {
        "northeast": {
          "lat": 7.937969329892721,
          "lng": 4.854840379892722
        },
        "southwest": {
          "lat": 7.935269670107277,
          "lng": 4.852140720107277
        }
      },
      "formatted_address": "231118, Iresi, Nigeria",
      "google_map_url": "https://maps.google.com?q=7.9363755,4.8528473",
      "google_place_id": "ChIJwWBmEazvNxARsugSw3vJT-w"
    }
  }
]