[
  {
    "id": "348020",
    "name": "OPEN SPACE AT MARKET JUNCTION, OKE AYADI I",
    "registration_area_id": "17675",
    "precise_location": null,
    "abbreviation": "001",
    "units": "001",
    "delimitation": "28/16/09/001",
    "remark": "EXISTING PU",
    "ward_id": "17675",
    "ward_name": "OKEAGUNLA OKEROWO/OKEKUTA",
    "local_government_id": "597",
    "local_government_name": "ONDO WEST",
    "state_id": "28",
    "state_name": "ONDO",
    "location": null
  },
  {
    "id": "348021",
    "name": "OPEN SPACE AT MARKET JUNCTION, OKE AYADI II",
    "registration_area_id": "17675",
    "precise_location": null,
    "abbreviation": "002",
    "units": "002",
    "delimitation": "28/16/09/002",
    "remark": "EXISTING PU",
    "ward_id": "17675",
    "ward_name": "OKEAGUNLA OKEROWO/OKEKUTA",
    "local_government_id": "597",
    "local_government_name": "ONDO WEST",
    "state_id": "28",
    "state_name": "ONDO",
    "location": null
  },
  {
    "id": "348022",
    "name": "OPEN SPACE OPP GEORGES HOUSE, OKEKUTA I",
    "registration_area_id": "17675",
    "precise_location": null,
    "abbreviation": "003",
    "units": "003",
    "delimitation": "28/16/09/003",
    "remark": "EXISTING PU",
    "ward_id": "17675",
    "ward_name": "OKEAGUNLA OKEROWO/OKEKUTA",
    "local_government_id": "597",
    "local_government_name": "ONDO WEST",
    "state_id": "28",
    "state_name": "ONDO",
    "location": {
      "latitude": 7.113299199999999,
      "longitude": 4.805771,
      "viewport": {
        "northeast": {
          "lat": 7.114821229892722,
          "lng": 4.807058079892723
        },
        "southwest": {
          "lat": 7.112121570107278,
          "lng": 4.804358420107279
        }
      },
      "formatted_address": "4R74+78C, Akinsowon Folajimi Avenue, 351110, Ondo, Nigeria",
      "google_map_url": "https://maps.google.com?q=7.113299199999999,4.805771",
      "google_place_id": "ChIJ097tLX9hOBARDzRmyhP76-Y"
    }
  },
  {
    "id": "348023",
    "name": "OPEN SPACE OPP GEORGES HOUSE, OKEKUTA  II",
    "registration_area_id": "17675",
    "precise_location": null,
    "abbreviation": "004",
    "units": "004",
    "delimitation": "28/16/09/004",
    "remark": "EXISTING PU",
    "ward_id": "17675",
    "ward_name": "OKEAGUNLA OKEROWO/OKEKUTA",
    "local_government_id": "597",
    "local_government_name": "ONDO WEST",
    "state_id": "28",
    "state_name": "ONDO",
    "location": {
      "latitude": 7.113299199999999,
      "longitude": 4.805771,
      "viewport": {
        "northeast": {
          "lat": 7.114821229892722,
          "lng": 4.807058079892723
        },
        "southwest": {
          "lat": 7.112121570107278,
          "lng": 4.804358420107279
        }
      },
      "formatted_address": "4R74+78C, Akinsowon Folajimi Avenue, 351110, Ondo, Nigeria",
      "google_map_url": "https://maps.google.com?q=7.113299199999999,4.805771",
      "google_place_id": "ChIJ097tLX9hOBARDzRmyhP76-Y"
    }
  },
  {
    "id": "348024",
    "name": "OPEN SPACE IN FRONT OF FASANS HOUSE, OGBONTITUN I",
    "registration_area_id": "17675",
    "precise_location": null,
    "abbreviation": "005",
    "units": "005",
    "delimitation": "28/16/09/005",
    "remark": "EXISTING PU",
    "ward_id": "17675",
    "ward_name": "OKEAGUNLA OKEROWO/OKEKUTA",
    "local_government_id": "597",
    "local_government_name": "ONDO WEST",
    "state_id": "28",
    "state_name": "ONDO",
    "location": {
      "latitude": 7.113299199999999,
      "longitude": 4.805771,
      "viewport": {
        "northeast": {
          "lat": 7.114821229892722,
          "lng": 4.807058079892723
        },
        "southwest": {
          "lat": 7.112121570107278,
          "lng": 4.804358420107279
        }
      },
      "formatted_address": "4R74+78C, Akinsowon Folajimi Avenue, 351110, Ondo, Nigeria",
      "google_map_url": "https://maps.google.com?q=7.113299199999999,4.805771",
      "google_place_id": "ChIJ097tLX9hOBARDzRmyhP76-Y"
    }
  },
  {
    "id": "348025",
    "name": "OPEN SPACE IN FRONT OF FASANS HOUSE, OGBONTITUN II",
    "registration_area_id": "17675",
    "precise_location": null,
    "abbreviation": "006",
    "units": "006",
    "delimitation": "28/16/09/006",
    "remark": "EXISTING PU",
    "ward_id": "17675",
    "ward_name": "OKEAGUNLA OKEROWO/OKEKUTA",
    "local_government_id": "597",
    "local_government_name": "ONDO WEST",
    "state_id": "28",
    "state_name": "ONDO",
    "location": {
      "latitude": 7.113299199999999,
      "longitude": 4.805771,
      "viewport": {
        "northeast": {
          "lat": 7.114821229892722,
          "lng": 4.807058079892723
        },
        "southwest": {
          "lat": 7.112121570107278,
          "lng": 4.804358420107279
        }
      },
      "formatted_address": "4R74+78C, Akinsowon Folajimi Avenue, 351110, Ondo, Nigeria",
      "google_map_url": "https://maps.google.com?q=7.113299199999999,4.805771",
      "google_place_id": "ChIJ097tLX9hOBARDzRmyhP76-Y"
    }
  },
  {
    "id": "348026",
    "name": "AT NO 26 BY THE LEFT NEAR JUNCTION OKESARE I",
    "registration_area_id": "17675",
    "precise_location": null,
    "abbreviation": "007",
    "units": "007",
    "delimitation": "28/16/09/007",
    "remark": "EXISTING PU",
    "ward_id": "17675",
    "ward_name": "OKEAGUNLA OKEROWO/OKEKUTA",
    "local_government_id": "597",
    "local_government_name": "ONDO WEST",
    "state_id": "28",
    "state_name": "ONDO",
    "location": {
      "latitude": 7.0923,
      "longitude": 4.8418531,
      "viewport": {
        "northeast": {
          "lat": 7.093649829892721,
          "lng": 4.843202929892723
        },
        "southwest": {
          "lat": 7.090950170107277,
          "lng": 4.840503270107279
        }
      },
      "formatted_address": "Okesare St, 351106, Ondo, Nigeria",
      "google_map_url": "https://maps.google.com?q=7.0923,4.8418531",
      "google_place_id": "ChIJx_zjKkNiOBARMmjSLBzhfag"
    }
  },
  {
    "id": "348027",
    "name": "AT NO 26 BY THE LEFT NEAR JUNCTION OKESARE II",
    "registration_area_id": "17675",
    "precise_location": null,
    "abbreviation": "008",
    "units": "008",
    "delimitation": "28/16/09/008",
    "remark": "EXISTING PU",
    "ward_id": "17675",
    "ward_name": "OKEAGUNLA OKEROWO/OKEKUTA",
    "local_government_id": "597",
    "local_government_name": "ONDO WEST",
    "state_id": "28",
    "state_name": "ONDO",
    "location": {
      "latitude": 7.0923,
      "longitude": 4.8418531,
      "viewport": {
        "northeast": {
          "lat": 7.093649829892721,
          "lng": 4.843202929892723
        },
        "southwest": {
          "lat": 7.090950170107277,
          "lng": 4.840503270107279
        }
      },
      "formatted_address": "Okesare St, 351106, Ondo, Nigeria",
      "google_map_url": "https://maps.google.com?q=7.0923,4.8418531",
      "google_place_id": "ChIJx_zjKkNiOBARMmjSLBzhfag"
    }
  },
  {
    "id": "348028",
    "name": "OPEN SPACE IN FRONT OF OSUNGBOYE I",
    "registration_area_id": "17675",
    "precise_location": null,
    "abbreviation": "009",
    "units": "009",
    "delimitation": "28/16/09/009",
    "remark": "EXISTING PU",
    "ward_id": "17675",
    "ward_name": "OKEAGUNLA OKEROWO/OKEKUTA",
    "local_government_id": "597",
    "local_government_name": "ONDO WEST",
    "state_id": "28",
    "state_name": "ONDO",
    "location": {
      "latitude": 7.113299199999999,
      "longitude": 4.805771,
      "viewport": {
        "northeast": {
          "lat": 7.114821229892722,
          "lng": 4.807058079892723
        },
        "southwest": {
          "lat": 7.112121570107278,
          "lng": 4.804358420107279
        }
      },
      "formatted_address": "4R74+78C, Akinsowon Folajimi Avenue, 351110, Ondo, Nigeria",
      "google_map_url": "https://maps.google.com?q=7.113299199999999,4.805771",
      "google_place_id": "ChIJ097tLX9hOBARDzRmyhP76-Y"
    }
  },
  {
    "id": "348029",
    "name": "OPEN SPACE IN FRONT OF OSUNGBOYE II",
    "registration_area_id": "17675",
    "precise_location": null,
    "abbreviation": "010",
    "units": "010",
    "delimitation": "28/16/09/010",
    "remark": "EXISTING PU",
    "ward_id": "17675",
    "ward_name": "OKEAGUNLA OKEROWO/OKEKUTA",
    "local_government_id": "597",
    "local_government_name": "ONDO WEST",
    "state_id": "28",
    "state_name": "ONDO",
    "location": {
      "latitude": 7.113299199999999,
      "longitude": 4.805771,
      "viewport": {
        "northeast": {
          "lat": 7.114821229892722,
          "lng": 4.807058079892723
        },
        "southwest": {
          "lat": 7.112121570107278,
          "lng": 4.804358420107279
        }
      },
      "formatted_address": "4R74+78C, Akinsowon Folajimi Avenue, 351110, Ondo, Nigeria",
      "google_map_url": "https://maps.google.com?q=7.113299199999999,4.805771",
      "google_place_id": "ChIJ097tLX9hOBARDzRmyhP76-Y"
    }
  },
  {
    "id": "348030",
    "name": "OPEN SPACE AT SOKOTI MARKET JUNCTION, OKE-AYADI I",
    "registration_area_id": "17675",
    "precise_location": null,
    "abbreviation": "011",
    "units": "011",
    "delimitation": "28/16/09/011",
    "remark": "EXISTING PU",
    "ward_id": "17675",
    "ward_name": "OKEAGUNLA OKEROWO/OKEKUTA",
    "local_government_id": "597",
    "local_government_name": "ONDO WEST",
    "state_id": "28",
    "state_name": "ONDO",
    "location": null
  },
  {
    "id": "348031",
    "name": "OPEN SPACE AT SOKOTI MARKET JUNCTION, OKE-AYADI II",
    "registration_area_id": "17675",
    "precise_location": null,
    "abbreviation": "012",
    "units": "012",
    "delimitation": "28/16/09/012",
    "remark": "EXISTING PU",
    "ward_id": "17675",
    "ward_name": "OKEAGUNLA OKEROWO/OKEKUTA",
    "local_government_id": "597",
    "local_government_name": "ONDO WEST",
    "state_id": "28",
    "state_name": "ONDO",
    "location": null
  },
  {
    "id": "348032",
    "name": "OPEN SPACE AT BESDIES CARPENTERS SHOPS, SOKOTI I",
    "registration_area_id": "17675",
    "precise_location": null,
    "abbreviation": "013",
    "units": "013",
    "delimitation": "28/16/09/013",
    "remark": "EXISTING PU",
    "ward_id": "17675",
    "ward_name": "OKEAGUNLA OKEROWO/OKEKUTA",
    "local_government_id": "597",
    "local_government_name": "ONDO WEST",
    "state_id": "28",
    "state_name": "ONDO",
    "location": {
      "latitude": 7.113299199999999,
      "longitude": 4.805771,
      "viewport": {
        "northeast": {
          "lat": 7.114821229892722,
          "lng": 4.807058079892723
        },
        "southwest": {
          "lat": 7.112121570107278,
          "lng": 4.804358420107279
        }
      },
      "formatted_address": "4R74+78C, Akinsowon Folajimi Avenue, 351110, Ondo, Nigeria",
      "google_map_url": "https://maps.google.com?q=7.113299199999999,4.805771",
      "google_place_id": "ChIJ097tLX9hOBARDzRmyhP76-Y"
    }
  },
  {
    "id": "348033",
    "name": "OPEN SPACE AT BESDIES CARPENTERS SHOPS, SOKOTI II",
    "registration_area_id": "17675",
    "precise_location": null,
    "abbreviation": "014",
    "units": "014",
    "delimitation": "28/16/09/014",
    "remark": "EXISTING PU",
    "ward_id": "17675",
    "ward_name": "OKEAGUNLA OKEROWO/OKEKUTA",
    "local_government_id": "597",
    "local_government_name": "ONDO WEST",
    "state_id": "28",
    "state_name": "ONDO",
    "location": null
  },
  {
    "id": "348034",
    "name": "OGO-OLORUN PRY SCH, MOBOLODA I",
    "registration_area_id": "17675",
    "precise_location": null,
    "abbreviation": "015",
    "units": "015",
    "delimitation": "28/16/09/015",
    "remark": "EXISTING PU",
    "ward_id": "17675",
    "ward_name": "OKEAGUNLA OKEROWO/OKEKUTA",
    "local_government_id": "597",
    "local_government_name": "ONDO WEST",
    "state_id": "28",
    "state_name": "ONDO",
    "location": {
      "latitude": 7.081429399999999,
      "longitude": 4.8385891,
      "viewport": {
        "northeast": {
          "lat": 7.082844179892721,
          "lng": 4.839908079892721
        },
        "southwest": {
          "lat": 7.080144520107277,
          "lng": 4.837208420107277
        }
      },
      "formatted_address": "3RJQ+MC3, 351106, Ondo, Nigeria",
      "google_map_url": "https://maps.google.com?q=7.081429399999999,4.8385891",
      "google_place_id": "ChIJH7rR-25iOBARpvdlwhvpHiU"
    }
  },
  {
    "id": "348035",
    "name": "OGO-OLORUN PRY SCH, MOBOLODA II",
    "registration_area_id": "17675",
    "precise_location": null,
    "abbreviation": "016",
    "units": "016",
    "delimitation": "28/16/09/016",
    "remark": "EXISTING PU",
    "ward_id": "17675",
    "ward_name": "OKEAGUNLA OKEROWO/OKEKUTA",
    "local_government_id": "597",
    "local_government_name": "ONDO WEST",
    "state_id": "28",
    "state_name": "ONDO",
    "location": {
      "latitude": 7.113299199999999,
      "longitude": 4.805771,
      "viewport": {
        "northeast": {
          "lat": 7.114821229892722,
          "lng": 4.807058079892723
        },
        "southwest": {
          "lat": 7.112121570107278,
          "lng": 4.804358420107279
        }
      },
      "formatted_address": "4R74+78C, Akinsowon Folajimi Avenue, 351110, Ondo, Nigeria",
      "google_map_url": "https://maps.google.com?q=7.113299199999999,4.805771",
      "google_place_id": "ChIJ097tLX9hOBARDzRmyhP76-Y"
    }
  },
  {
    "id": "348036",
    "name": "OPEN SPACE AT MOFERERE MARKET",
    "registration_area_id": "17675",
    "precise_location": null,
    "abbreviation": "017",
    "units": "017",
    "delimitation": "28/16/09/017",
    "remark": "NEW PU",
    "ward_id": "17675",
    "ward_name": "OKEAGUNLA OKEROWO/OKEKUTA",
    "local_government_id": "597",
    "local_government_name": "ONDO WEST",
    "state_id": "28",
    "state_name": "ONDO",
    "location": {
      "latitude": 7.0929205,
      "longitude": 4.8374061,
      "viewport": {
        "northeast": {
          "lat": 7.094290579892722,
          "lng": 4.838762529892722
        },
        "southwest": {
          "lat": 7.091590920107278,
          "lng": 4.836062870107278
        }
      },
      "formatted_address": "Ifore/Odosida/Loro, 351106, Ondo, Nigeria",
      "google_map_url": "https://maps.google.com?q=7.0929205,4.8374061",
      "google_place_id": "ChIJMSMFz6pjOBARBRs0Pd_nsyk"
    }
  },
  {
    "id": "348037",
    "name": "NO 17 OKEOKUTA",
    "registration_area_id": "17675",
    "precise_location": null,
    "abbreviation": "018",
    "units": "018",
    "delimitation": "28/16/09/018",
    "remark": "NEW PU",
    "ward_id": "17675",
    "ward_name": "OKEAGUNLA OKEROWO/OKEKUTA",
    "local_government_id": "597",
    "local_government_name": "ONDO WEST",
    "state_id": "28",
    "state_name": "ONDO",
    "location": {
      "latitude": 7.090577,
      "longitude": 4.8455821,
      "viewport": {
        "northeast": {
          "lat": 7.0947548,
          "lng": 4.8574996
        },
        "southwest": {
          "lat": 7.0838499,
          "lng": 4.8360872
        }
      },
      "formatted_address": "Okeagunla Okerowo/Okekuta, Ondo, Nigeria",
      "google_map_url": "https://maps.google.com?q=7.090577,4.8455821",
      "google_place_id": "ChIJt0CV_11iOBARNbAYKSsHQLU"
    }
  },
  {
    "id": "348038",
    "name": "27 LOSUNLA I",
    "registration_area_id": "17675",
    "precise_location": null,
    "abbreviation": "019",
    "units": "019",
    "delimitation": "28/16/09/019",
    "remark": "NEW PU",
    "ward_id": "17675",
    "ward_name": "OKEAGUNLA OKEROWO/OKEKUTA",
    "local_government_id": "597",
    "local_government_name": "ONDO WEST",
    "state_id": "28",
    "state_name": "ONDO",
    "location": null
  },
  {
    "id": "348039",
    "name": "AT POST OFFICE MOFERERE MARKET SOKOTI",
    "registration_area_id": "17675",
    "precise_location": null,
    "abbreviation": "020",
    "units": "020",
    "delimitation": "28/16/09/020",
    "remark": "NEW PU",
    "ward_id": "17675",
    "ward_name": "OKEAGUNLA OKEROWO/OKEKUTA",
    "local_government_id": "597",
    "local_government_name": "ONDO WEST",
    "state_id": "28",
    "state_name": "ONDO",
    "location": {
      "latitude": 7.253796100000001,
      "longitude": 5.194224999999999,
      "viewport": {
        "northeast": {
          "lat": 7.255149179892721,
          "lng": 5.195493079892722
        },
        "southwest": {
          "lat": 7.252449520107277,
          "lng": 5.192793420107278
        }
      },
      "formatted_address": "753V+GM9, Boboye St, 340283, Akure, Nigeria",
      "google_map_url": "https://maps.google.com?q=7.253796100000001,5.194224999999999",
      "google_place_id": "ChIJCa1LxpmPRxARjEbItN3iEnY"
    }
  },
  {
    "id": "348040",
    "name": "NO 5 SOKOTI STREET",
    "registration_area_id": "17675",
    "precise_location": null,
    "abbreviation": "021",
    "units": "021",
    "delimitation": "28/16/09/021",
    "remark": "NEW PU",
    "ward_id": "17675",
    "ward_name": "OKEAGUNLA OKEROWO/OKEKUTA",
    "local_government_id": "597",
    "local_government_name": "ONDO WEST",
    "state_id": "28",
    "state_name": "ONDO",
    "location": null
  },
  {
    "id": "348041",
    "name": "METHODIST GRAMMAR SCHL OKE AGUNLA",
    "registration_area_id": "17675",
    "precise_location": null,
    "abbreviation": "022",
    "units": "022",
    "delimitation": "28/16/09/022",
    "remark": "NEW PU",
    "ward_id": "17675",
    "ward_name": "OKEAGUNLA OKEROWO/OKEKUTA",
    "local_government_id": "597",
    "local_government_name": "ONDO WEST",
    "state_id": "28",
    "state_name": "ONDO",
    "location": {
      "latitude": 7.0806153,
      "longitude": 4.837270999999999,
      "viewport": {
        "northeast": {
          "lat": 7.081960579892721,
          "lng": 4.838566879892721
        },
        "southwest": {
          "lat": 7.079260920107277,
          "lng": 4.835867220107278
        }
      },
      "formatted_address": "3RJP+6WV, Oke-Odunwo Rd, 351106, Ondo, Nigeria",
      "google_map_url": "https://maps.google.com?q=7.0806153,4.837270999999999",
      "google_place_id": "ChIJlYlYZW5iOBARvqy_52ZRXlA"
    }
  },
  {
    "id": "348042",
    "name": "14 LOSUNLA II",
    "registration_area_id": "17675",
    "precise_location": null,
    "abbreviation": "023",
    "units": "023",
    "delimitation": "28/16/09/023",
    "remark": "NEW PU",
    "ward_id": "17675",
    "ward_name": "OKEAGUNLA OKEROWO/OKEKUTA",
    "local_government_id": "597",
    "local_government_name": "ONDO WEST",
    "state_id": "28",
    "state_name": "ONDO",
    "location": null
  },
  {
    "id": "348043",
    "name": "11 OKESARE LANE",
    "registration_area_id": "17675",
    "precise_location": null,
    "abbreviation": "024",
    "units": "024",
    "delimitation": "28/16/09/024",
    "remark": "NEW PU",
    "ward_id": "17675",
    "ward_name": "OKEAGUNLA OKEROWO/OKEKUTA",
    "local_government_id": "597",
    "local_government_name": "ONDO WEST",
    "state_id": "28",
    "state_name": "ONDO",
    "location": {
      "latitude": 7.0923042,
      "longitude": 4.8418592,
      "viewport": {
        "northeast": {
          "lat": 7.093654029892722,
          "lng": 4.843209029892721
        },
        "southwest": {
          "lat": 7.090954370107278,
          "lng": 4.840509370107277
        }
      },
      "formatted_address": "11 Okesare St, 351106, Ondo, Nigeria",
      "google_map_url": "https://maps.google.com?q=7.0923042,4.8418592",
      "google_place_id": "EiQxMSBPa2VzYXJlIFN0LCAzNTExMDYsIE9uZG8sIE5pZ2VyaWEiMBIuChQKEgl_xYDUXGI4EBF17Pqs6YO1_xALKhQKEgnH_OMqQ2I4EBEyaNIsHOF9qA"
    }
  },
  {
    "id": "348044",
    "name": "6 AKINGBULUMO HOUSE OKEGBOGI",
    "registration_area_id": "17675",
    "precise_location": null,
    "abbreviation": "025",
    "units": "025",
    "delimitation": "28/16/09/025",
    "remark": "NEW PU",
    "ward_id": "17675",
    "ward_name": "OKEAGUNLA OKEROWO/OKEKUTA",
    "local_government_id": "597",
    "local_government_name": "ONDO WEST",
    "state_id": "28",
    "state_name": "ONDO",
    "location": {
      "latitude": 7.0940819,
      "longitude": 4.8419175,
      "viewport": {
        "northeast": {
          "lat": 7.095431729892722,
          "lng": 4.843267329892722
        },
        "southwest": {
          "lat": 7.092732070107278,
          "lng": 4.840567670107277
        }
      },
      "formatted_address": "Okegbogi St, 351103, Ondo, Nigeria",
      "google_map_url": "https://maps.google.com?q=7.0940819,4.8419175",
      "google_place_id": "ChIJr8EVrVxiOBARhvuLSLU8YiQ"
    }
  },
  {
    "id": "348045",
    "name": "MOLEKERE OKE AGUNLA STR",
    "registration_area_id": "17675",
    "precise_location": null,
    "abbreviation": "026",
    "units": "026",
    "delimitation": "28/16/09/026",
    "remark": "NEW PU",
    "ward_id": "17675",
    "ward_name": "OKEAGUNLA OKEROWO/OKEKUTA",
    "local_government_id": "597",
    "local_government_name": "ONDO WEST",
    "state_id": "28",
    "state_name": "ONDO",
    "location": {
      "latitude": 7.0929205,
      "longitude": 4.8374061,
      "viewport": {
        "northeast": {
          "lat": 7.094290579892722,
          "lng": 4.838762529892722
        },
        "southwest": {
          "lat": 7.091590920107278,
          "lng": 4.836062870107278
        }
      },
      "formatted_address": "Ifore/Odosida/Loro, 351106, Ondo, Nigeria",
      "google_map_url": "https://maps.google.com?q=7.0929205,4.8374061",
      "google_place_id": "ChIJMSMFz6pjOBARBRs0Pd_nsyk"
    }
  },
  {
    "id": "348046",
    "name": "METHODIST PRY SCHL OKE AGUNLA I",
    "registration_area_id": "17675",
    "precise_location": null,
    "abbreviation": "027",
    "units": "027",
    "delimitation": "28/16/09/027",
    "remark": "NEW PU",
    "ward_id": "17675",
    "ward_name": "OKEAGUNLA OKEROWO/OKEKUTA",
    "local_government_id": "597",
    "local_government_name": "ONDO WEST",
    "state_id": "28",
    "state_name": "ONDO",
    "location": {
      "latitude": 6.743862,
      "longitude": 4.8764432,
      "viewport": {
        "northeast": {
          "lat": 6.745190979892722,
          "lng": 4.877819329892723
        },
        "southwest": {
          "lat": 6.742491320107278,
          "lng": 4.875119670107279
        }
      },
      "formatted_address": "PVVG+FHM, 350107, Ore, Nigeria",
      "google_map_url": "https://maps.google.com?q=6.743862,4.8764432",
      "google_place_id": "ChIJK94noeuXOBARXn_F5MGCzOM"
    }
  },
  {
    "id": "348047",
    "name": "METHODIST PRY SCHL OKE AGUNLA II",
    "registration_area_id": "17675",
    "precise_location": null,
    "abbreviation": "028",
    "units": "028",
    "delimitation": "28/16/09/028",
    "remark": "NEW PU",
    "ward_id": "17675",
    "ward_name": "OKEAGUNLA OKEROWO/OKEKUTA",
    "local_government_id": "597",
    "local_government_name": "ONDO WEST",
    "state_id": "28",
    "state_name": "ONDO",
    "location": {
      "latitude": 6.743862,
      "longitude": 4.8764432,
      "viewport": {
        "northeast": {
          "lat": 6.745190979892722,
          "lng": 4.877819329892723
        },
        "southwest": {
          "lat": 6.742491320107278,
          "lng": 4.875119670107279
        }
      },
      "formatted_address": "PVVG+FHM, 350107, Ore, Nigeria",
      "google_map_url": "https://maps.google.com?q=6.743862,4.8764432",
      "google_place_id": "ChIJK94noeuXOBARXn_F5MGCzOM"
    }
  }
]