[
  {
    "id": "344840",
    "name": "OJO, OUTSIDE CHIEF ELEKULES HOUSE",
    "registration_area_id": "17516",
    "precise_location": null,
    "abbreviation": "001",
    "units": "001",
    "delimitation": "28/02/05/001",
    "remark": "EXISTING PU",
    "ward_id": "17516",
    "ward_name": "AJOWA/IGASI/ERITI/GEDEGEDE",
    "local_government_id": "583",
    "local_government_name": "AKOKO NORTH WEST",
    "state_id": "28",
    "state_name": "ONDO",
    "location": null
  },
  {
    "id": "344841",
    "name": "OJO, OUTSIDE CHIEF ELEKULES HOUSE",
    "registration_area_id": "17516",
    "precise_location": null,
    "abbreviation": "002",
    "units": "002",
    "delimitation": "28/02/05/002",
    "remark": "EXISTING PU",
    "ward_id": "17516",
    "ward_name": "AJOWA/IGASI/ERITI/GEDEGEDE",
    "local_government_id": "583",
    "local_government_name": "AKOKO NORTH WEST",
    "state_id": "28",
    "state_name": "ONDO",
    "location": null
  },
  {
    "id": "344842",
    "name": "OJO, OJO CENTRAL FIELD",
    "registration_area_id": "17516",
    "precise_location": null,
    "abbreviation": "003",
    "units": "003",
    "delimitation": "28/02/05/003",
    "remark": "EXISTING PU",
    "ward_id": "17516",
    "ward_name": "AJOWA/IGASI/ERITI/GEDEGEDE",
    "local_government_id": "583",
    "local_government_name": "AKOKO NORTH WEST",
    "state_id": "28",
    "state_name": "ONDO",
    "location": {
      "latitude": 7.682595899999999,
      "longitude": 5.906428699999999,
      "viewport": {
        "northeast": {
          "lat": 7.68403967989272,
          "lng": 5.90780587989272
        },
        "southwest": {
          "lat": 7.681340020107276,
          "lng": 5.905106220107276
        }
      },
      "formatted_address": "MWM4+2HM, 342105, Ajowa-Akoko I, Nigeria",
      "google_map_url": "https://maps.google.com?q=7.682595899999999,5.906428699999999",
      "google_place_id": "ChIJU_8NqSMmRhARNECD01hj83o"
    }
  },
  {
    "id": "344843",
    "name": "OJO, OJO CENTRAL FIELD",
    "registration_area_id": "17516",
    "precise_location": null,
    "abbreviation": "004",
    "units": "004",
    "delimitation": "28/02/05/004",
    "remark": "EXISTING PU",
    "ward_id": "17516",
    "ward_name": "AJOWA/IGASI/ERITI/GEDEGEDE",
    "local_government_id": "583",
    "local_government_name": "AKOKO NORTH WEST",
    "state_id": "28",
    "state_name": "ONDO",
    "location": {
      "latitude": 7.682595899999999,
      "longitude": 5.906428699999999,
      "viewport": {
        "northeast": {
          "lat": 7.68403967989272,
          "lng": 5.90780587989272
        },
        "southwest": {
          "lat": 7.681340020107276,
          "lng": 5.905106220107276
        }
      },
      "formatted_address": "MWM4+2HM, 342105, Ajowa-Akoko I, Nigeria",
      "google_map_url": "https://maps.google.com?q=7.682595899999999,5.906428699999999",
      "google_place_id": "ChIJU_8NqSMmRhARNECD01hj83o"
    }
  },
  {
    "id": "344844",
    "name": "DAJA, NEAR POSTAL AGENCY",
    "registration_area_id": "17516",
    "precise_location": null,
    "abbreviation": "005",
    "units": "005",
    "delimitation": "28/02/05/005",
    "remark": "EXISTING PU",
    "ward_id": "17516",
    "ward_name": "AJOWA/IGASI/ERITI/GEDEGEDE",
    "local_government_id": "583",
    "local_government_name": "AKOKO NORTH WEST",
    "state_id": "28",
    "state_name": "ONDO",
    "location": {
      "latitude": 7.676867,
      "longitude": 5.899020999999999,
      "viewport": {
        "northeast": {
          "lat": 7.678209379892722,
          "lng": 5.900312079892721
        },
        "southwest": {
          "lat": 7.675509720107278,
          "lng": 5.897612420107277
        }
      },
      "formatted_address": "MVGX+PJR, 342105, Ajowa-Akoko I, Nigeria",
      "google_map_url": "https://maps.google.com?q=7.676867,5.899020999999999",
      "google_place_id": "ChIJqy-q1B8mRhARA29qaD6XVlg"
    }
  },
  {
    "id": "344845",
    "name": "DAJA, NEAR POSTAL AGENCY",
    "registration_area_id": "17516",
    "precise_location": null,
    "abbreviation": "006",
    "units": "006",
    "delimitation": "28/02/05/006",
    "remark": "EXISTING PU",
    "ward_id": "17516",
    "ward_name": "AJOWA/IGASI/ERITI/GEDEGEDE",
    "local_government_id": "583",
    "local_government_name": "AKOKO NORTH WEST",
    "state_id": "28",
    "state_name": "ONDO",
    "location": {
      "latitude": 7.676867,
      "longitude": 5.899020999999999,
      "viewport": {
        "northeast": {
          "lat": 7.678209379892722,
          "lng": 5.900312079892721
        },
        "southwest": {
          "lat": 7.675509720107278,
          "lng": 5.897612420107277
        }
      },
      "formatted_address": "MVGX+PJR, 342105, Ajowa-Akoko I, Nigeria",
      "google_map_url": "https://maps.google.com?q=7.676867,5.899020999999999",
      "google_place_id": "ChIJqy-q1B8mRhARA29qaD6XVlg"
    }
  },
  {
    "id": "344846",
    "name": "DAJA, OPPOSITE AJOWA MARKET",
    "registration_area_id": "17516",
    "precise_location": null,
    "abbreviation": "007",
    "units": "007",
    "delimitation": "28/02/05/007",
    "remark": "EXISTING PU",
    "ward_id": "17516",
    "ward_name": "AJOWA/IGASI/ERITI/GEDEGEDE",
    "local_government_id": "583",
    "local_government_name": "AKOKO NORTH WEST",
    "state_id": "28",
    "state_name": "ONDO",
    "location": {
      "latitude": 7.679846700000001,
      "longitude": 5.8775964,
      "viewport": {
        "northeast": {
          "lat": 7.750245999999999,
          "lng": 5.940000299999999
        },
        "southwest": {
          "lat": 7.621219399999999,
          "lng": 5.7457102
        }
      },
      "formatted_address": "Ajowa/Igasi/Eriti/Gedegede, Nigeria",
      "google_map_url": "https://maps.google.com?q=7.679846700000001,5.8775964",
      "google_place_id": "ChIJY_jMLBEpRhARuWxOZNFVmaY"
    }
  },
  {
    "id": "344847",
    "name": "URO, L.A SCH URO",
    "registration_area_id": "17516",
    "precise_location": null,
    "abbreviation": "008",
    "units": "008",
    "delimitation": "28/02/05/008",
    "remark": "EXISTING PU",
    "ward_id": "17516",
    "ward_name": "AJOWA/IGASI/ERITI/GEDEGEDE",
    "local_government_id": "583",
    "local_government_name": "AKOKO NORTH WEST",
    "state_id": "28",
    "state_name": "ONDO",
    "location": {
      "latitude": 7.6778978,
      "longitude": 5.8940993,
      "viewport": {
        "northeast": {
          "lat": 7.67905047989272,
          "lng": 5.895405429892722
        },
        "southwest": {
          "lat": 7.676350820107277,
          "lng": 5.892705770107278
        }
      },
      "formatted_address": "MVHV+5J5, 342105, Ajowa-Akoko I, Nigeria",
      "google_map_url": "https://maps.google.com?q=7.6778978,5.8940993",
      "google_place_id": "ChIJpW12kqEoRhARXFCu0lyMAmQ"
    }
  },
  {
    "id": "344848",
    "name": "URO, NEAR INUBAIYE COMPOUND",
    "registration_area_id": "17516",
    "precise_location": null,
    "abbreviation": "009",
    "units": "009",
    "delimitation": "28/02/05/009",
    "remark": "EXISTING PU",
    "ward_id": "17516",
    "ward_name": "AJOWA/IGASI/ERITI/GEDEGEDE",
    "local_government_id": "583",
    "local_government_name": "AKOKO NORTH WEST",
    "state_id": "28",
    "state_name": "ONDO",
    "location": null
  },
  {
    "id": "344849",
    "name": "ORA, NEAR ORA MOSQUE",
    "registration_area_id": "17516",
    "precise_location": null,
    "abbreviation": "010",
    "units": "010",
    "delimitation": "28/02/05/010",
    "remark": "EXISTING PU",
    "ward_id": "17516",
    "ward_name": "AJOWA/IGASI/ERITI/GEDEGEDE",
    "local_government_id": "583",
    "local_government_name": "AKOKO NORTH WEST",
    "state_id": "28",
    "state_name": "ONDO",
    "location": {
      "latitude": 7.6736444,
      "longitude": 5.8952179,
      "viewport": {
        "northeast": {
          "lat": 7.674990179892721,
          "lng": 5.896595479892721
        },
        "southwest": {
          "lat": 7.672290520107278,
          "lng": 5.893895820107277
        }
      },
      "formatted_address": "MVFW+F34, 342105, Ajowa-Akoko I, Nigeria",
      "google_map_url": "https://maps.google.com?q=7.6736444,5.8952179",
      "google_place_id": "ChIJZxdTzqYoRhARDgqNuK-mAt8"
    }
  },
  {
    "id": "344850",
    "name": "OSO, IYALODES COMPOUND",
    "registration_area_id": "17516",
    "precise_location": null,
    "abbreviation": "011",
    "units": "011",
    "delimitation": "28/02/05/011",
    "remark": "EXISTING PU",
    "ward_id": "17516",
    "ward_name": "AJOWA/IGASI/ERITI/GEDEGEDE",
    "local_government_id": "583",
    "local_government_name": "AKOKO NORTH WEST",
    "state_id": "28",
    "state_name": "ONDO",
    "location": {
      "latitude": 7.679846700000001,
      "longitude": 5.8775964,
      "viewport": {
        "northeast": {
          "lat": 7.750245999999999,
          "lng": 5.940000299999999
        },
        "southwest": {
          "lat": 7.621219399999999,
          "lng": 5.7457102
        }
      },
      "formatted_address": "Ajowa/Igasi/Eriti/Gedegede, Nigeria",
      "google_map_url": "https://maps.google.com?q=7.679846700000001,5.8775964",
      "google_place_id": "ChIJY_jMLBEpRhARuWxOZNFVmaY"
    }
  },
  {
    "id": "344851",
    "name": "ESUKU, OPPOSITE ELESHUKUS PALACE",
    "registration_area_id": "17516",
    "precise_location": null,
    "abbreviation": "012",
    "units": "012",
    "delimitation": "28/02/05/012",
    "remark": "EXISTING PU",
    "ward_id": "17516",
    "ward_name": "AJOWA/IGASI/ERITI/GEDEGEDE",
    "local_government_id": "583",
    "local_government_name": "AKOKO NORTH WEST",
    "state_id": "28",
    "state_name": "ONDO",
    "location": {
      "latitude": 7.628715899999999,
      "longitude": 5.9398634,
      "viewport": {
        "northeast": {
          "lat": 7.630092329892721,
          "lng": 5.941157479892722
        },
        "southwest": {
          "lat": 7.627392670107278,
          "lng": 5.938457820107277
        }
      },
      "formatted_address": "JWHQ+FWQ, Akunu Akoko, along Ipele road, Kabba, Nigeria",
      "google_map_url": "https://maps.google.com?q=7.628715899999999,5.9398634",
      "google_place_id": "ChIJY13sPrMlRhARJbfR7XKdMVg"
    }
  },
  {
    "id": "344852",
    "name": "AKUNNU, TOWN HALL, AJOWA",
    "registration_area_id": "17516",
    "precise_location": null,
    "abbreviation": "013",
    "units": "013",
    "delimitation": "28/02/05/013",
    "remark": "EXISTING PU",
    "ward_id": "17516",
    "ward_name": "AJOWA/IGASI/ERITI/GEDEGEDE",
    "local_government_id": "583",
    "local_government_name": "AKOKO NORTH WEST",
    "state_id": "28",
    "state_name": "ONDO",
    "location": {
      "latitude": 7.676867,
      "longitude": 5.899020999999999,
      "viewport": {
        "northeast": {
          "lat": 7.678209379892722,
          "lng": 5.900312079892721
        },
        "southwest": {
          "lat": 7.675509720107278,
          "lng": 5.897612420107277
        }
      },
      "formatted_address": "MVGX+PJR, 342105, Ajowa-Akoko I, Nigeria",
      "google_map_url": "https://maps.google.com?q=7.676867,5.899020999999999",
      "google_place_id": "ChIJqy-q1B8mRhARA29qaD6XVlg"
    }
  },
  {
    "id": "344853",
    "name": "EFIFA, IN EFIFA AJOWA",
    "registration_area_id": "17516",
    "precise_location": null,
    "abbreviation": "014",
    "units": "014",
    "delimitation": "28/02/05/014",
    "remark": "EXISTING PU",
    "ward_id": "17516",
    "ward_name": "AJOWA/IGASI/ERITI/GEDEGEDE",
    "local_government_id": "583",
    "local_government_name": "AKOKO NORTH WEST",
    "state_id": "28",
    "state_name": "ONDO",
    "location": {
      "latitude": 7.685776,
      "longitude": 5.908967,
      "viewport": {
        "northeast": {
          "lat": 7.693244999999999,
          "lng": 5.918692099999999
        },
        "southwest": {
          "lat": 7.678844000000001,
          "lng": 5.8999311
        }
      },
      "formatted_address": "342105, Ajowa-Akoko I, Nigeria",
      "google_map_url": "https://maps.google.com?q=7.685776,5.908967",
      "google_place_id": "ChIJRRBT2TomRhAROz2K-v2UnzE"
    }
  },
  {
    "id": "344854",
    "name": "GEDEGEDE, GEDEGEDE TOWN HALL",
    "registration_area_id": "17516",
    "precise_location": null,
    "abbreviation": "015",
    "units": "015",
    "delimitation": "28/02/05/015",
    "remark": "EXISTING PU",
    "ward_id": "17516",
    "ward_name": "AJOWA/IGASI/ERITI/GEDEGEDE",
    "local_government_id": "583",
    "local_government_name": "AKOKO NORTH WEST",
    "state_id": "28",
    "state_name": "ONDO",
    "location": {
      "latitude": 7.638168,
      "longitude": 5.880334899999999,
      "viewport": {
        "northeast": {
          "lat": 7.639432079892722,
          "lng": 5.881749779892721
        },
        "southwest": {
          "lat": 7.636732420107278,
          "lng": 5.879050120107277
        }
      },
      "formatted_address": "JVQJ+748, 342105, Gedegede, Nigeria",
      "google_map_url": "https://maps.google.com?q=7.638168,5.880334899999999",
      "google_place_id": "ChIJU-nktEEvRhAR9YgT_tPVGKU"
    }
  },
  {
    "id": "344855",
    "name": "IGASI, L.A PRY SCH IGASI",
    "registration_area_id": "17516",
    "precise_location": null,
    "abbreviation": "016",
    "units": "016",
    "delimitation": "28/02/05/016",
    "remark": "EXISTING PU",
    "ward_id": "17516",
    "ward_name": "AJOWA/IGASI/ERITI/GEDEGEDE",
    "local_government_id": "583",
    "local_government_name": "AKOKO NORTH WEST",
    "state_id": "28",
    "state_name": "ONDO",
    "location": {
      "latitude": 7.679846700000001,
      "longitude": 5.8775964,
      "viewport": {
        "northeast": {
          "lat": 7.750245999999999,
          "lng": 5.940000299999999
        },
        "southwest": {
          "lat": 7.621219399999999,
          "lng": 5.7457102
        }
      },
      "formatted_address": "Ajowa/Igasi/Eriti/Gedegede, Nigeria",
      "google_map_url": "https://maps.google.com?q=7.679846700000001,5.8775964",
      "google_place_id": "ChIJY_jMLBEpRhARuWxOZNFVmaY"
    }
  },
  {
    "id": "344856",
    "name": "ERITI, BAPTIST PRY SCH",
    "registration_area_id": "17516",
    "precise_location": null,
    "abbreviation": "017",
    "units": "017",
    "delimitation": "28/02/05/017",
    "remark": "EXISTING PU",
    "ward_id": "17516",
    "ward_name": "AJOWA/IGASI/ERITI/GEDEGEDE",
    "local_government_id": "583",
    "local_government_name": "AKOKO NORTH WEST",
    "state_id": "28",
    "state_name": "ONDO",
    "location": null
  },
  {
    "id": "344857",
    "name": "ERITI MARKET SQUARE ERITI",
    "registration_area_id": "17516",
    "precise_location": null,
    "abbreviation": "018",
    "units": "018",
    "delimitation": "28/02/05/018",
    "remark": "NEW PU",
    "ward_id": "17516",
    "ward_name": "AJOWA/IGASI/ERITI/GEDEGEDE",
    "local_government_id": "583",
    "local_government_name": "AKOKO NORTH WEST",
    "state_id": "28",
    "state_name": "ONDO",
    "location": null
  },
  {
    "id": "344858",
    "name": "ACCOMORAN BUS STOP IGASI",
    "registration_area_id": "17516",
    "precise_location": null,
    "abbreviation": "019",
    "units": "019",
    "delimitation": "28/02/05/019",
    "remark": "NEW PU",
    "ward_id": "17516",
    "ward_name": "AJOWA/IGASI/ERITI/GEDEGEDE",
    "local_government_id": "583",
    "local_government_name": "AKOKO NORTH WEST",
    "state_id": "28",
    "state_name": "ONDO",
    "location": {
      "latitude": 7.628715899999999,
      "longitude": 5.9398634,
      "viewport": {
        "northeast": {
          "lat": 7.630092329892721,
          "lng": 5.941157479892722
        },
        "southwest": {
          "lat": 7.627392670107278,
          "lng": 5.938457820107277
        }
      },
      "formatted_address": "JWHQ+FWQ, Akunu Akoko, along Ipele road, Kabba, Nigeria",
      "google_map_url": "https://maps.google.com?q=7.628715899999999,5.9398634",
      "google_place_id": "ChIJY13sPrMlRhARJbfR7XKdMVg"
    }
  }
]