[
  {
    "id": "116630",
    "name": "TARKWA BAY (OPEN SPACE AT ARMY CAMP)",
    "registration_area_id": "5931",
    "precise_location": null,
    "abbreviation": "001",
    "units": "001",
    "delimitation": "24/08/01/001",
    "remark": "EXISTING PU",
    "ward_id": "5931",
    "ward_name": "VICTORIA ISLAND I",
    "local_government_id": "513",
    "local_government_name": "ETI-OSA",
    "state_id": "24",
    "state_name": "LAGOS",
    "location": {
      "latitude": 6.400619400000001,
      "longitude": 3.3933559,
      "viewport": {
        "northeast": {
          "lat": 6.401989829892721,
          "lng": 3.394693629892723
        },
        "southwest": {
          "lat": 6.399290170107277,
          "lng": 3.391993970107278
        }
      },
      "formatted_address": "C92V+68X, Tarkwa Bay iru local government, Victoria Island, Lagos, Nigeria",
      "google_map_url": "https://maps.google.com?q=6.400619400000001,3.3933559",
      "google_place_id": "ChIJMTiZ3ByLOxARxzdjxJADdTo"
    }
  },
  {
    "id": "116631",
    "name": "OKO ATA I (ABAGBO VILLAGE I)",
    "registration_area_id": "5931",
    "precise_location": null,
    "abbreviation": "002",
    "units": "002",
    "delimitation": "24/08/01/002",
    "remark": "EXISTING PU",
    "ward_id": "5931",
    "ward_name": "VICTORIA ISLAND I",
    "local_government_id": "513",
    "local_government_name": "ETI-OSA",
    "state_id": "24",
    "state_name": "LAGOS",
    "location": {
      "latitude": 6.426582799999999,
      "longitude": 3.4301132,
      "viewport": {
        "northeast": {
          "lat": 6.427988429892721,
          "lng": 3.431527079892722
        },
        "southwest": {
          "lat": 6.425288770107278,
          "lng": 3.428827420107277
        }
      },
      "formatted_address": "Plot 1415 Adetokunbo Ademola Street, Victoria Island 106104, Lagos, Nigeria",
      "google_map_url": "https://maps.google.com?q=6.426582799999999,3.4301132",
      "google_place_id": "ChIJLdlN7Dr1OxARU93NhGr-NF4"
    }
  },
  {
    "id": "116632",
    "name": "OKO ATA II (ABAGBO VILLAGE II)",
    "registration_area_id": "5931",
    "precise_location": null,
    "abbreviation": "003",
    "units": "003",
    "delimitation": "24/08/01/003",
    "remark": "EXISTING PU",
    "ward_id": "5931",
    "ward_name": "VICTORIA ISLAND I",
    "local_government_id": "513",
    "local_government_name": "ETI-OSA",
    "state_id": "24",
    "state_name": "LAGOS",
    "location": {
      "latitude": 6.4334555,
      "longitude": 3.4398321,
      "viewport": {
        "northeast": {
          "lat": 6.434695379892722,
          "lng": 3.441258179892722
        },
        "southwest": {
          "lat": 6.431995720107278,
          "lng": 3.438558520107278
        }
      },
      "formatted_address": "dabora Gra Eti-osa local government Lekki, Lagos, Nigeria",
      "google_map_url": "https://maps.google.com?q=6.4334555,3.4398321",
      "google_place_id": "ChIJ6VIEBCL1OxAR1PRelPPvuvc"
    }
  },
  {
    "id": "116633",
    "name": "OGOGORO COMMUNITY I (EBUTE OKO I)",
    "registration_area_id": "5931",
    "precise_location": null,
    "abbreviation": "004",
    "units": "004",
    "delimitation": "24/08/01/004",
    "remark": "EXISTING PU",
    "ward_id": "5931",
    "ward_name": "VICTORIA ISLAND I",
    "local_government_id": "513",
    "local_government_name": "ETI-OSA",
    "state_id": "24",
    "state_name": "LAGOS",
    "location": null
  },
  {
    "id": "116634",
    "name": "OGOGORO COMMUNITY II(EBUTE OKO II)",
    "registration_area_id": "5931",
    "precise_location": null,
    "abbreviation": "005",
    "units": "005",
    "delimitation": "24/08/01/005",
    "remark": "EXISTING PU",
    "ward_id": "5931",
    "ward_name": "VICTORIA ISLAND I",
    "local_government_id": "513",
    "local_government_name": "ETI-OSA",
    "state_id": "24",
    "state_name": "LAGOS",
    "location": null
  },
  {
    "id": "116635",
    "name": "ATLAS COVE COMMUNITY (OKO KATE)",
    "registration_area_id": "5931",
    "precise_location": null,
    "abbreviation": "006",
    "units": "006",
    "delimitation": "24/08/01/006",
    "remark": "EXISTING PU",
    "ward_id": "5931",
    "ward_name": "VICTORIA ISLAND I",
    "local_government_id": "513",
    "local_government_name": "ETI-OSA",
    "state_id": "24",
    "state_name": "LAGOS",
    "location": {
      "latitude": 6.410497400000001,
      "longitude": 3.415752,
      "viewport": {
        "northeast": {
          "lat": 6.412007779892722,
          "lng": 3.417035679892722
        },
        "southwest": {
          "lat": 6.409308120107278,
          "lng": 3.414336020107277
        }
      },
      "formatted_address": "Pearls Atlantic City, Eko Blvd, Victoria Island 106104, Lagos, Nigeria",
      "google_map_url": "https://maps.google.com?q=6.410497400000001,3.415752",
      "google_place_id": "ChIJ93HJZ7CKOxARLwVHhuBHIxI"
    }
  },
  {
    "id": "116636",
    "name": "L-YACHT C BUILDING (OKUN AYO)",
    "registration_area_id": "5931",
    "precise_location": null,
    "abbreviation": "007",
    "units": "007",
    "delimitation": "24/08/01/007",
    "remark": "EXISTING PU",
    "ward_id": "5931",
    "ward_name": "VICTORIA ISLAND I",
    "local_government_id": "513",
    "local_government_name": "ETI-OSA",
    "state_id": "24",
    "state_name": "LAGOS",
    "location": {
      "latitude": 6.4404189,
      "longitude": 3.4020155,
      "viewport": {
        "northeast": {
          "lat": 6.441844129892722,
          "lng": 3.403250879892723
        },
        "southwest": {
          "lat": 6.439144470107278,
          "lng": 3.400551220107278
        }
      },
      "formatted_address": "Magazine Point, Onikan, Lagos Island 101231, Lagos, Nigeria",
      "google_map_url": "https://maps.google.com?q=6.4404189,3.4020155",
      "google_place_id": "ChIJ-8GS9SCLOxAR9NqFcmxN2VY"
    }
  },
  {
    "id": "116637",
    "name": "BISHOP OLUWOLE STREET I",
    "registration_area_id": "5931",
    "precise_location": null,
    "abbreviation": "008",
    "units": "008",
    "delimitation": "24/08/01/008",
    "remark": "EXISTING PU",
    "ward_id": "5931",
    "ward_name": "VICTORIA ISLAND I",
    "local_government_id": "513",
    "local_government_name": "ETI-OSA",
    "state_id": "24",
    "state_name": "LAGOS",
    "location": {
      "latitude": 6.423775099999999,
      "longitude": 3.4192604,
      "viewport": {
        "northeast": {
          "lat": 6.425124929892721,
          "lng": 3.420610229892722
        },
        "southwest": {
          "lat": 6.422425270107277,
          "lng": 3.417910570107277
        }
      },
      "formatted_address": "HEAD OFFICE Plot 1709 Olugbosi Street, Off Bishop Oluwole St, Victoria Island, Lagos, Nigeria",
      "google_map_url": "https://maps.google.com?q=6.423775099999999,3.4192604",
      "google_place_id": "ChIJxxEkssyKOxARXZPh78Klt1o"
    }
  },
  {
    "id": "116638",
    "name": "BISHOP OLUWOLE STREET II",
    "registration_area_id": "5931",
    "precise_location": null,
    "abbreviation": "009",
    "units": "009",
    "delimitation": "24/08/01/009",
    "remark": "EXISTING PU",
    "ward_id": "5931",
    "ward_name": "VICTORIA ISLAND I",
    "local_government_id": "513",
    "local_government_name": "ETI-OSA",
    "state_id": "24",
    "state_name": "LAGOS",
    "location": {
      "latitude": 6.423775099999999,
      "longitude": 3.4192604,
      "viewport": {
        "northeast": {
          "lat": 6.425124929892721,
          "lng": 3.420610229892722
        },
        "southwest": {
          "lat": 6.422425270107277,
          "lng": 3.417910570107277
        }
      },
      "formatted_address": "HEAD OFFICE Plot 1709 Olugbosi Street, Off Bishop Oluwole St, Victoria Island, Lagos, Nigeria",
      "google_map_url": "https://maps.google.com?q=6.423775099999999,3.4192604",
      "google_place_id": "ChIJxxEkssyKOxARXZPh78Klt1o"
    }
  },
  {
    "id": "116639",
    "name": "BAR-BEACH TOWER I",
    "registration_area_id": "5931",
    "precise_location": null,
    "abbreviation": "010",
    "units": "010",
    "delimitation": "24/08/01/010",
    "remark": "EXISTING PU",
    "ward_id": "5931",
    "ward_name": "VICTORIA ISLAND I",
    "local_government_id": "513",
    "local_government_name": "ETI-OSA",
    "state_id": "24",
    "state_name": "LAGOS",
    "location": {
      "latitude": 6.424191599999999,
      "longitude": 3.41429,
      "viewport": {
        "northeast": {
          "lat": 6.425187779892723,
          "lng": 3.415574829892722
        },
        "southwest": {
          "lat": 6.422488120107279,
          "lng": 3.412875170107277
        }
      },
      "formatted_address": "CCF7+MPM, Bishop Oluwole St, Victoria Island 106104, Lagos, Nigeria",
      "google_map_url": "https://maps.google.com?q=6.424191599999999,3.41429",
      "google_place_id": "ChIJUX5fvM6KOxARYSWvgI5R26c"
    }
  },
  {
    "id": "116640",
    "name": "BAR-BEACH TOWER II",
    "registration_area_id": "5931",
    "precise_location": null,
    "abbreviation": "011",
    "units": "011",
    "delimitation": "24/08/01/011",
    "remark": "EXISTING PU",
    "ward_id": "5931",
    "ward_name": "VICTORIA ISLAND I",
    "local_government_id": "513",
    "local_government_name": "ETI-OSA",
    "state_id": "24",
    "state_name": "LAGOS",
    "location": {
      "latitude": 6.424191599999999,
      "longitude": 3.41429,
      "viewport": {
        "northeast": {
          "lat": 6.425187779892723,
          "lng": 3.415574829892722
        },
        "southwest": {
          "lat": 6.422488120107279,
          "lng": 3.412875170107277
        }
      },
      "formatted_address": "CCF7+MPM, Bishop Oluwole St, Victoria Island 106104, Lagos, Nigeria",
      "google_map_url": "https://maps.google.com?q=6.424191599999999,3.41429",
      "google_place_id": "ChIJUX5fvM6KOxARYSWvgI5R26c"
    }
  },
  {
    "id": "116641",
    "name": "BAR-BEACH TOWER III",
    "registration_area_id": "5931",
    "precise_location": null,
    "abbreviation": "012",
    "units": "012",
    "delimitation": "24/08/01/012",
    "remark": "EXISTING PU",
    "ward_id": "5931",
    "ward_name": "VICTORIA ISLAND I",
    "local_government_id": "513",
    "local_government_name": "ETI-OSA",
    "state_id": "24",
    "state_name": "LAGOS",
    "location": {
      "latitude": 6.424191599999999,
      "longitude": 3.41429,
      "viewport": {
        "northeast": {
          "lat": 6.425187779892723,
          "lng": 3.415574829892722
        },
        "southwest": {
          "lat": 6.422488120107279,
          "lng": 3.412875170107277
        }
      },
      "formatted_address": "CCF7+MPM, Bishop Oluwole St, Victoria Island 106104, Lagos, Nigeria",
      "google_map_url": "https://maps.google.com?q=6.424191599999999,3.41429",
      "google_place_id": "ChIJUX5fvM6KOxARYSWvgI5R26c"
    }
  },
  {
    "id": "116642",
    "name": "BAR-BEACH POLICE BARRACKS I",
    "registration_area_id": "5931",
    "precise_location": null,
    "abbreviation": "013",
    "units": "013",
    "delimitation": "24/08/01/013",
    "remark": "EXISTING PU",
    "ward_id": "5931",
    "ward_name": "VICTORIA ISLAND I",
    "local_government_id": "513",
    "local_government_name": "ETI-OSA",
    "state_id": "24",
    "state_name": "LAGOS",
    "location": {
      "latitude": 6.422289999999999,
      "longitude": 3.4117,
      "viewport": {
        "northeast": {
          "lat": 6.423628879892722,
          "lng": 3.413042329892722
        },
        "southwest": {
          "lat": 6.420929220107278,
          "lng": 3.410342670107278
        }
      },
      "formatted_address": "Victoria Island 106104, Lagos, Nigeria",
      "google_map_url": "https://maps.google.com?q=6.422289999999999,3.4117",
      "google_place_id": "ChIJ_8qN2ciKOxARMk2Rieb5u1w"
    }
  },
  {
    "id": "116643",
    "name": "BAR-BEACH POLICE BARRACKS II",
    "registration_area_id": "5931",
    "precise_location": null,
    "abbreviation": "014",
    "units": "014",
    "delimitation": "24/08/01/014",
    "remark": "EXISTING PU",
    "ward_id": "5931",
    "ward_name": "VICTORIA ISLAND I",
    "local_government_id": "513",
    "local_government_name": "ETI-OSA",
    "state_id": "24",
    "state_name": "LAGOS",
    "location": {
      "latitude": 6.422289999999999,
      "longitude": 3.4117,
      "viewport": {
        "northeast": {
          "lat": 6.423628879892722,
          "lng": 3.413042329892722
        },
        "southwest": {
          "lat": 6.420929220107278,
          "lng": 3.410342670107278
        }
      },
      "formatted_address": "Victoria Island 106104, Lagos, Nigeria",
      "google_map_url": "https://maps.google.com?q=6.422289999999999,3.4117",
      "google_place_id": "ChIJ_8qN2ciKOxARMk2Rieb5u1w"
    }
  },
  {
    "id": "116644",
    "name": "NAVAL DOCKYARD",
    "registration_area_id": "5931",
    "precise_location": null,
    "abbreviation": "015",
    "units": "015",
    "delimitation": "24/08/01/015",
    "remark": "EXISTING PU",
    "ward_id": "5931",
    "ward_name": "VICTORIA ISLAND I",
    "local_government_id": "513",
    "local_government_name": "ETI-OSA",
    "state_id": "24",
    "state_name": "LAGOS",
    "location": {
      "latitude": 6.4230893,
      "longitude": 3.408415,
      "viewport": {
        "northeast": {
          "lat": 6.424408529892722,
          "lng": 3.409722979892722
        },
        "southwest": {
          "lat": 6.421708870107278,
          "lng": 3.407023320107278
        }
      },
      "formatted_address": "CCF5+69R, Wilmot Point Rd, Victoria Island 106104, Lagos, Nigeria",
      "google_map_url": "https://maps.google.com?q=6.4230893,3.408415",
      "google_place_id": "ChIJLzrMGcaKOxARaJjZd65qnO8"
    }
  },
  {
    "id": "116645",
    "name": "OCEANOGRAPHY & MARINE I",
    "registration_area_id": "5931",
    "precise_location": null,
    "abbreviation": "016",
    "units": "016",
    "delimitation": "24/08/01/016",
    "remark": "EXISTING PU",
    "ward_id": "5931",
    "ward_name": "VICTORIA ISLAND I",
    "local_government_id": "513",
    "local_government_name": "ETI-OSA",
    "state_id": "24",
    "state_name": "LAGOS",
    "location": {
      "latitude": 41.0042742,
      "longitude": -73.9052928,
      "viewport": {
        "northeast": {
          "lat": 41.00563982989273,
          "lng": -73.90398872010728
        },
        "southwest": {
          "lat": 41.00294017010728,
          "lng": -73.90668837989271
        }
      },
      "formatted_address": "Palisades, NY 10964, United States",
      "google_map_url": "https://maps.google.com?q=41.0042742,-73.9052928",
      "google_place_id": "ChIJ2e8EQWnswokRAVH70PyTzzw"
    }
  },
  {
    "id": "116646",
    "name": "OCEANOGRAPHY & MARINE II",
    "registration_area_id": "5931",
    "precise_location": null,
    "abbreviation": "017",
    "units": "017",
    "delimitation": "24/08/01/017",
    "remark": "EXISTING PU",
    "ward_id": "5931",
    "ward_name": "VICTORIA ISLAND I",
    "local_government_id": "513",
    "local_government_name": "ETI-OSA",
    "state_id": "24",
    "state_name": "LAGOS",
    "location": {
      "latitude": 41.0042742,
      "longitude": -73.9052928,
      "viewport": {
        "northeast": {
          "lat": 41.00563982989273,
          "lng": -73.90398872010728
        },
        "southwest": {
          "lat": 41.00294017010728,
          "lng": -73.90668837989271
        }
      },
      "formatted_address": "Palisades, NY 10964, United States",
      "google_map_url": "https://maps.google.com?q=41.0042742,-73.9052928",
      "google_place_id": "ChIJ2e8EQWnswokRAVH70PyTzzw"
    }
  },
  {
    "id": "116647",
    "name": "SOLOMON CLOSE",
    "registration_area_id": "5931",
    "precise_location": null,
    "abbreviation": "018",
    "units": "018",
    "delimitation": "24/08/01/018",
    "remark": "EXISTING PU",
    "ward_id": "5931",
    "ward_name": "VICTORIA ISLAND I",
    "local_government_id": "513",
    "local_government_name": "ETI-OSA",
    "state_id": "24",
    "state_name": "LAGOS",
    "location": {
      "latitude": 6.426979299999999,
      "longitude": 3.4079943,
      "viewport": {
        "northeast": {
          "lat": 6.428344329892722,
          "lng": 3.409388979892722
        },
        "southwest": {
          "lat": 6.425644670107278,
          "lng": 3.406689320107278
        }
      },
      "formatted_address": "6 Louis Solomon Cl, Victoria Island 106104, Lagos, Nigeria",
      "google_map_url": "https://maps.google.com?q=6.426979299999999,3.4079943",
      "google_place_id": "ChIJ___aFcWKOxARgsMUd4aEiaE"
    }
  },
  {
    "id": "116648",
    "name": "ELIAS CLOSE",
    "registration_area_id": "5931",
    "precise_location": null,
    "abbreviation": "019",
    "units": "019",
    "delimitation": "24/08/01/019",
    "remark": "EXISTING PU",
    "ward_id": "5931",
    "ward_name": "VICTORIA ISLAND I",
    "local_government_id": "513",
    "local_government_name": "ETI-OSA",
    "state_id": "24",
    "state_name": "LAGOS",
    "location": {
      "latitude": 6.4266518,
      "longitude": 3.4103476,
      "viewport": {
        "northeast": {
          "lat": 6.428004579892721,
          "lng": 3.411712679892722
        },
        "southwest": {
          "lat": 6.425304920107277,
          "lng": 3.409013020107277
        }
      },
      "formatted_address": "CCG6+M49, Ahmadu Bello Way, Victoria Island 106104, Lagos, Nigeria",
      "google_map_url": "https://maps.google.com?q=6.4266518,3.4103476",
      "google_place_id": "ChIJjy0bLcmKOxARJ-AkcXN20n4"
    }
  },
  {
    "id": "116649",
    "name": "FEDERAL PA,LACE HOTEL",
    "registration_area_id": "5931",
    "precise_location": null,
    "abbreviation": "020",
    "units": "020",
    "delimitation": "24/08/01/020",
    "remark": "EXISTING PU",
    "ward_id": "5931",
    "ward_name": "VICTORIA ISLAND I",
    "local_government_id": "513",
    "local_government_name": "ETI-OSA",
    "state_id": "24",
    "state_name": "LAGOS",
    "location": {
      "latitude": 6.430766999999999,
      "longitude": 3.40751,
      "viewport": {
        "northeast": {
          "lat": 6.4319283,
          "lng": 3.409503729892722
        },
        "southwest": {
          "lat": 6.4284527,
          "lng": 3.406804070107277
        }
      },
      "formatted_address": "6-8 Ahmadu Bello Way, Victoria Island 101241, Lagos, Nigeria",
      "google_map_url": "https://maps.google.com?q=6.430766999999999,3.40751",
      "google_place_id": "ChIJ3YVnbtqKOxAR-c_nRQAb3U0"
    }
  },
  {
    "id": "116650",
    "name": "AIRFORCE PRIMARY SCHOOL I",
    "registration_area_id": "5931",
    "precise_location": null,
    "abbreviation": "021",
    "units": "021",
    "delimitation": "24/08/01/021",
    "remark": "EXISTING PU",
    "ward_id": "5931",
    "ward_name": "VICTORIA ISLAND I",
    "local_government_id": "513",
    "local_government_name": "ETI-OSA",
    "state_id": "24",
    "state_name": "LAGOS",
    "location": {
      "latitude": 6.4317686,
      "longitude": 3.4098831,
      "viewport": {
        "northeast": {
          "lat": 6.433020179892721,
          "lng": 3.411294929892723
        },
        "southwest": {
          "lat": 6.430320520107277,
          "lng": 3.408595270107278
        }
      },
      "formatted_address": "9 Abudu Smith St, Victoria Island 106104, Lagos, Nigeria",
      "google_map_url": "https://maps.google.com?q=6.4317686,3.4098831",
      "google_place_id": "ChIJ_VwRg9CKOxAR08SZMmv1zOM"
    }
  },
  {
    "id": "116651",
    "name": "AIRFORCE PRIMARY SCHOOL II",
    "registration_area_id": "5931",
    "precise_location": null,
    "abbreviation": "022",
    "units": "022",
    "delimitation": "24/08/01/022",
    "remark": "EXISTING PU",
    "ward_id": "5931",
    "ward_name": "VICTORIA ISLAND I",
    "local_government_id": "513",
    "local_government_name": "ETI-OSA",
    "state_id": "24",
    "state_name": "LAGOS",
    "location": {
      "latitude": 6.4317686,
      "longitude": 3.4098831,
      "viewport": {
        "northeast": {
          "lat": 6.433020179892721,
          "lng": 3.411294929892723
        },
        "southwest": {
          "lat": 6.430320520107277,
          "lng": 3.408595270107278
        }
      },
      "formatted_address": "9 Abudu Smith St, Victoria Island 106104, Lagos, Nigeria",
      "google_map_url": "https://maps.google.com?q=6.4317686,3.4098831",
      "google_place_id": "ChIJ_VwRg9CKOxAR08SZMmv1zOM"
    }
  },
  {
    "id": "116652",
    "name": "LEGICO FLAT I",
    "registration_area_id": "5931",
    "precise_location": null,
    "abbreviation": "023",
    "units": "023",
    "delimitation": "24/08/01/023",
    "remark": "EXISTING PU",
    "ward_id": "5931",
    "ward_name": "VICTORIA ISLAND I",
    "local_government_id": "513",
    "local_government_name": "ETI-OSA",
    "state_id": "24",
    "state_name": "LAGOS",
    "location": {
      "latitude": 6.4329712,
      "longitude": 3.4111783,
      "viewport": {
        "northeast": {
          "lat": 6.434320929892722,
          "lng": 3.412555979892722
        },
        "southwest": {
          "lat": 6.431621270107278,
          "lng": 3.409856320107278
        }
      },
      "formatted_address": "9 Elsie Femi Pearse St, Victoria Island 106104, Lagos, Nigeria",
      "google_map_url": "https://maps.google.com?q=6.4329712,3.4111783",
      "google_place_id": "ChIJkRxA8CaLOxARZrJmqpY0v_w"
    }
  },
  {
    "id": "116653",
    "name": "LEGICO FLAT II",
    "registration_area_id": "5931",
    "precise_location": null,
    "abbreviation": "024",
    "units": "024",
    "delimitation": "24/08/01/024",
    "remark": "EXISTING PU",
    "ward_id": "5931",
    "ward_name": "VICTORIA ISLAND I",
    "local_government_id": "513",
    "local_government_name": "ETI-OSA",
    "state_id": "24",
    "state_name": "LAGOS",
    "location": {
      "latitude": 6.4329712,
      "longitude": 3.4111783,
      "viewport": {
        "northeast": {
          "lat": 6.434320929892722,
          "lng": 3.412555979892722
        },
        "southwest": {
          "lat": 6.431621270107278,
          "lng": 3.409856320107278
        }
      },
      "formatted_address": "9 Elsie Femi Pearse St, Victoria Island 106104, Lagos, Nigeria",
      "google_map_url": "https://maps.google.com?q=6.4329712,3.4111783",
      "google_place_id": "ChIJkRxA8CaLOxARZrJmqpY0v_w"
    }
  },
  {
    "id": "116654",
    "name": "BONNY CAMP I",
    "registration_area_id": "5931",
    "precise_location": null,
    "abbreviation": "025",
    "units": "025",
    "delimitation": "24/08/01/025",
    "remark": "EXISTING PU",
    "ward_id": "5931",
    "ward_name": "VICTORIA ISLAND I",
    "local_government_id": "513",
    "local_government_name": "ETI-OSA",
    "state_id": "24",
    "state_name": "LAGOS",
    "location": {
      "latitude": 6.4370489,
      "longitude": 3.4073982,
      "viewport": {
        "northeast": {
          "lat": 6.438434829892722,
          "lng": 3.408860479892722
        },
        "southwest": {
          "lat": 6.435735170107278,
          "lng": 3.406160820107278
        }
      },
      "formatted_address": "Bonny Camp St, Victoria Island 106104, Lagos, Nigeria",
      "google_map_url": "https://maps.google.com?q=6.4370489,3.4073982",
      "google_place_id": "ChIJ4zx_WtiKOxAR0fjd4CxHaR4"
    }
  },
  {
    "id": "116655",
    "name": "BONNY CAMP II",
    "registration_area_id": "5931",
    "precise_location": null,
    "abbreviation": "026",
    "units": "026",
    "delimitation": "24/08/01/026",
    "remark": "EXISTING PU",
    "ward_id": "5931",
    "ward_name": "VICTORIA ISLAND I",
    "local_government_id": "513",
    "local_government_name": "ETI-OSA",
    "state_id": "24",
    "state_name": "LAGOS",
    "location": {
      "latitude": 6.4370489,
      "longitude": 3.4073982,
      "viewport": {
        "northeast": {
          "lat": 6.438434829892722,
          "lng": 3.408860479892722
        },
        "southwest": {
          "lat": 6.435735170107278,
          "lng": 3.406160820107278
        }
      },
      "formatted_address": "Bonny Camp St, Victoria Island 106104, Lagos, Nigeria",
      "google_map_url": "https://maps.google.com?q=6.4370489,3.4073982",
      "google_place_id": "ChIJ4zx_WtiKOxAR0fjd4CxHaR4"
    }
  },
  {
    "id": "116656",
    "name": "BONNY CAMP III",
    "registration_area_id": "5931",
    "precise_location": null,
    "abbreviation": "027",
    "units": "027",
    "delimitation": "24/08/01/027",
    "remark": "EXISTING PU",
    "ward_id": "5931",
    "ward_name": "VICTORIA ISLAND I",
    "local_government_id": "513",
    "local_government_name": "ETI-OSA",
    "state_id": "24",
    "state_name": "LAGOS",
    "location": {
      "latitude": 6.4370489,
      "longitude": 3.4073982,
      "viewport": {
        "northeast": {
          "lat": 6.438434829892722,
          "lng": 3.408860479892722
        },
        "southwest": {
          "lat": 6.435735170107278,
          "lng": 3.406160820107278
        }
      },
      "formatted_address": "Bonny Camp St, Victoria Island 106104, Lagos, Nigeria",
      "google_map_url": "https://maps.google.com?q=6.4370489,3.4073982",
      "google_place_id": "ChIJ4zx_WtiKOxAR0fjd4CxHaR4"
    }
  },
  {
    "id": "116657",
    "name": "BONNY CAMP IV",
    "registration_area_id": "5931",
    "precise_location": null,
    "abbreviation": "028",
    "units": "028",
    "delimitation": "24/08/01/028",
    "remark": "EXISTING PU",
    "ward_id": "5931",
    "ward_name": "VICTORIA ISLAND I",
    "local_government_id": "513",
    "local_government_name": "ETI-OSA",
    "state_id": "24",
    "state_name": "LAGOS",
    "location": {
      "latitude": 6.4370489,
      "longitude": 3.4073982,
      "viewport": {
        "northeast": {
          "lat": 6.438434829892722,
          "lng": 3.408860479892722
        },
        "southwest": {
          "lat": 6.435735170107278,
          "lng": 3.406160820107278
        }
      },
      "formatted_address": "Bonny Camp St, Victoria Island 106104, Lagos, Nigeria",
      "google_map_url": "https://maps.google.com?q=6.4370489,3.4073982",
      "google_place_id": "ChIJ4zx_WtiKOxAR0fjd4CxHaR4"
    }
  },
  {
    "id": "116658",
    "name": "BONNY CAMP V",
    "registration_area_id": "5931",
    "precise_location": null,
    "abbreviation": "029",
    "units": "029",
    "delimitation": "24/08/01/029",
    "remark": "EXISTING PU",
    "ward_id": "5931",
    "ward_name": "VICTORIA ISLAND I",
    "local_government_id": "513",
    "local_government_name": "ETI-OSA",
    "state_id": "24",
    "state_name": "LAGOS",
    "location": {
      "latitude": 6.4370489,
      "longitude": 3.4073982,
      "viewport": {
        "northeast": {
          "lat": 6.438434829892722,
          "lng": 3.408860479892722
        },
        "southwest": {
          "lat": 6.435735170107278,
          "lng": 3.406160820107278
        }
      },
      "formatted_address": "Bonny Camp St, Victoria Island 106104, Lagos, Nigeria",
      "google_map_url": "https://maps.google.com?q=6.4370489,3.4073982",
      "google_place_id": "ChIJ4zx_WtiKOxAR0fjd4CxHaR4"
    }
  },
  {
    "id": "116659",
    "name": "GOVERNMENT COLLEGE V/ISLAND",
    "registration_area_id": "5931",
    "precise_location": null,
    "abbreviation": "030",
    "units": "030",
    "delimitation": "24/08/01/030",
    "remark": "EXISTING PU",
    "ward_id": "5931",
    "ward_name": "VICTORIA ISLAND I",
    "local_government_id": "513",
    "local_government_name": "ETI-OSA",
    "state_id": "24",
    "state_name": "LAGOS",
    "location": {
      "latitude": 6.4331877,
      "longitude": 3.4135348,
      "viewport": {
        "northeast": {
          "lat": 6.43446407989272,
          "lng": 3.414885379892722
        },
        "southwest": {
          "lat": 6.431764420107276,
          "lng": 3.412185720107277
        }
      },
      "formatted_address": "10 Waziri Ibrahim Cres, Victoria Island 106104, Lagos, Nigeria",
      "google_map_url": "https://maps.google.com?q=6.4331877,3.4135348",
      "google_place_id": "ChIJa1z5SNGKOxAR6QOqlyWPQWs"
    }
  },
  {
    "id": "116660",
    "name": "OZUMBA MBADIWE",
    "registration_area_id": "5931",
    "precise_location": null,
    "abbreviation": "031",
    "units": "031",
    "delimitation": "24/08/01/031",
    "remark": "EXISTING PU",
    "ward_id": "5931",
    "ward_name": "VICTORIA ISLAND I",
    "local_government_id": "513",
    "local_government_name": "ETI-OSA",
    "state_id": "24",
    "state_name": "LAGOS",
    "location": {
      "latitude": 6.436337,
      "longitude": 3.4154813,
      "viewport": {
        "northeast": {
          "lat": 6.437655479892722,
          "lng": 3.416828229892723
        },
        "southwest": {
          "lat": 6.434955820107279,
          "lng": 3.414128570107278
        }
      },
      "formatted_address": "17 Ozumba Mbadiwe Ave, Eti-Osa 106104, Lagos, Nigeria",
      "google_map_url": "https://maps.google.com?q=6.436337,3.4154813",
      "google_place_id": "ChIJIfZDzBiLOxARtgVyRO2KugI"
    }
  },
  {
    "id": "116661",
    "name": "KOFO ABAYOMI - I",
    "registration_area_id": "5931",
    "precise_location": null,
    "abbreviation": "032",
    "units": "032",
    "delimitation": "24/08/01/032",
    "remark": "EXISTING PU",
    "ward_id": "5931",
    "ward_name": "VICTORIA ISLAND I",
    "local_government_id": "513",
    "local_government_name": "ETI-OSA",
    "state_id": "24",
    "state_name": "LAGOS",
    "location": {
      "latitude": 6.4363378,
      "longitude": 3.41173,
      "viewport": {
        "northeast": {
          "lat": 6.437589129892721,
          "lng": 3.413075179892722
        },
        "southwest": {
          "lat": 6.434889470107278,
          "lng": 3.410375520107277
        }
      },
      "formatted_address": "3 Kofo Abayomi St, Victoria Island 106104, Lagos, Nigeria",
      "google_map_url": "https://maps.google.com?q=6.4363378,3.41173",
      "google_place_id": "ChIJ__-jANeKOxARs2hCTrIYpNg"
    }
  },
  {
    "id": "116662",
    "name": "KOFO ABAYOMI - II",
    "registration_area_id": "5931",
    "precise_location": null,
    "abbreviation": "033",
    "units": "033",
    "delimitation": "24/08/01/033",
    "remark": "EXISTING PU",
    "ward_id": "5931",
    "ward_name": "VICTORIA ISLAND I",
    "local_government_id": "513",
    "local_government_name": "ETI-OSA",
    "state_id": "24",
    "state_name": "LAGOS",
    "location": {
      "latitude": 6.4363378,
      "longitude": 3.41173,
      "viewport": {
        "northeast": {
          "lat": 6.437589129892721,
          "lng": 3.413075179892722
        },
        "southwest": {
          "lat": 6.434889470107278,
          "lng": 3.410375520107277
        }
      },
      "formatted_address": "3 Kofo Abayomi St, Victoria Island 106104, Lagos, Nigeria",
      "google_map_url": "https://maps.google.com?q=6.4363378,3.41173",
      "google_place_id": "ChIJ__-jANeKOxARs2hCTrIYpNg"
    }
  },
  {
    "id": "116663",
    "name": "IDOWU MARTINS - I",
    "registration_area_id": "5931",
    "precise_location": null,
    "abbreviation": "034",
    "units": "034",
    "delimitation": "24/08/01/034",
    "remark": "EXISTING PU",
    "ward_id": "5931",
    "ward_name": "VICTORIA ISLAND I",
    "local_government_id": "513",
    "local_government_name": "ETI-OSA",
    "state_id": "24",
    "state_name": "LAGOS",
    "location": {
      "latitude": 6.43338,
      "longitude": 3.42003,
      "viewport": {
        "northeast": {
          "lat": 6.434717879892721,
          "lng": 3.421429279892722
        },
        "southwest": {
          "lat": 6.432018220107278,
          "lng": 3.418729620107277
        }
      },
      "formatted_address": "3rd Floor, Mega Plaza, 14, Idowu Martins Street, Victoria Island, Lagos, Lagos, Lagos, Nigeria",
      "google_map_url": "https://maps.google.com?q=6.43338,3.42003",
      "google_place_id": "ChIJq-vfqCz1OxARrvFFzQNzVNI"
    }
  },
  {
    "id": "116664",
    "name": "IDOWU MARTINS - II",
    "registration_area_id": "5931",
    "precise_location": null,
    "abbreviation": "035",
    "units": "035",
    "delimitation": "24/08/01/035",
    "remark": "EXISTING PU",
    "ward_id": "5931",
    "ward_name": "VICTORIA ISLAND I",
    "local_government_id": "513",
    "local_government_name": "ETI-OSA",
    "state_id": "24",
    "state_name": "LAGOS",
    "location": {
      "latitude": 6.43338,
      "longitude": 3.42003,
      "viewport": {
        "northeast": {
          "lat": 6.434717879892721,
          "lng": 3.421429279892722
        },
        "southwest": {
          "lat": 6.432018220107278,
          "lng": 3.418729620107277
        }
      },
      "formatted_address": "3rd Floor, Mega Plaza, 14, Idowu Martins Street, Victoria Island, Lagos, Lagos, Lagos, Nigeria",
      "google_map_url": "https://maps.google.com?q=6.43338,3.42003",
      "google_place_id": "ChIJq-vfqCz1OxARrvFFzQNzVNI"
    }
  },
  {
    "id": "116665",
    "name": "ADEOLA ODEKU - I",
    "registration_area_id": "5931",
    "precise_location": null,
    "abbreviation": "036",
    "units": "036",
    "delimitation": "24/08/01/036",
    "remark": "EXISTING PU",
    "ward_id": "5931",
    "ward_name": "VICTORIA ISLAND I",
    "local_government_id": "513",
    "local_government_name": "ETI-OSA",
    "state_id": "24",
    "state_name": "LAGOS",
    "location": {
      "latitude": 6.4298517,
      "longitude": 3.4108619,
      "viewport": {
        "northeast": {
          "lat": 6.43126437989272,
          "lng": 3.412198029892722
        },
        "southwest": {
          "lat": 6.428564720107277,
          "lng": 3.409498370107277
        }
      },
      "formatted_address": "54a Adeola Odeku St, Victoria Island 106104, Lagos, Nigeria",
      "google_map_url": "https://maps.google.com?q=6.4298517,3.4108619",
      "google_place_id": "ChIJlxVN4uqLOxARc0d6R9qh2eE"
    }
  },
  {
    "id": "116666",
    "name": "ADEOLA ODEKU - II",
    "registration_area_id": "5931",
    "precise_location": null,
    "abbreviation": "037",
    "units": "037",
    "delimitation": "24/08/01/037",
    "remark": "EXISTING PU",
    "ward_id": "5931",
    "ward_name": "VICTORIA ISLAND I",
    "local_government_id": "513",
    "local_government_name": "ETI-OSA",
    "state_id": "24",
    "state_name": "LAGOS",
    "location": {
      "latitude": 6.4298517,
      "longitude": 3.4108619,
      "viewport": {
        "northeast": {
          "lat": 6.43126437989272,
          "lng": 3.412198029892722
        },
        "southwest": {
          "lat": 6.428564720107277,
          "lng": 3.409498370107277
        }
      },
      "formatted_address": "54a Adeola Odeku St, Victoria Island 106104, Lagos, Nigeria",
      "google_map_url": "https://maps.google.com?q=6.4298517,3.4108619",
      "google_place_id": "ChIJlxVN4uqLOxARc0d6R9qh2eE"
    }
  },
  {
    "id": "116667",
    "name": "IDEJO/OJU OLOBUN",
    "registration_area_id": "5931",
    "precise_location": null,
    "abbreviation": "038",
    "units": "038",
    "delimitation": "24/08/01/038",
    "remark": "EXISTING PU",
    "ward_id": "5931",
    "ward_name": "VICTORIA ISLAND I",
    "local_government_id": "513",
    "local_government_name": "ETI-OSA",
    "state_id": "24",
    "state_name": "LAGOS",
    "location": {
      "latitude": 6.4263541,
      "longitude": 3.4151503,
      "viewport": {
        "northeast": {
          "lat": 6.427712679892722,
          "lng": 3.416414679892723
        },
        "southwest": {
          "lat": 6.425013020107278,
          "lng": 3.413715020107278
        }
      },
      "formatted_address": "17 Oju Olobun Cl, Victoria Island 106104, Lagos, Nigeria",
      "google_map_url": "https://maps.google.com?q=6.4263541,3.4151503",
      "google_place_id": "ChIJV3suxc2KOxARdZhrrbiMafE"
    }
  },
  {
    "id": "116668",
    "name": "OLOGUN AGBAJE/SAKA TINUBU",
    "registration_area_id": "5931",
    "precise_location": null,
    "abbreviation": "039",
    "units": "039",
    "delimitation": "24/08/01/039",
    "remark": "EXISTING PU",
    "ward_id": "5931",
    "ward_name": "VICTORIA ISLAND I",
    "local_government_id": "513",
    "local_government_name": "ETI-OSA",
    "state_id": "24",
    "state_name": "LAGOS",
    "location": {
      "latitude": 6.427141499999999,
      "longitude": 3.4192003,
      "viewport": {
        "northeast": {
          "lat": 6.428438429892722,
          "lng": 3.420549029892722
        },
        "southwest": {
          "lat": 6.425738770107278,
          "lng": 3.417849370107278
        }
      },
      "formatted_address": "19 Saka Tinubu St, Victoria Island 106104, Lagos, Nigeria",
      "google_map_url": "https://maps.google.com?q=6.427141499999999,3.4192003",
      "google_place_id": "ChIJfyAnTM2KOxARrF1HQ-i1KqA"
    }
  },
  {
    "id": "116669",
    "name": "SAKA TINUBU/AMODU OJIKUTU I",
    "registration_area_id": "5931",
    "precise_location": null,
    "abbreviation": "040",
    "units": "040",
    "delimitation": "24/08/01/040",
    "remark": "EXISTING PU",
    "ward_id": "5931",
    "ward_name": "VICTORIA ISLAND I",
    "local_government_id": "513",
    "local_government_name": "ETI-OSA",
    "state_id": "24",
    "state_name": "LAGOS",
    "location": {
      "latitude": 6.4272261,
      "longitude": 3.4180688,
      "viewport": {
        "northeast": {
          "lat": 6.428518179892722,
          "lng": 3.419418429892722
        },
        "southwest": {
          "lat": 6.425818520107278,
          "lng": 3.416718770107277
        }
      },
      "formatted_address": "CCG9+W68, Victoria Island 106104, Lagos, Nigeria",
      "google_map_url": "https://maps.google.com?q=6.4272261,3.4180688",
      "google_place_id": "ChIJ-aDDa82KOxARrBY6FlTae7U"
    }
  },
  {
    "id": "116670",
    "name": "SAKA TINUBU/AMODU OJIKUTU II",
    "registration_area_id": "5931",
    "precise_location": null,
    "abbreviation": "041",
    "units": "041",
    "delimitation": "24/08/01/041",
    "remark": "EXISTING PU",
    "ward_id": "5931",
    "ward_name": "VICTORIA ISLAND I",
    "local_government_id": "513",
    "local_government_name": "ETI-OSA",
    "state_id": "24",
    "state_name": "LAGOS",
    "location": {
      "latitude": 6.4272261,
      "longitude": 3.4180688,
      "viewport": {
        "northeast": {
          "lat": 6.428518179892722,
          "lng": 3.419418429892722
        },
        "southwest": {
          "lat": 6.425818520107278,
          "lng": 3.416718770107277
        }
      },
      "formatted_address": "CCG9+W68, Victoria Island 106104, Lagos, Nigeria",
      "google_map_url": "https://maps.google.com?q=6.4272261,3.4180688",
      "google_place_id": "ChIJ-aDDa82KOxARrBY6FlTae7U"
    }
  },
  {
    "id": "116671",
    "name": "SAKA TINUBU/KASUMU EKEMODE",
    "registration_area_id": "5931",
    "precise_location": null,
    "abbreviation": "042",
    "units": "042",
    "delimitation": "24/08/01/042",
    "remark": "EXISTING PU",
    "ward_id": "5931",
    "ward_name": "VICTORIA ISLAND I",
    "local_government_id": "513",
    "local_government_name": "ETI-OSA",
    "state_id": "24",
    "state_name": "LAGOS",
    "location": {
      "latitude": 6.426181799999999,
      "longitude": 3.4214712,
      "viewport": {
        "northeast": {
          "lat": 6.427477079892721,
          "lng": 3.422821329892723
        },
        "southwest": {
          "lat": 6.424777420107278,
          "lng": 3.420121670107278
        }
      },
      "formatted_address": "3b Abimbola Awoniyi Close, Off Ekemode Street, Off Saka Tinubu St, Victoria Island, Lagos, Nigeria",
      "google_map_url": "https://maps.google.com?q=6.426181799999999,3.4214712",
      "google_place_id": "ChIJd6HnkwL1OxARc8ei2aj9G7k"
    }
  },
  {
    "id": "116672",
    "name": "OPEN SPACE AT AGIP CHALET",
    "registration_area_id": "5931",
    "precise_location": null,
    "abbreviation": "043",
    "units": "043",
    "delimitation": "24/08/01/043",
    "remark": "NEW PU",
    "ward_id": "5931",
    "ward_name": "VICTORIA ISLAND I",
    "local_government_id": "513",
    "local_government_name": "ETI-OSA",
    "state_id": "24",
    "state_name": "LAGOS",
    "location": {
      "latitude": 6.4307868,
      "longitude": 3.4111428,
      "viewport": {
        "northeast": {
          "lat": 6.432160329892723,
          "lng": 3.412648079892722
        },
        "southwest": {
          "lat": 6.429460670107279,
          "lng": 3.409948420107277
        }
      },
      "formatted_address": "1 Elsie Femi Pearse St, Victoria Island 106104, Lagos, Nigeria",
      "google_map_url": "https://maps.google.com?q=6.4307868,3.4111428",
      "google_place_id": "ChIJ7TuWSXSLOxAR9iZVil1-Wq4"
    }
  },
  {
    "id": "116673",
    "name": "OPEN SPACE AT AMERICAN EMBASSY CHALET",
    "registration_area_id": "5931",
    "precise_location": null,
    "abbreviation": "044",
    "units": "044",
    "delimitation": "24/08/01/044",
    "remark": "NEW PU",
    "ward_id": "5931",
    "ward_name": "VICTORIA ISLAND I",
    "local_government_id": "513",
    "local_government_name": "ETI-OSA",
    "state_id": "24",
    "state_name": "LAGOS",
    "location": {
      "latitude": 6.4405467,
      "longitude": 3.406708,
      "viewport": {
        "northeast": {
          "lat": 6.442094679892721,
          "lng": 3.408065429892722
        },
        "southwest": {
          "lat": 6.439395020107277,
          "lng": 3.405365770107278
        }
      },
      "formatted_address": "2 Walter Carrington Cres, Victoria Island 106104, Lagos, Nigeria",
      "google_map_url": "https://maps.google.com?q=6.4405467,3.406708",
      "google_place_id": "ChIJNY4dCyeLOxARTspHIrxFOUY"
    }
  },
  {
    "id": "116674",
    "name": "OPEN SPACE AT OKO ATA",
    "registration_area_id": "5931",
    "precise_location": null,
    "abbreviation": "045",
    "units": "045",
    "delimitation": "24/08/01/045",
    "remark": "NEW PU",
    "ward_id": "5931",
    "ward_name": "VICTORIA ISLAND I",
    "local_government_id": "513",
    "local_government_name": "ETI-OSA",
    "state_id": "24",
    "state_name": "LAGOS",
    "location": {
      "latitude": 6.4334555,
      "longitude": 3.4398321,
      "viewport": {
        "northeast": {
          "lat": 6.434695379892722,
          "lng": 3.441258179892722
        },
        "southwest": {
          "lat": 6.431995720107278,
          "lng": 3.438558520107278
        }
      },
      "formatted_address": "dabora Gra Eti-osa local government Lekki, Lagos, Nigeria",
      "google_map_url": "https://maps.google.com?q=6.4334555,3.4398321",
      "google_place_id": "ChIJ6VIEBCL1OxAR1PRelPPvuvc"
    }
  },
  {
    "id": "116675",
    "name": "OPEN SPACE AT OGOGORO COMMUNITY",
    "registration_area_id": "5931",
    "precise_location": null,
    "abbreviation": "046",
    "units": "046",
    "delimitation": "24/08/01/046",
    "remark": "NEW PU",
    "ward_id": "5931",
    "ward_name": "VICTORIA ISLAND I",
    "local_government_id": "513",
    "local_government_name": "ETI-OSA",
    "state_id": "24",
    "state_name": "LAGOS",
    "location": {
      "latitude": 6.4304717,
      "longitude": 3.4296191,
      "viewport": {
        "northeast": {
          "lat": 6.431725729892722,
          "lng": 3.430746929892722
        },
        "southwest": {
          "lat": 6.429026070107279,
          "lng": 3.428047270107278
        }
      },
      "formatted_address": "1700 Violet Yough Cl, Victoria Island 100001, Lagos, Nigeria",
      "google_map_url": "https://maps.google.com?q=6.4304717,3.4296191",
      "google_place_id": "ChIJGY4MhC_1OxARxi1YUT50ujo"
    }
  },
  {
    "id": "116676",
    "name": "OPEN SPACE AT UAC COMPOUND(ENTRANCE OF OKUN AYO)",
    "registration_area_id": "5931",
    "precise_location": null,
    "abbreviation": "047",
    "units": "047",
    "delimitation": "24/08/01/047",
    "remark": "NEW PU",
    "ward_id": "5931",
    "ward_name": "VICTORIA ISLAND I",
    "local_government_id": "513",
    "local_government_name": "ETI-OSA",
    "state_id": "24",
    "state_name": "LAGOS",
    "location": {
      "latitude": 6.4330409,
      "longitude": 3.4291386,
      "viewport": {
        "northeast": {
          "lat": 6.434391079892722,
          "lng": 3.430635979892722
        },
        "southwest": {
          "lat": 6.431691420107278,
          "lng": 3.427936320107277
        }
      },
      "formatted_address": "687 Adeola Hopewell St, Victoria Island 106104, Lagos, Nigeria",
      "google_map_url": "https://maps.google.com?q=6.4330409,3.4291386",
      "google_place_id": "ChIJJdq9nCj1OxAR0ooJMjvJLRE"
    }
  },
  {
    "id": "116677",
    "name": "1228, BISHOP OLUWOLE STR",
    "registration_area_id": "5931",
    "precise_location": null,
    "abbreviation": "048",
    "units": "048",
    "delimitation": "24/08/01/048",
    "remark": "NEW PU",
    "ward_id": "5931",
    "ward_name": "VICTORIA ISLAND I",
    "local_government_id": "513",
    "local_government_name": "ETI-OSA",
    "state_id": "24",
    "state_name": "LAGOS",
    "location": {
      "latitude": 6.423775099999999,
      "longitude": 3.4192604,
      "viewport": {
        "northeast": {
          "lat": 6.425124929892721,
          "lng": 3.420610229892722
        },
        "southwest": {
          "lat": 6.422425270107277,
          "lng": 3.417910570107277
        }
      },
      "formatted_address": "HEAD OFFICE Plot 1709 Olugbosi Street, Off Bishop Oluwole St, Victoria Island, Lagos, Nigeria",
      "google_map_url": "https://maps.google.com?q=6.423775099999999,3.4192604",
      "google_place_id": "ChIJxxEkssyKOxARXZPh78Klt1o"
    }
  },
  {
    "id": "116678",
    "name": "EXIT OF BISHOP OLUWOLE STR",
    "registration_area_id": "5931",
    "precise_location": null,
    "abbreviation": "049",
    "units": "049",
    "delimitation": "24/08/01/049",
    "remark": "NEW PU",
    "ward_id": "5931",
    "ward_name": "VICTORIA ISLAND I",
    "local_government_id": "513",
    "local_government_name": "ETI-OSA",
    "state_id": "24",
    "state_name": "LAGOS",
    "location": {
      "latitude": 6.4237439,
      "longitude": 3.415306,
      "viewport": {
        "northeast": {
          "lat": 6.425093929892722,
          "lng": 3.416645229892723
        },
        "southwest": {
          "lat": 6.422394270107278,
          "lng": 3.413945570107278
        }
      },
      "formatted_address": "13 Bishop Oluwole St, Victoria Island 106104, Lagos, Nigeria",
      "google_map_url": "https://maps.google.com?q=6.4237439,3.415306",
      "google_place_id": "ChIJ9eMIDcyKOxARvNSgdCyFL00"
    }
  },
  {
    "id": "116679",
    "name": "BESIDE PLOT 1221A, BISHOP OLUWOLE",
    "registration_area_id": "5931",
    "precise_location": null,
    "abbreviation": "050",
    "units": "050",
    "delimitation": "24/08/01/050",
    "remark": "NEW PU",
    "ward_id": "5931",
    "ward_name": "VICTORIA ISLAND I",
    "local_government_id": "513",
    "local_government_name": "ETI-OSA",
    "state_id": "24",
    "state_name": "LAGOS",
    "location": {
      "latitude": 6.4233692,
      "longitude": 3.4151341,
      "viewport": {
        "northeast": {
          "lat": 6.424796179892722,
          "lng": 3.416480529892722
        },
        "southwest": {
          "lat": 6.422096520107278,
          "lng": 3.413780870107277
        }
      },
      "formatted_address": "Plot 1221A, Bishop Oluwole St, Victoria Island 106104, Lagos, Nigeria",
      "google_map_url": "https://maps.google.com?q=6.4233692,3.4151341",
      "google_place_id": "ChIJAXkyuKqLOxAR7I_Hz9OXTnU"
    }
  },
  {
    "id": "116680",
    "name": "BESIDE  BAR BEACH POLICE BARRACK",
    "registration_area_id": "5931",
    "precise_location": null,
    "abbreviation": "051",
    "units": "051",
    "delimitation": "24/08/01/051",
    "remark": "NEW PU",
    "ward_id": "5931",
    "ward_name": "VICTORIA ISLAND I",
    "local_government_id": "513",
    "local_government_name": "ETI-OSA",
    "state_id": "24",
    "state_name": "LAGOS",
    "location": {
      "latitude": 6.422289999999999,
      "longitude": 3.4117,
      "viewport": {
        "northeast": {
          "lat": 6.423628879892722,
          "lng": 3.413042329892722
        },
        "southwest": {
          "lat": 6.420929220107278,
          "lng": 3.410342670107278
        }
      },
      "formatted_address": "Victoria Island 106104, Lagos, Nigeria",
      "google_map_url": "https://maps.google.com?q=6.422289999999999,3.4117",
      "google_place_id": "ChIJ_8qN2ciKOxARMk2Rieb5u1w"
    }
  },
  {
    "id": "116681",
    "name": "OPP. BAR BEACH POLICE BARRACKS",
    "registration_area_id": "5931",
    "precise_location": null,
    "abbreviation": "052",
    "units": "052",
    "delimitation": "24/08/01/052",
    "remark": "NEW PU",
    "ward_id": "5931",
    "ward_name": "VICTORIA ISLAND I",
    "local_government_id": "513",
    "local_government_name": "ETI-OSA",
    "state_id": "24",
    "state_name": "LAGOS",
    "location": {
      "latitude": 6.422289999999999,
      "longitude": 3.4117,
      "viewport": {
        "northeast": {
          "lat": 6.423628879892722,
          "lng": 3.413042329892722
        },
        "southwest": {
          "lat": 6.420929220107278,
          "lng": 3.410342670107278
        }
      },
      "formatted_address": "Victoria Island 106104, Lagos, Nigeria",
      "google_map_url": "https://maps.google.com?q=6.422289999999999,3.4117",
      "google_place_id": "ChIJ_8qN2ciKOxARMk2Rieb5u1w"
    }
  },
  {
    "id": "116682",
    "name": "ENTRANCE OF NEPA CLOSE",
    "registration_area_id": "5931",
    "precise_location": null,
    "abbreviation": "053",
    "units": "053",
    "delimitation": "24/08/01/053",
    "remark": "NEW PU",
    "ward_id": "5931",
    "ward_name": "VICTORIA ISLAND I",
    "local_government_id": "513",
    "local_government_name": "ETI-OSA",
    "state_id": "24",
    "state_name": "LAGOS",
    "location": {
      "latitude": 6.4253054,
      "longitude": 3.4125139,
      "viewport": {
        "northeast": {
          "lat": 6.426609079892722,
          "lng": 3.413777529892722
        },
        "southwest": {
          "lat": 6.423909420107278,
          "lng": 3.411077870107277
        }
      },
      "formatted_address": "1 Nepa Cl, Victoria Island 106104, Lagos, Nigeria",
      "google_map_url": "https://maps.google.com?q=6.4253054,3.4125139",
      "google_place_id": "ChIJcw-YFgSLOxARV6Ym6WB36cs"
    }
  },
  {
    "id": "116683",
    "name": "FRONT OF NTA STATION",
    "registration_area_id": "5931",
    "precise_location": null,
    "abbreviation": "054",
    "units": "054",
    "delimitation": "24/08/01/054",
    "remark": "NEW PU",
    "ward_id": "5931",
    "ward_name": "VICTORIA ISLAND I",
    "local_government_id": "513",
    "local_government_name": "ETI-OSA",
    "state_id": "24",
    "state_name": "LAGOS",
    "location": {
      "latitude": 6.424115,
      "longitude": 3.4090653,
      "viewport": {
        "northeast": {
          "lat": 6.425284829892722,
          "lng": 3.410431979892722
        },
        "southwest": {
          "lat": 6.422585170107278,
          "lng": 3.407732320107277
        }
      },
      "formatted_address": "Nta 2, Channel 5, Ahmadu Bello Way, Eti-Osa, Lagos, Nigeria",
      "google_map_url": "https://maps.google.com?q=6.424115,3.4090653",
      "google_place_id": "ChIJVZAteMWKOxAR9Oro41h2uAs"
    }
  },
  {
    "id": "116684",
    "name": "ENTRANCE OF SOLOMON CLOSE",
    "registration_area_id": "5931",
    "precise_location": null,
    "abbreviation": "055",
    "units": "055",
    "delimitation": "24/08/01/055",
    "remark": "NEW PU",
    "ward_id": "5931",
    "ward_name": "VICTORIA ISLAND I",
    "local_government_id": "513",
    "local_government_name": "ETI-OSA",
    "state_id": "24",
    "state_name": "LAGOS",
    "location": {
      "latitude": 6.4276713,
      "longitude": 3.4087873,
      "viewport": {
        "northeast": {
          "lat": 6.429032629892721,
          "lng": 3.410213979892722
        },
        "southwest": {
          "lat": 6.426332970107278,
          "lng": 3.407514320107278
        }
      },
      "formatted_address": "Ahmadu Bello Way, Victoria Island 106104, Lagos, Nigeria",
      "google_map_url": "https://maps.google.com?q=6.4276713,3.4087873",
      "google_place_id": "ChIJ07xFRcWKOxARhJmtXUg81ag"
    }
  },
  {
    "id": "116685",
    "name": "BESIDE FEDERAL PALACE HOTEL",
    "registration_area_id": "5931",
    "precise_location": null,
    "abbreviation": "056",
    "units": "056",
    "delimitation": "24/08/01/056",
    "remark": "NEW PU",
    "ward_id": "5931",
    "ward_name": "VICTORIA ISLAND I",
    "local_government_id": "513",
    "local_government_name": "ETI-OSA",
    "state_id": "24",
    "state_name": "LAGOS",
    "location": {
      "latitude": 6.430766999999999,
      "longitude": 3.40751,
      "viewport": {
        "northeast": {
          "lat": 6.4319283,
          "lng": 3.409503729892722
        },
        "southwest": {
          "lat": 6.4284527,
          "lng": 3.406804070107277
        }
      },
      "formatted_address": "6-8 Ahmadu Bello Way, Victoria Island 101241, Lagos, Nigeria",
      "google_map_url": "https://maps.google.com?q=6.430766999999999,3.40751",
      "google_place_id": "ChIJ3YVnbtqKOxAR-c_nRQAb3U0"
    }
  },
  {
    "id": "116686",
    "name": "BESIDE LEGICO FLAT I",
    "registration_area_id": "5931",
    "precise_location": null,
    "abbreviation": "057",
    "units": "057",
    "delimitation": "24/08/01/057",
    "remark": "NEW PU",
    "ward_id": "5931",
    "ward_name": "VICTORIA ISLAND I",
    "local_government_id": "513",
    "local_government_name": "ETI-OSA",
    "state_id": "24",
    "state_name": "LAGOS",
    "location": null
  },
  {
    "id": "116687",
    "name": "OPP LEGICO FLAT",
    "registration_area_id": "5931",
    "precise_location": null,
    "abbreviation": "058",
    "units": "058",
    "delimitation": "24/08/01/058",
    "remark": "NEW PU",
    "ward_id": "5931",
    "ward_name": "VICTORIA ISLAND I",
    "local_government_id": "513",
    "local_government_name": "ETI-OSA",
    "state_id": "24",
    "state_name": "LAGOS",
    "location": {
      "latitude": 6.428069499999999,
      "longitude": 3.4219452,
      "viewport": {
        "northeast": {
          "lat": 6.429564979892722,
          "lng": 3.423321129892722
        },
        "southwest": {
          "lat": 6.426865320107278,
          "lng": 3.420621470107278
        }
      },
      "formatted_address": "Victoria Island 106104, Lagos, Nigeria",
      "google_map_url": "https://maps.google.com?q=6.428069499999999,3.4219452",
      "google_place_id": "ChIJlYKmYnn1OxARPNjX6FSHAlY"
    }
  },
  {
    "id": "116688",
    "name": "FRONT OF BONNY CAMP GATE",
    "registration_area_id": "5931",
    "precise_location": null,
    "abbreviation": "059",
    "units": "059",
    "delimitation": "24/08/01/059",
    "remark": "NEW PU",
    "ward_id": "5931",
    "ward_name": "VICTORIA ISLAND I",
    "local_government_id": "513",
    "local_government_name": "ETI-OSA",
    "state_id": "24",
    "state_name": "LAGOS",
    "location": {
      "latitude": 6.4370489,
      "longitude": 3.4073982,
      "viewport": {
        "northeast": {
          "lat": 6.438434829892722,
          "lng": 3.408860479892722
        },
        "southwest": {
          "lat": 6.435735170107278,
          "lng": 3.406160820107278
        }
      },
      "formatted_address": "Bonny Camp St, Victoria Island 106104, Lagos, Nigeria",
      "google_map_url": "https://maps.google.com?q=6.4370489,3.4073982",
      "google_place_id": "ChIJ4zx_WtiKOxAR0fjd4CxHaR4"
    }
  },
  {
    "id": "116689",
    "name": "UNDER BRIDGE BONNY CAMP",
    "registration_area_id": "5931",
    "precise_location": null,
    "abbreviation": "060",
    "units": "060",
    "delimitation": "24/08/01/060",
    "remark": "NEW PU",
    "ward_id": "5931",
    "ward_name": "VICTORIA ISLAND I",
    "local_government_id": "513",
    "local_government_name": "ETI-OSA",
    "state_id": "24",
    "state_name": "LAGOS",
    "location": {
      "latitude": 6.4370489,
      "longitude": 3.4073982,
      "viewport": {
        "northeast": {
          "lat": 6.438434829892722,
          "lng": 3.408860479892722
        },
        "southwest": {
          "lat": 6.435735170107278,
          "lng": 3.406160820107278
        }
      },
      "formatted_address": "Bonny Camp St, Victoria Island 106104, Lagos, Nigeria",
      "google_map_url": "https://maps.google.com?q=6.4370489,3.4073982",
      "google_place_id": "ChIJ4zx_WtiKOxAR0fjd4CxHaR4"
    }
  },
  {
    "id": "116690",
    "name": "BONNY CAMP ROUNDABOUT",
    "registration_area_id": "5931",
    "precise_location": null,
    "abbreviation": "061",
    "units": "061",
    "delimitation": "24/08/01/061",
    "remark": "NEW PU",
    "ward_id": "5931",
    "ward_name": "VICTORIA ISLAND I",
    "local_government_id": "513",
    "local_government_name": "ETI-OSA",
    "state_id": "24",
    "state_name": "LAGOS",
    "location": {
      "latitude": 6.4370489,
      "longitude": 3.4073982,
      "viewport": {
        "northeast": {
          "lat": 6.438434829892722,
          "lng": 3.408860479892722
        },
        "southwest": {
          "lat": 6.435735170107278,
          "lng": 3.406160820107278
        }
      },
      "formatted_address": "Bonny Camp St, Victoria Island 106104, Lagos, Nigeria",
      "google_map_url": "https://maps.google.com?q=6.4370489,3.4073982",
      "google_place_id": "ChIJ4zx_WtiKOxAR0fjd4CxHaR4"
    }
  },
  {
    "id": "116691",
    "name": "UNDER BRIDGE BONNY CAMP II",
    "registration_area_id": "5931",
    "precise_location": null,
    "abbreviation": "062",
    "units": "062",
    "delimitation": "24/08/01/062",
    "remark": "NEW PU",
    "ward_id": "5931",
    "ward_name": "VICTORIA ISLAND I",
    "local_government_id": "513",
    "local_government_name": "ETI-OSA",
    "state_id": "24",
    "state_name": "LAGOS",
    "location": {
      "latitude": 6.4370489,
      "longitude": 3.4073982,
      "viewport": {
        "northeast": {
          "lat": 6.438434829892722,
          "lng": 3.408860479892722
        },
        "southwest": {
          "lat": 6.435735170107278,
          "lng": 3.406160820107278
        }
      },
      "formatted_address": "Bonny Camp St, Victoria Island 106104, Lagos, Nigeria",
      "google_map_url": "https://maps.google.com?q=6.4370489,3.4073982",
      "google_place_id": "ChIJ4zx_WtiKOxAR0fjd4CxHaR4"
    }
  },
  {
    "id": "116692",
    "name": "GOVERNMENT COLLEGE V/ISLAND II",
    "registration_area_id": "5931",
    "precise_location": null,
    "abbreviation": "063",
    "units": "063",
    "delimitation": "24/08/01/063",
    "remark": "NEW PU",
    "ward_id": "5931",
    "ward_name": "VICTORIA ISLAND I",
    "local_government_id": "513",
    "local_government_name": "ETI-OSA",
    "state_id": "24",
    "state_name": "LAGOS",
    "location": {
      "latitude": 6.4331877,
      "longitude": 3.4135348,
      "viewport": {
        "northeast": {
          "lat": 6.43446407989272,
          "lng": 3.414885379892722
        },
        "southwest": {
          "lat": 6.431764420107276,
          "lng": 3.412185720107277
        }
      },
      "formatted_address": "10 Waziri Ibrahim Cres, Victoria Island 106104, Lagos, Nigeria",
      "google_map_url": "https://maps.google.com?q=6.4331877,3.4135348",
      "google_place_id": "ChIJa1z5SNGKOxAR6QOqlyWPQWs"
    }
  },
  {
    "id": "116693",
    "name": "GOVERNMENT COLLEGE V/ISLAND III",
    "registration_area_id": "5931",
    "precise_location": null,
    "abbreviation": "064",
    "units": "064",
    "delimitation": "24/08/01/064",
    "remark": "NEW PU",
    "ward_id": "5931",
    "ward_name": "VICTORIA ISLAND I",
    "local_government_id": "513",
    "local_government_name": "ETI-OSA",
    "state_id": "24",
    "state_name": "LAGOS",
    "location": {
      "latitude": 6.430909199999999,
      "longitude": 3.42712,
      "viewport": {
        "northeast": {
          "lat": 6.432300379892723,
          "lng": 3.428475079892723
        },
        "southwest": {
          "lat": 6.429600720107279,
          "lng": 3.425775420107278
        }
      },
      "formatted_address": "CCJG+9R9, Victoria Island 106104, Lagos, Nigeria",
      "google_map_url": "https://maps.google.com?q=6.430909199999999,3.42712",
      "google_place_id": "ChIJq6qqqi_1OxAR15aIlKSS16A"
    }
  },
  {
    "id": "116694",
    "name": "5, OZUMBA MBADIWE BY WALTER CARINGTON",
    "registration_area_id": "5931",
    "precise_location": null,
    "abbreviation": "065",
    "units": "065",
    "delimitation": "24/08/01/065",
    "remark": "NEW PU",
    "ward_id": "5931",
    "ward_name": "VICTORIA ISLAND I",
    "local_government_id": "513",
    "local_government_name": "ETI-OSA",
    "state_id": "24",
    "state_name": "LAGOS",
    "location": {
      "latitude": 6.436515099999999,
      "longitude": 3.4149646,
      "viewport": {
        "northeast": {
          "lat": 6.437817179892721,
          "lng": 3.416304829892722
        },
        "southwest": {
          "lat": 6.435117520107277,
          "lng": 3.413605170107277
        }
      },
      "formatted_address": "5 Ozumba Mbadiwe Ave, Eti-Osa 106104, Lagos, Nigeria",
      "google_map_url": "https://maps.google.com?q=6.436515099999999,3.4149646",
      "google_place_id": "ChIJH736JdWKOxARDJhRX3qZI90"
    }
  },
  {
    "id": "116695",
    "name": "OPP. NO 1, KOFO ABAYOMI STR.",
    "registration_area_id": "5931",
    "precise_location": null,
    "abbreviation": "066",
    "units": "066",
    "delimitation": "24/08/01/066",
    "remark": "NEW PU",
    "ward_id": "5931",
    "ward_name": "VICTORIA ISLAND I",
    "local_government_id": "513",
    "local_government_name": "ETI-OSA",
    "state_id": "24",
    "state_name": "LAGOS",
    "location": {
      "latitude": 6.435798,
      "longitude": 3.411944,
      "viewport": {
        "northeast": {
          "lat": 6.437314779892722,
          "lng": 3.413310429892722
        },
        "southwest": {
          "lat": 6.434615120107278,
          "lng": 3.410610770107277
        }
      },
      "formatted_address": "8 Kofo Abayomi St, Victoria Island 106104, Lagos, Nigeria",
      "google_map_url": "https://maps.google.com?q=6.435798,3.411944",
      "google_place_id": "ChIJxz9eXHCLOxARwMOXOZhcB18"
    }
  },
  {
    "id": "116696",
    "name": "ENTRANCE OF MUSA TARADU",
    "registration_area_id": "5931",
    "precise_location": null,
    "abbreviation": "067",
    "units": "067",
    "delimitation": "24/08/01/067",
    "remark": "NEW PU",
    "ward_id": "5931",
    "ward_name": "VICTORIA ISLAND I",
    "local_government_id": "513",
    "local_government_name": "ETI-OSA",
    "state_id": "24",
    "state_name": "LAGOS",
    "location": {
      "latitude": 6.434946699999999,
      "longitude": 3.4163333,
      "viewport": {
        "northeast": {
          "lat": 6.436298079892722,
          "lng": 3.417792029892722
        },
        "southwest": {
          "lat": 6.433598420107278,
          "lng": 3.415092370107278
        }
      },
      "formatted_address": "2 Musa Yar' Adua St, Victoria Island 106104, Lagos, Nigeria",
      "google_map_url": "https://maps.google.com?q=6.434946699999999,3.4163333",
      "google_place_id": "ChIJKyjyhi71OxARtSOFIPNncRM"
    }
  },
  {
    "id": "116697",
    "name": "OPP. PLOT 241 KOFO ABAYOMI STR.",
    "registration_area_id": "5931",
    "precise_location": null,
    "abbreviation": "068",
    "units": "068",
    "delimitation": "24/08/01/068",
    "remark": "NEW PU",
    "ward_id": "5931",
    "ward_name": "VICTORIA ISLAND I",
    "local_government_id": "513",
    "local_government_name": "ETI-OSA",
    "state_id": "24",
    "state_name": "LAGOS",
    "location": {
      "latitude": 6.4348484,
      "longitude": 3.4227825,
      "viewport": {
        "northeast": {
          "lat": 6.436214879892723,
          "lng": 3.424366829892722
        },
        "southwest": {
          "lat": 6.433515220107279,
          "lng": 3.421667170107277
        }
      },
      "formatted_address": "52a Kofo Abayomi St, Victoria Island 101241, Lagos, Nigeria",
      "google_map_url": "https://maps.google.com?q=6.4348484,3.4227825",
      "google_place_id": "ChIJT8ENICz1OxARMCYtwZrNm7w"
    }
  },
  {
    "id": "116698",
    "name": "OPP. 21A, IDOWU MARTINS STR",
    "registration_area_id": "5931",
    "precise_location": null,
    "abbreviation": "069",
    "units": "069",
    "delimitation": "24/08/01/069",
    "remark": "NEW PU",
    "ward_id": "5931",
    "ward_name": "VICTORIA ISLAND I",
    "local_government_id": "513",
    "local_government_name": "ETI-OSA",
    "state_id": "24",
    "state_name": "LAGOS",
    "location": {
      "latitude": 6.4339337,
      "longitude": 3.4200143,
      "viewport": {
        "northeast": {
          "lat": 6.435267779892722,
          "lng": 3.421470179892723
        },
        "southwest": {
          "lat": 6.432568120107278,
          "lng": 3.418770520107278
        }
      },
      "formatted_address": "21A Idowu Martins St, Victoria Island 106104, Lagos, Nigeria",
      "google_map_url": "https://maps.google.com?q=6.4339337,3.4200143",
      "google_place_id": "ChIJ6ba0rSz1OxARIrPJ7CfKx1E"
    }
  },
  {
    "id": "116699",
    "name": "INFRONT OF 12/22 ADEOLA ODEKU",
    "registration_area_id": "5931",
    "precise_location": null,
    "abbreviation": "070",
    "units": "070",
    "delimitation": "24/08/01/070",
    "remark": "NEW PU",
    "ward_id": "5931",
    "ward_name": "VICTORIA ISLAND I",
    "local_government_id": "513",
    "local_government_name": "ETI-OSA",
    "state_id": "24",
    "state_name": "LAGOS",
    "location": {
      "latitude": 6.4298517,
      "longitude": 3.4108619,
      "viewport": {
        "northeast": {
          "lat": 6.43126437989272,
          "lng": 3.412198029892722
        },
        "southwest": {
          "lat": 6.428564720107277,
          "lng": 3.409498370107277
        }
      },
      "formatted_address": "54a Adeola Odeku St, Victoria Island 106104, Lagos, Nigeria",
      "google_map_url": "https://maps.google.com?q=6.4298517,3.4108619",
      "google_place_id": "ChIJlxVN4uqLOxARc0d6R9qh2eE"
    }
  },
  {
    "id": "116700",
    "name": "OJU OLOBUN BY SAKA TINUBU",
    "registration_area_id": "5931",
    "precise_location": null,
    "abbreviation": "071",
    "units": "071",
    "delimitation": "24/08/01/071",
    "remark": "NEW PU",
    "ward_id": "5931",
    "ward_name": "VICTORIA ISLAND I",
    "local_government_id": "513",
    "local_government_name": "ETI-OSA",
    "state_id": "24",
    "state_name": "LAGOS",
    "location": {
      "latitude": 6.4281998,
      "longitude": 3.415067,
      "viewport": {
        "northeast": {
          "lat": 6.429549779892721,
          "lng": 3.416367779892722
        },
        "southwest": {
          "lat": 6.426850120107277,
          "lng": 3.413668120107277
        }
      },
      "formatted_address": "7B Oju Olobun Street, Off Bishop Oluwole St, Victoria Island, Lagos, Nigeria",
      "google_map_url": "https://maps.google.com?q=6.4281998,3.415067",
      "google_place_id": "ChIJZbpQ1NOLOxAR3ZdojDasoMI"
    }
  },
  {
    "id": "116701",
    "name": "OPP. NO 1, SAKA TINUBU",
    "registration_area_id": "5931",
    "precise_location": null,
    "abbreviation": "072",
    "units": "072",
    "delimitation": "24/08/01/072",
    "remark": "NEW PU",
    "ward_id": "5931",
    "ward_name": "VICTORIA ISLAND I",
    "local_government_id": "513",
    "local_government_name": "ETI-OSA",
    "state_id": "24",
    "state_name": "LAGOS",
    "location": {
      "latitude": 6.4268009,
      "longitude": 3.4179814,
      "viewport": {
        "northeast": {
          "lat": 6.428279029892721,
          "lng": 3.419331379892722
        },
        "southwest": {
          "lat": 6.425579370107277,
          "lng": 3.416631720107278
        }
      },
      "formatted_address": "12 Saka Tinubu St, Victoria Island 106104, Lagos, Nigeria",
      "google_map_url": "https://maps.google.com?q=6.4268009,3.4179814",
      "google_place_id": "ChIJYVFFa82KOxARVcdHiqxOGiY"
    }
  },
  {
    "id": "116702",
    "name": "OPP SAKA TINUBU/AMODU OJIKUTU JUNCT.",
    "registration_area_id": "5931",
    "precise_location": null,
    "abbreviation": "073",
    "units": "073",
    "delimitation": "24/08/01/073",
    "remark": "NEW PU",
    "ward_id": "5931",
    "ward_name": "VICTORIA ISLAND I",
    "local_government_id": "513",
    "local_government_name": "ETI-OSA",
    "state_id": "24",
    "state_name": "LAGOS",
    "location": {
      "latitude": 6.426092499999999,
      "longitude": 3.418469,
      "viewport": {
        "northeast": {
          "lat": 6.427473829892722,
          "lng": 3.419818929892722
        },
        "southwest": {
          "lat": 6.424774170107278,
          "lng": 3.417119270107278
        }
      },
      "formatted_address": "Plot 2 Gabaro Close, off Amodu Ojikutu Street, off Saka Tinubu St, Victoria Island, Lagos, Nigeria",
      "google_map_url": "https://maps.google.com?q=6.426092499999999,3.418469",
      "google_place_id": "ChIJa3-2I82KOxARHCza58C6Y58"
    }
  },
  {
    "id": "116703",
    "name": "1146, GBORO CLOSE OFF AMODU OJIKUTU",
    "registration_area_id": "5931",
    "precise_location": null,
    "abbreviation": "074",
    "units": "074",
    "delimitation": "24/08/01/074",
    "remark": "NEW PU",
    "ward_id": "5931",
    "ward_name": "VICTORIA ISLAND I",
    "local_government_id": "513",
    "local_government_name": "ETI-OSA",
    "state_id": "24",
    "state_name": "LAGOS",
    "location": {
      "latitude": 6.425936600000001,
      "longitude": 3.4196572,
      "viewport": {
        "northeast": {
          "lat": 6.427357579892722,
          "lng": 3.421004529892722
        },
        "southwest": {
          "lat": 6.424657920107278,
          "lng": 3.418304870107277
        }
      },
      "formatted_address": "10 Sam Adegbite Close, Off Amodu Ojikutu St, Victoria Island, Lagos, Nigeria",
      "google_map_url": "https://maps.google.com?q=6.425936600000001,3.4196572",
      "google_place_id": "ChIJyQ1i0zL1OxARokEiMbFKhXc"
    }
  },
  {
    "id": "116704",
    "name": "14, KASUMU EKEMODE STR.",
    "registration_area_id": "5931",
    "precise_location": null,
    "abbreviation": "075",
    "units": "075",
    "delimitation": "24/08/01/075",
    "remark": "NEW PU",
    "ward_id": "5931",
    "ward_name": "VICTORIA ISLAND I",
    "local_government_id": "513",
    "local_government_name": "ETI-OSA",
    "state_id": "24",
    "state_name": "LAGOS",
    "location": {
      "latitude": 6.4249094,
      "longitude": 3.422023,
      "viewport": {
        "northeast": {
          "lat": 6.426259079892722,
          "lng": 3.423429179892723
        },
        "southwest": {
          "lat": 6.423559420107278,
          "lng": 3.420729520107278
        }
      },
      "formatted_address": "Plot 1192A Kasumu Ekemode St, Victoria Island 106104, Lagos, Nigeria",
      "google_map_url": "https://maps.google.com?q=6.4249094,3.422023",
      "google_place_id": "ChIJpz69f1X1OxARuq7dcotDa9w"
    }
  }
]