[
  {
    "id": "14680",
    "name": "OBIALUNAMMA HALL I",
    "registration_area_id": "877",
    "precise_location": null,
    "abbreviation": "001",
    "units": "001",
    "delimitation": "04/10/03/001",
    "remark": "EXISTING PU",
    "ward_id": "877",
    "ward_name": "EZIOWELLE",
    "local_government_id": "79",
    "local_government_name": "IDEMILI NORTH",
    "state_id": "4",
    "state_name": "ANAMBRA",
    "location": {
      "latitude": 5.913111199999999,
      "longitude": 6.845931999999999,
      "viewport": {
        "northeast": {
          "lat": 5.914477379892721,
          "lng": 6.847289279892721
        },
        "southwest": {
          "lat": 5.911777720107278,
          "lng": 6.844589620107277
        }
      },
      "formatted_address": "WR7W+69M, 431123, Okija, Nigeria",
      "google_map_url": "https://maps.google.com?q=5.913111199999999,6.845931999999999",
      "google_place_id": "ChIJEYVeUim7QxARRl-Z87T6Kqo"
    }
  },
  {
    "id": "14681",
    "name": "OBIALUNAMMA HALL II",
    "registration_area_id": "877",
    "precise_location": null,
    "abbreviation": "002",
    "units": "002",
    "delimitation": "04/10/03/002",
    "remark": "EXISTING PU",
    "ward_id": "877",
    "ward_name": "EZIOWELLE",
    "local_government_id": "79",
    "local_government_name": "IDEMILI NORTH",
    "state_id": "4",
    "state_name": "ANAMBRA",
    "location": {
      "latitude": 5.913111199999999,
      "longitude": 6.845931999999999,
      "viewport": {
        "northeast": {
          "lat": 5.914477379892721,
          "lng": 6.847289279892721
        },
        "southwest": {
          "lat": 5.911777720107278,
          "lng": 6.844589620107277
        }
      },
      "formatted_address": "WR7W+69M, 431123, Okija, Nigeria",
      "google_map_url": "https://maps.google.com?q=5.913111199999999,6.845931999999999",
      "google_place_id": "ChIJEYVeUim7QxARRl-Z87T6Kqo"
    }
  },
  {
    "id": "14682",
    "name": "UNION P/S I",
    "registration_area_id": "877",
    "precise_location": null,
    "abbreviation": "003",
    "units": "003",
    "delimitation": "04/10/03/003",
    "remark": "EXISTING PU",
    "ward_id": "877",
    "ward_name": "EZIOWELLE",
    "local_government_id": "79",
    "local_government_name": "IDEMILI NORTH",
    "state_id": "4",
    "state_name": "ANAMBRA",
    "location": {
      "latitude": 5.8516439,
      "longitude": 6.8511814,
      "viewport": {
        "northeast": {
          "lat": 5.853101979892721,
          "lng": 6.852471329892722
        },
        "southwest": {
          "lat": 5.850402320107277,
          "lng": 6.849771670107278
        }
      },
      "formatted_address": "Bona Agwunobi'S House, Mbarakpaka 431119, Ihiala, Nigeria",
      "google_map_url": "https://maps.google.com?q=5.8516439,6.8511814",
      "google_place_id": "ChIJxWITj82xQxARcBGtEuSvsQk"
    }
  },
  {
    "id": "14683",
    "name": "UNION P/S II",
    "registration_area_id": "877",
    "precise_location": null,
    "abbreviation": "004",
    "units": "004",
    "delimitation": "04/10/03/004",
    "remark": "EXISTING PU",
    "ward_id": "877",
    "ward_name": "EZIOWELLE",
    "local_government_id": "79",
    "local_government_name": "IDEMILI NORTH",
    "state_id": "4",
    "state_name": "ANAMBRA",
    "location": {
      "latitude": 6.1552124,
      "longitude": 6.8926539,
      "viewport": {
        "northeast": {
          "lat": 6.156504529892723,
          "lng": 6.893962529892722
        },
        "southwest": {
          "lat": 6.153804870107279,
          "lng": 6.891262870107278
        }
      },
      "formatted_address": "5V4V+33J, 421108, Idemili North, Nigeria",
      "google_map_url": "https://maps.google.com?q=6.1552124,6.8926539",
      "google_place_id": "ChIJechAaFmQQxARJlzQSHMZ1tk"
    }
  },
  {
    "id": "14684",
    "name": "UZUBI CENTRAL SCHOOL I",
    "registration_area_id": "877",
    "precise_location": null,
    "abbreviation": "005",
    "units": "005",
    "delimitation": "04/10/03/005",
    "remark": "EXISTING PU",
    "ward_id": "877",
    "ward_name": "EZIOWELLE",
    "local_government_id": "79",
    "local_government_name": "IDEMILI NORTH",
    "state_id": "4",
    "state_name": "ANAMBRA",
    "location": {
      "latitude": 6.03618,
      "longitude": 6.960743099999999,
      "viewport": {
        "northeast": {
          "lat": 6.037565829892722,
          "lng": 6.962081829892722
        },
        "southwest": {
          "lat": 6.034866170107278,
          "lng": 6.959382170107278
        }
      },
      "formatted_address": "Idemili-South, 434117, Awka Etiti, Nigeria",
      "google_map_url": "https://maps.google.com?q=6.03618,6.960743099999999",
      "google_place_id": "ChIJ72tfBGOYQxARzqaWBVacl-0"
    }
  },
  {
    "id": "14685",
    "name": "UZUBI CENTRAL SCHOOL II",
    "registration_area_id": "877",
    "precise_location": null,
    "abbreviation": "006",
    "units": "006",
    "delimitation": "04/10/03/006",
    "remark": "EXISTING PU",
    "ward_id": "877",
    "ward_name": "EZIOWELLE",
    "local_government_id": "79",
    "local_government_name": "IDEMILI NORTH",
    "state_id": "4",
    "state_name": "ANAMBRA",
    "location": {
      "latitude": 6.03618,
      "longitude": 6.960743099999999,
      "viewport": {
        "northeast": {
          "lat": 6.037565829892722,
          "lng": 6.962081829892722
        },
        "southwest": {
          "lat": 6.034866170107278,
          "lng": 6.959382170107278
        }
      },
      "formatted_address": "Idemili-South, 434117, Awka Etiti, Nigeria",
      "google_map_url": "https://maps.google.com?q=6.03618,6.960743099999999",
      "google_place_id": "ChIJ72tfBGOYQxARzqaWBVacl-0"
    }
  },
  {
    "id": "14686",
    "name": "UDOKA P/S I",
    "registration_area_id": "877",
    "precise_location": null,
    "abbreviation": "007",
    "units": "007",
    "delimitation": "04/10/03/007",
    "remark": "EXISTING PU",
    "ward_id": "877",
    "ward_name": "EZIOWELLE",
    "local_government_id": "79",
    "local_government_name": "IDEMILI NORTH",
    "state_id": "4",
    "state_name": "ANAMBRA",
    "location": {
      "latitude": 6.1530683,
      "longitude": 6.8591004,
      "viewport": {
        "northeast": {
          "lat": 6.154358379892721,
          "lng": 6.860442479892722
        },
        "southwest": {
          "lat": 6.151658720107277,
          "lng": 6.857742820107278
        }
      },
      "formatted_address": "First Road, Ikemba Dr, Ikenga Ogidi 434101, Onitsha, Nigeria",
      "google_map_url": "https://maps.google.com?q=6.1530683,6.8591004",
      "google_place_id": "ChIJX5xWK5iRQxARDGBipxiISy8"
    }
  },
  {
    "id": "14687",
    "name": "UDOKA P/S II",
    "registration_area_id": "877",
    "precise_location": null,
    "abbreviation": "008",
    "units": "008",
    "delimitation": "04/10/03/008",
    "remark": "EXISTING PU",
    "ward_id": "877",
    "ward_name": "EZIOWELLE",
    "local_government_id": "79",
    "local_government_name": "IDEMILI NORTH",
    "state_id": "4",
    "state_name": "ANAMBRA",
    "location": {
      "latitude": 6.1530683,
      "longitude": 6.8591004,
      "viewport": {
        "northeast": {
          "lat": 6.154358379892721,
          "lng": 6.860442479892722
        },
        "southwest": {
          "lat": 6.151658720107277,
          "lng": 6.857742820107278
        }
      },
      "formatted_address": "First Road, Ikemba Dr, Ikenga Ogidi 434101, Onitsha, Nigeria",
      "google_map_url": "https://maps.google.com?q=6.1530683,6.8591004",
      "google_place_id": "ChIJX5xWK5iRQxARDGBipxiISy8"
    }
  },
  {
    "id": "14688",
    "name": "ILO EKWEGBALU I",
    "registration_area_id": "877",
    "precise_location": null,
    "abbreviation": "009",
    "units": "009",
    "delimitation": "04/10/03/009",
    "remark": "EXISTING PU",
    "ward_id": "877",
    "ward_name": "EZIOWELLE",
    "local_government_id": "79",
    "local_government_name": "IDEMILI NORTH",
    "state_id": "4",
    "state_name": "ANAMBRA",
    "location": {
      "latitude": 6.1530683,
      "longitude": 6.8591004,
      "viewport": {
        "northeast": {
          "lat": 6.154358379892721,
          "lng": 6.860442479892722
        },
        "southwest": {
          "lat": 6.151658720107277,
          "lng": 6.857742820107278
        }
      },
      "formatted_address": "First Road, Ikemba Dr, Ikenga Ogidi 434101, Onitsha, Nigeria",
      "google_map_url": "https://maps.google.com?q=6.1530683,6.8591004",
      "google_place_id": "ChIJX5xWK5iRQxARDGBipxiISy8"
    }
  },
  {
    "id": "14689",
    "name": "ILO EKWEGBALU II",
    "registration_area_id": "877",
    "precise_location": null,
    "abbreviation": "010",
    "units": "010",
    "delimitation": "04/10/03/010",
    "remark": "EXISTING PU",
    "ward_id": "877",
    "ward_name": "EZIOWELLE",
    "local_government_id": "79",
    "local_government_name": "IDEMILI NORTH",
    "state_id": "4",
    "state_name": "ANAMBRA",
    "location": {
      "latitude": 6.1530683,
      "longitude": 6.8591004,
      "viewport": {
        "northeast": {
          "lat": 6.154358379892721,
          "lng": 6.860442479892722
        },
        "southwest": {
          "lat": 6.151658720107277,
          "lng": 6.857742820107278
        }
      },
      "formatted_address": "First Road, Ikemba Dr, Ikenga Ogidi 434101, Onitsha, Nigeria",
      "google_map_url": "https://maps.google.com?q=6.1530683,6.8591004",
      "google_place_id": "ChIJX5xWK5iRQxARDGBipxiISy8"
    }
  },
  {
    "id": "14690",
    "name": "COMMUNITY  P/S I",
    "registration_area_id": "877",
    "precise_location": null,
    "abbreviation": "011",
    "units": "011",
    "delimitation": "04/10/03/011",
    "remark": "EXISTING PU",
    "ward_id": "877",
    "ward_name": "EZIOWELLE",
    "local_government_id": "79",
    "local_government_name": "IDEMILI NORTH",
    "state_id": "4",
    "state_name": "ANAMBRA",
    "location": {
      "latitude": 6.1077524,
      "longitude": 6.9209397,
      "viewport": {
        "northeast": {
          "lat": 6.109123279892723,
          "lng": 6.922286829892723
        },
        "southwest": {
          "lat": 6.106423620107279,
          "lng": 6.919587170107279
        }
      },
      "formatted_address": "4W5C+39F, Uke, Abatete, Nigeria",
      "google_map_url": "https://maps.google.com?q=6.1077524,6.9209397",
      "google_place_id": "ChIJt3Ij8wGZQxARXRSeDp0KYxs"
    }
  },
  {
    "id": "14691",
    "name": "COMMUNITY P/S II",
    "registration_area_id": "877",
    "precise_location": null,
    "abbreviation": "012",
    "units": "012",
    "delimitation": "04/10/03/012",
    "remark": "EXISTING PU",
    "ward_id": "877",
    "ward_name": "EZIOWELLE",
    "local_government_id": "79",
    "local_government_name": "IDEMILI NORTH",
    "state_id": "4",
    "state_name": "ANAMBRA",
    "location": {
      "latitude": 6.1077524,
      "longitude": 6.9209397,
      "viewport": {
        "northeast": {
          "lat": 6.109123279892723,
          "lng": 6.922286829892723
        },
        "southwest": {
          "lat": 6.106423620107279,
          "lng": 6.919587170107279
        }
      },
      "formatted_address": "4W5C+39F, Uke, Abatete, Nigeria",
      "google_map_url": "https://maps.google.com?q=6.1077524,6.9209397",
      "google_place_id": "ChIJt3Ij8wGZQxARXRSeDp0KYxs"
    }
  },
  {
    "id": "14692",
    "name": "COMMUNITY SECONDARY SCHOOL I",
    "registration_area_id": "877",
    "precise_location": null,
    "abbreviation": "013",
    "units": "013",
    "delimitation": "04/10/03/013",
    "remark": "EXISTING PU",
    "ward_id": "877",
    "ward_name": "EZIOWELLE",
    "local_government_id": "79",
    "local_government_name": "IDEMILI NORTH",
    "state_id": "4",
    "state_name": "ANAMBRA",
    "location": {
      "latitude": 6.1077524,
      "longitude": 6.9209397,
      "viewport": {
        "northeast": {
          "lat": 6.109123279892723,
          "lng": 6.922286829892723
        },
        "southwest": {
          "lat": 6.106423620107279,
          "lng": 6.919587170107279
        }
      },
      "formatted_address": "4W5C+39F, Uke, Abatete, Nigeria",
      "google_map_url": "https://maps.google.com?q=6.1077524,6.9209397",
      "google_place_id": "ChIJt3Ij8wGZQxARXRSeDp0KYxs"
    }
  },
  {
    "id": "14693",
    "name": "COMMUNITY SECONDARY SCHOOL II",
    "registration_area_id": "877",
    "precise_location": null,
    "abbreviation": "014",
    "units": "014",
    "delimitation": "04/10/03/014",
    "remark": "EXISTING PU",
    "ward_id": "877",
    "ward_name": "EZIOWELLE",
    "local_government_id": "79",
    "local_government_name": "IDEMILI NORTH",
    "state_id": "4",
    "state_name": "ANAMBRA",
    "location": {
      "latitude": 6.1077524,
      "longitude": 6.9209397,
      "viewport": {
        "northeast": {
          "lat": 6.109123279892723,
          "lng": 6.922286829892723
        },
        "southwest": {
          "lat": 6.106423620107279,
          "lng": 6.919587170107279
        }
      },
      "formatted_address": "4W5C+39F, Uke, Abatete, Nigeria",
      "google_map_url": "https://maps.google.com?q=6.1077524,6.9209397",
      "google_place_id": "ChIJt3Ij8wGZQxARXRSeDp0KYxs"
    }
  },
  {
    "id": "14694",
    "name": "ILO EKWEGBALU III",
    "registration_area_id": "877",
    "precise_location": null,
    "abbreviation": "015",
    "units": "015",
    "delimitation": "04/10/03/015",
    "remark": "EXISTING PU",
    "ward_id": "877",
    "ward_name": "EZIOWELLE",
    "local_government_id": "79",
    "local_government_name": "IDEMILI NORTH",
    "state_id": "4",
    "state_name": "ANAMBRA",
    "location": {
      "latitude": 6.1295448,
      "longitude": 6.8994495,
      "viewport": {
        "northeast": {
          "lat": 6.182811399999999,
          "lng": 6.974158099999999
        },
        "southwest": {
          "lat": 6.091304999999999,
          "lng": 6.789955
        }
      },
      "formatted_address": "Idemili North, Nigeria",
      "google_map_url": "https://maps.google.com?q=6.1295448,6.8994495",
      "google_place_id": "ChIJ4dgPmOOQQxARd3f1gJ29Xe8"
    }
  },
  {
    "id": "14695",
    "name": "ILO EKWEGBALU IV",
    "registration_area_id": "877",
    "precise_location": null,
    "abbreviation": "016",
    "units": "016",
    "delimitation": "04/10/03/016",
    "remark": "EXISTING PU",
    "ward_id": "877",
    "ward_name": "EZIOWELLE",
    "local_government_id": "79",
    "local_government_name": "IDEMILI NORTH",
    "state_id": "4",
    "state_name": "ANAMBRA",
    "location": {
      "latitude": 6.1295448,
      "longitude": 6.8994495,
      "viewport": {
        "northeast": {
          "lat": 6.182811399999999,
          "lng": 6.974158099999999
        },
        "southwest": {
          "lat": 6.091304999999999,
          "lng": 6.789955
        }
      },
      "formatted_address": "Idemili North, Nigeria",
      "google_map_url": "https://maps.google.com?q=6.1295448,6.8994495",
      "google_place_id": "ChIJ4dgPmOOQQxARd3f1gJ29Xe8"
    }
  },
  {
    "id": "14696",
    "name": "COMMUNITY  P/S III",
    "registration_area_id": "877",
    "precise_location": null,
    "abbreviation": "017",
    "units": "017",
    "delimitation": "04/10/03/017",
    "remark": "EXISTING PU",
    "ward_id": "877",
    "ward_name": "EZIOWELLE",
    "local_government_id": "79",
    "local_government_name": "IDEMILI NORTH",
    "state_id": "4",
    "state_name": "ANAMBRA",
    "location": {
      "latitude": 6.1077524,
      "longitude": 6.9209397,
      "viewport": {
        "northeast": {
          "lat": 6.109123279892723,
          "lng": 6.922286829892723
        },
        "southwest": {
          "lat": 6.106423620107279,
          "lng": 6.919587170107279
        }
      },
      "formatted_address": "4W5C+39F, Uke, Abatete, Nigeria",
      "google_map_url": "https://maps.google.com?q=6.1077524,6.9209397",
      "google_place_id": "ChIJt3Ij8wGZQxARXRSeDp0KYxs"
    }
  },
  {
    "id": "14697",
    "name": "PRIMARY HEALTH CENTRE EZIOWELLE",
    "registration_area_id": "877",
    "precise_location": null,
    "abbreviation": "018",
    "units": "018",
    "delimitation": "04/10/03/018",
    "remark": "NEW PU",
    "ward_id": "877",
    "ward_name": "EZIOWELLE",
    "local_government_id": "79",
    "local_government_name": "IDEMILI NORTH",
    "state_id": "4",
    "state_name": "ANAMBRA",
    "location": {
      "latitude": 6.1511001,
      "longitude": 6.947947,
      "viewport": {
        "northeast": {
          "lat": 6.152305329892722,
          "lng": 6.949379379892721
        },
        "southwest": {
          "lat": 6.149605670107278,
          "lng": 6.946679720107277
        }
      },
      "formatted_address": "5W2X+C5W, 434103, Abatete, Nigeria",
      "google_map_url": "https://maps.google.com?q=6.1511001,6.947947",
      "google_place_id": "ChIJi_9RCvaaQxAR3722Zk4ySGg"
    }
  },
  {
    "id": "14698",
    "name": "ILO EZINIMO UMUAGU COMMUNITY CENTRE (OPEN SPACE)",
    "registration_area_id": "877",
    "precise_location": null,
    "abbreviation": "019",
    "units": "019",
    "delimitation": "04/10/03/019",
    "remark": "NEW PU",
    "ward_id": "877",
    "ward_name": "EZIOWELLE",
    "local_government_id": "79",
    "local_government_name": "IDEMILI NORTH",
    "state_id": "4",
    "state_name": "ANAMBRA",
    "location": null
  },
  {
    "id": "14699",
    "name": "ILO OFE-EGBO ODIDA COMMUNITY CENTRE (OPEN SPACE)",
    "registration_area_id": "877",
    "precise_location": null,
    "abbreviation": "020",
    "units": "020",
    "delimitation": "04/10/03/020",
    "remark": "NEW PU",
    "ward_id": "877",
    "ward_name": "EZIOWELLE",
    "local_government_id": "79",
    "local_government_name": "IDEMILI NORTH",
    "state_id": "4",
    "state_name": "ANAMBRA",
    "location": null
  }
]