[
  {
    "id": "9216",
    "name": "PRY SCH, MBIEREBE OBIO I",
    "registration_area_id": "495",
    "precise_location": null,
    "abbreviation": "001",
    "units": "001",
    "delimitation": "03/09/01/001",
    "remark": "EXISTING PU",
    "ward_id": "495",
    "ward_name": "IBESIKPO 1",
    "local_government_id": "47",
    "local_government_name": "IBESIKPO ASUTAN",
    "state_id": "3",
    "state_name": "AKWA IBOM",
    "location": {
      "latitude": 4.9896558,
      "longitude": 7.8900994,
      "viewport": {
        "northeast": {
          "lat": 4.991011179892721,
          "lng": 7.89144457989272
        },
        "southwest": {
          "lat": 4.988311520107278,
          "lng": 7.888744920107277
        }
      },
      "formatted_address": "XVQR+V29, NnaUmiang road, 522110, Uyo, Nigeria",
      "google_map_url": "https://maps.google.com?q=4.9896558,7.8900994",
      "google_place_id": "ChIJP2mCa2_5ZxARxK31c19mnmE"
    }
  },
  {
    "id": "9217",
    "name": "PRY SCH, MBIEREBE OBIO II",
    "registration_area_id": "495",
    "precise_location": null,
    "abbreviation": "002",
    "units": "002",
    "delimitation": "03/09/01/002",
    "remark": "EXISTING PU",
    "ward_id": "495",
    "ward_name": "IBESIKPO 1",
    "local_government_id": "47",
    "local_government_name": "IBESIKPO ASUTAN",
    "state_id": "3",
    "state_name": "AKWA IBOM",
    "location": {
      "latitude": 4.9896558,
      "longitude": 7.8900994,
      "viewport": {
        "northeast": {
          "lat": 4.991011179892721,
          "lng": 7.89144457989272
        },
        "southwest": {
          "lat": 4.988311520107278,
          "lng": 7.888744920107277
        }
      },
      "formatted_address": "XVQR+V29, NnaUmiang road, 522110, Uyo, Nigeria",
      "google_map_url": "https://maps.google.com?q=4.9896558,7.8900994",
      "google_place_id": "ChIJP2mCa2_5ZxARxK31c19mnmE"
    }
  },
  {
    "id": "9218",
    "name": "PRY SCH, IKOT IKO I",
    "registration_area_id": "495",
    "precise_location": null,
    "abbreviation": "003",
    "units": "003",
    "delimitation": "03/09/01/003",
    "remark": "EXISTING PU",
    "ward_id": "495",
    "ward_name": "IBESIKPO 1",
    "local_government_id": "47",
    "local_government_name": "IBESIKPO ASUTAN",
    "state_id": "3",
    "state_name": "AKWA IBOM",
    "location": {
      "latitude": 4.9789412,
      "longitude": 7.911498799999999,
      "viewport": {
        "northeast": {
          "lat": 4.980191879892722,
          "lng": 7.912738179892722
        },
        "southwest": {
          "lat": 4.977492220107278,
          "lng": 7.910038520107278
        }
      },
      "formatted_address": "1 Ikot Iko Rd, Nigeria",
      "google_map_url": "https://maps.google.com?q=4.9789412,7.911498799999999",
      "google_place_id": "ChIJ2_scmfn4ZxAROUZvKEYPH1k"
    }
  },
  {
    "id": "9219",
    "name": "PRY SCH, IKOT IKO II",
    "registration_area_id": "495",
    "precise_location": null,
    "abbreviation": "004",
    "units": "004",
    "delimitation": "03/09/01/004",
    "remark": "EXISTING PU",
    "ward_id": "495",
    "ward_name": "IBESIKPO 1",
    "local_government_id": "47",
    "local_government_name": "IBESIKPO ASUTAN",
    "state_id": "3",
    "state_name": "AKWA IBOM",
    "location": {
      "latitude": 5.0218541,
      "longitude": 7.922816,
      "viewport": {
        "northeast": {
          "lat": 5.023170929892722,
          "lng": 7.924210929892721
        },
        "southwest": {
          "lat": 5.020471270107278,
          "lng": 7.921511270107277
        }
      },
      "formatted_address": "107 Aka Rd, 520241, Uyo, Nigeria",
      "google_map_url": "https://maps.google.com?q=5.0218541,7.922816",
      "google_place_id": "ChIJZUuy5GjiZxARcQOdEiOonKM"
    }
  },
  {
    "id": "9220",
    "name": "PRY SCH, AFAHA ATAI",
    "registration_area_id": "495",
    "precise_location": null,
    "abbreviation": "005",
    "units": "005",
    "delimitation": "03/09/01/005",
    "remark": "EXISTING PU",
    "ward_id": "495",
    "ward_name": "IBESIKPO 1",
    "local_government_id": "47",
    "local_government_name": "IBESIKPO ASUTAN",
    "state_id": "3",
    "state_name": "AKWA IBOM",
    "location": {
      "latitude": 4.994543,
      "longitude": 7.935134,
      "viewport": {
        "northeast": {
          "lat": 4.995838679892722,
          "lng": 7.936469479892723
        },
        "southwest": {
          "lat": 4.993139020107278,
          "lng": 7.933769820107279
        }
      },
      "formatted_address": "XWVP+R36, 521110, Uyo, Nigeria",
      "google_map_url": "https://maps.google.com?q=4.994543,7.935134",
      "google_place_id": "ChIJFxyD1JT5ZxARLGtXwpGLPfw"
    }
  },
  {
    "id": "9221",
    "name": "PRY SCH, AFAHA ETOK",
    "registration_area_id": "495",
    "precise_location": null,
    "abbreviation": "006",
    "units": "006",
    "delimitation": "03/09/01/006",
    "remark": "EXISTING PU",
    "ward_id": "495",
    "ward_name": "IBESIKPO 1",
    "local_government_id": "47",
    "local_government_name": "IBESIKPO ASUTAN",
    "state_id": "3",
    "state_name": "AKWA IBOM",
    "location": {
      "latitude": 4.994543,
      "longitude": 7.935134,
      "viewport": {
        "northeast": {
          "lat": 4.995838679892722,
          "lng": 7.936469479892723
        },
        "southwest": {
          "lat": 4.993139020107278,
          "lng": 7.933769820107279
        }
      },
      "formatted_address": "XWVP+R36, 521110, Uyo, Nigeria",
      "google_map_url": "https://maps.google.com?q=4.994543,7.935134",
      "google_place_id": "ChIJFxyD1JT5ZxARLGtXwpGLPfw"
    }
  },
  {
    "id": "9222",
    "name": "PRY SCH, NUNG OKU",
    "registration_area_id": "495",
    "precise_location": null,
    "abbreviation": "007",
    "units": "007",
    "delimitation": "03/09/01/007",
    "remark": "EXISTING PU",
    "ward_id": "495",
    "ward_name": "IBESIKPO 1",
    "local_government_id": "47",
    "local_government_name": "IBESIKPO ASUTAN",
    "state_id": "3",
    "state_name": "AKWA IBOM",
    "location": {
      "latitude": 4.9986923,
      "longitude": 7.9124348,
      "viewport": {
        "northeast": {
          "lat": 5.000087179892722,
          "lng": 7.913625329892721
        },
        "southwest": {
          "lat": 4.997387520107278,
          "lng": 7.910925670107277
        }
      },
      "formatted_address": "XWX6+FX2, 521110, Uyo, Nigeria",
      "google_map_url": "https://maps.google.com?q=4.9986923,7.9124348",
      "google_place_id": "ChIJqTBScon5ZxARmm51T41RHok"
    }
  },
  {
    "id": "9223",
    "name": "PRY SCH, AFAHA IKOT OSOM",
    "registration_area_id": "495",
    "precise_location": null,
    "abbreviation": "008",
    "units": "008",
    "delimitation": "03/09/01/008",
    "remark": "EXISTING PU",
    "ward_id": "495",
    "ward_name": "IBESIKPO 1",
    "local_government_id": "47",
    "local_government_name": "IBESIKPO ASUTAN",
    "state_id": "3",
    "state_name": "AKWA IBOM",
    "location": null
  },
  {
    "id": "9224",
    "name": "MARKET SQUARE, IKOT AKPAN EDU",
    "registration_area_id": "495",
    "precise_location": null,
    "abbreviation": "009",
    "units": "009",
    "delimitation": "03/09/01/009",
    "remark": "EXISTING PU",
    "ward_id": "495",
    "ward_name": "IBESIKPO 1",
    "local_government_id": "47",
    "local_government_name": "IBESIKPO ASUTAN",
    "state_id": "3",
    "state_name": "AKWA IBOM",
    "location": {
      "latitude": 4.9983713,
      "longitude": 7.940507500000001,
      "viewport": {
        "northeast": {
          "lat": 4.999970829892722,
          "lng": 7.941756979892722
        },
        "southwest": {
          "lat": 4.997271170107278,
          "lng": 7.939057320107278
        }
      },
      "formatted_address": "Itiam Etoi Rd, 520102, Uyo, Nigeria",
      "google_map_url": "https://maps.google.com?q=4.9983713,7.940507500000001",
      "google_place_id": "ChIJwUodwRn5ZxARWny67OLCEMY"
    }
  },
  {
    "id": "9225",
    "name": "PRY SCH, MBIKPONG IKOT EDIM",
    "registration_area_id": "495",
    "precise_location": null,
    "abbreviation": "010",
    "units": "010",
    "delimitation": "03/09/01/010",
    "remark": "EXISTING PU",
    "ward_id": "495",
    "ward_name": "IBESIKPO 1",
    "local_government_id": "47",
    "local_government_name": "IBESIKPO ASUTAN",
    "state_id": "3",
    "state_name": "AKWA IBOM",
    "location": {
      "latitude": 4.9896558,
      "longitude": 7.8900994,
      "viewport": {
        "northeast": {
          "lat": 4.991011179892721,
          "lng": 7.89144457989272
        },
        "southwest": {
          "lat": 4.988311520107278,
          "lng": 7.888744920107277
        }
      },
      "formatted_address": "XVQR+V29, NnaUmiang road, 522110, Uyo, Nigeria",
      "google_map_url": "https://maps.google.com?q=4.9896558,7.8900994",
      "google_place_id": "ChIJP2mCa2_5ZxARxK31c19mnmE"
    }
  },
  {
    "id": "9226",
    "name": "VILLAGE SQUARE, MBIKPONG IKOT EDIM (NEAR BUS STOP)",
    "registration_area_id": "495",
    "precise_location": null,
    "abbreviation": "011",
    "units": "011",
    "delimitation": "03/09/01/011",
    "remark": "EXISTING PU",
    "ward_id": "495",
    "ward_name": "IBESIKPO 1",
    "local_government_id": "47",
    "local_government_name": "IBESIKPO ASUTAN",
    "state_id": "3",
    "state_name": "AKWA IBOM",
    "location": null
  },
  {
    "id": "9227",
    "name": "PRY SCH, IKOT AKPAN ABIA",
    "registration_area_id": "495",
    "precise_location": null,
    "abbreviation": "012",
    "units": "012",
    "delimitation": "03/09/01/012",
    "remark": "EXISTING PU",
    "ward_id": "495",
    "ward_name": "IBESIKPO 1",
    "local_government_id": "47",
    "local_government_name": "IBESIKPO ASUTAN",
    "state_id": "3",
    "state_name": "AKWA IBOM",
    "location": {
      "latitude": 4.981177199999999,
      "longitude": 7.904931800000001,
      "viewport": {
        "northeast": {
          "lat": 4.982526529892723,
          "lng": 7.906274829892722
        },
        "southwest": {
          "lat": 4.979826870107279,
          "lng": 7.903575170107279
        }
      },
      "formatted_address": "XWJ3+CWQ, 521110, Uyo, Nigeria",
      "google_map_url": "https://maps.google.com?q=4.981177199999999,7.904931800000001",
      "google_place_id": "ChIJrSa09sr5ZxARCcv35xEzSZc"
    }
  },
  {
    "id": "9228",
    "name": "VILLAGE SQUARE, IKOT AKPAN ABIA",
    "registration_area_id": "495",
    "precise_location": null,
    "abbreviation": "013",
    "units": "013",
    "delimitation": "03/09/01/013",
    "remark": "EXISTING PU",
    "ward_id": "495",
    "ward_name": "IBESIKPO 1",
    "local_government_id": "47",
    "local_government_name": "IBESIKPO ASUTAN",
    "state_id": "3",
    "state_name": "AKWA IBOM",
    "location": {
      "latitude": 5.0012026,
      "longitude": 7.905102299999999,
      "viewport": {
        "northeast": {
          "lat": 5.002549379892722,
          "lng": 7.906534329892721
        },
        "southwest": {
          "lat": 4.999849720107278,
          "lng": 7.903834670107277
        }
      },
      "formatted_address": "28 Akwaima Estate Rd 1, 521110, Uyo, Nigeria",
      "google_map_url": "https://maps.google.com?q=5.0012026,7.905102299999999",
      "google_place_id": "ChIJt57A83r5ZxARXUhcVKqUFes"
    }
  },
  {
    "id": "9229",
    "name": "MARKET SQUARE, AFAHA IKOT OBIO NKAN",
    "registration_area_id": "495",
    "precise_location": null,
    "abbreviation": "014",
    "units": "014",
    "delimitation": "03/09/01/014",
    "remark": "EXISTING PU",
    "ward_id": "495",
    "ward_name": "IBESIKPO 1",
    "local_government_id": "47",
    "local_government_name": "IBESIKPO ASUTAN",
    "state_id": "3",
    "state_name": "AKWA IBOM",
    "location": {
      "latitude": 4.990284099999999,
      "longitude": 7.9455775,
      "viewport": {
        "northeast": {
          "lat": 4.991450679892722,
          "lng": 7.946946329892723
        },
        "southwest": {
          "lat": 4.988751020107278,
          "lng": 7.944246670107279
        }
      },
      "formatted_address": "XWRW+468, Ikot Obio Nkan, Ibesikpo Asutan, Ring Rd 3, Afaha Ibesikpo, Nigeria",
      "google_map_url": "https://maps.google.com?q=4.990284099999999,7.9455775",
      "google_place_id": "ChIJ1ZfKgj34ZxARYewt0Iq0R7Y"
    }
  },
  {
    "id": "9230",
    "name": "PRY SCH, AFAHA IKOT OBIO NKAN",
    "registration_area_id": "495",
    "precise_location": null,
    "abbreviation": "015",
    "units": "015",
    "delimitation": "03/09/01/015",
    "remark": "EXISTING PU",
    "ward_id": "495",
    "ward_name": "IBESIKPO 1",
    "local_government_id": "47",
    "local_government_name": "IBESIKPO ASUTAN",
    "state_id": "3",
    "state_name": "AKWA IBOM",
    "location": {
      "latitude": 4.9914237,
      "longitude": 7.933266199999999,
      "viewport": {
        "northeast": {
          "lat": 4.992624779892721,
          "lng": 7.934787029892721
        },
        "southwest": {
          "lat": 4.989925120107277,
          "lng": 7.932087370107277
        }
      },
      "formatted_address": "L.G.A, Udo Udoma Ave, 520102, Uyo, Nigeria",
      "google_map_url": "https://maps.google.com?q=4.9914237,7.933266199999999",
      "google_place_id": "ChIJfUqEDGr4ZxARJ11zL6a4wjc"
    }
  },
  {
    "id": "9231",
    "name": "MARKET SQUARE, MBIEREBE OBIO",
    "registration_area_id": "495",
    "precise_location": null,
    "abbreviation": "016",
    "units": "016",
    "delimitation": "03/09/01/016",
    "remark": "NEW PU",
    "ward_id": "495",
    "ward_name": "IBESIKPO 1",
    "local_government_id": "47",
    "local_government_name": "IBESIKPO ASUTAN",
    "state_id": "3",
    "state_name": "AKWA IBOM",
    "location": {
      "latitude": 4.9983713,
      "longitude": 7.940507500000001,
      "viewport": {
        "northeast": {
          "lat": 4.999970829892722,
          "lng": 7.941756979892722
        },
        "southwest": {
          "lat": 4.997271170107278,
          "lng": 7.939057320107278
        }
      },
      "formatted_address": "Itiam Etoi Rd, 520102, Uyo, Nigeria",
      "google_map_url": "https://maps.google.com?q=4.9983713,7.940507500000001",
      "google_place_id": "ChIJwUodwRn5ZxARWny67OLCEMY"
    }
  },
  {
    "id": "9232",
    "name": "TOWN HALL MBIEREBE OBIO",
    "registration_area_id": "495",
    "precise_location": null,
    "abbreviation": "017",
    "units": "017",
    "delimitation": "03/09/01/017",
    "remark": "NEW PU",
    "ward_id": "495",
    "ward_name": "IBESIKPO 1",
    "local_government_id": "47",
    "local_government_name": "IBESIKPO ASUTAN",
    "state_id": "3",
    "state_name": "AKWA IBOM",
    "location": {
      "latitude": 5.0218541,
      "longitude": 7.922816,
      "viewport": {
        "northeast": {
          "lat": 5.023170929892722,
          "lng": 7.924210929892721
        },
        "southwest": {
          "lat": 5.020471270107278,
          "lng": 7.921511270107277
        }
      },
      "formatted_address": "107 Aka Rd, 520241, Uyo, Nigeria",
      "google_map_url": "https://maps.google.com?q=5.0218541,7.922816",
      "google_place_id": "ChIJiT76QmniZxAR2LDv4sCCRms"
    }
  },
  {
    "id": "9233",
    "name": "PRIMARY HEALTH CARE CENTER, IKOT IKO",
    "registration_area_id": "495",
    "precise_location": null,
    "abbreviation": "018",
    "units": "018",
    "delimitation": "03/09/01/018",
    "remark": "NEW PU",
    "ward_id": "495",
    "ward_name": "IBESIKPO 1",
    "local_government_id": "47",
    "local_government_name": "IBESIKPO ASUTAN",
    "state_id": "3",
    "state_name": "AKWA IBOM",
    "location": null
  },
  {
    "id": "9234",
    "name": "ADULT EDUCATION CENTRE, AFAHA ATAI.",
    "registration_area_id": "495",
    "precise_location": null,
    "abbreviation": "019",
    "units": "019",
    "delimitation": "03/09/01/019",
    "remark": "NEW PU",
    "ward_id": "495",
    "ward_name": "IBESIKPO 1",
    "local_government_id": "47",
    "local_government_name": "IBESIKPO ASUTAN",
    "state_id": "3",
    "state_name": "AKWA IBOM",
    "location": {
      "latitude": 4.9719796,
      "longitude": 7.930057299999999,
      "viewport": {
        "northeast": {
          "lat": 4.973214129892722,
          "lng": 7.931245479892722
        },
        "southwest": {
          "lat": 4.970514470107278,
          "lng": 7.928545820107278
        }
      },
      "formatted_address": "XWCJ+Q2V, 521110, Afaha Ibesikpo, Nigeria",
      "google_map_url": "https://maps.google.com?q=4.9719796,7.930057299999999",
      "google_place_id": "ChIJYTQ32XT5ZxARE3KqCOD3VyA"
    }
  },
  {
    "id": "9235",
    "name": "PRIMARY HEALTH CENTRE AFAHA ATAI",
    "registration_area_id": "495",
    "precise_location": null,
    "abbreviation": "020",
    "units": "020",
    "delimitation": "03/09/01/020",
    "remark": "NEW PU",
    "ward_id": "495",
    "ward_name": "IBESIKPO 1",
    "local_government_id": "47",
    "local_government_name": "IBESIKPO ASUTAN",
    "state_id": "3",
    "state_name": "AKWA IBOM",
    "location": null
  },
  {
    "id": "9236",
    "name": "AFAHA ETOK CIVIC CENTER.",
    "registration_area_id": "495",
    "precise_location": null,
    "abbreviation": "021",
    "units": "021",
    "delimitation": "03/09/01/021",
    "remark": "NEW PU",
    "ward_id": "495",
    "ward_name": "IBESIKPO 1",
    "local_government_id": "47",
    "local_government_name": "IBESIKPO ASUTAN",
    "state_id": "3",
    "state_name": "AKWA IBOM",
    "location": {
      "latitude": 4.988770499999999,
      "longitude": 7.935943999999999,
      "viewport": {
        "northeast": {
          "lat": 4.990204729892722,
          "lng": 7.93728162989272
        },
        "southwest": {
          "lat": 4.987505070107278,
          "lng": 7.934581970107276
        }
      },
      "formatted_address": "XWQP+F9V, 521110, Uyo, Nigeria",
      "google_map_url": "https://maps.google.com?q=4.988770499999999,7.935943999999999",
      "google_place_id": "ChIJUyt375f5ZxARmK-eMBCuH_0"
    }
  },
  {
    "id": "9237",
    "name": "OPEN SPACE AFAHA ETOK JUNCTION BY RING ROAD 3.",
    "registration_area_id": "495",
    "precise_location": null,
    "abbreviation": "022",
    "units": "022",
    "delimitation": "03/09/01/022",
    "remark": "NEW PU",
    "ward_id": "495",
    "ward_name": "IBESIKPO 1",
    "local_government_id": "47",
    "local_government_name": "IBESIKPO ASUTAN",
    "state_id": "3",
    "state_name": "AKWA IBOM",
    "location": {
      "latitude": 4.990201,
      "longitude": 7.929938099999999,
      "viewport": {
        "northeast": {
          "lat": 5.004635450000049,
          "lng": 7.993911099999999
        },
        "southwest": {
          "lat": 4.983738849999949,
          "lng": 7.8666651
        }
      },
      "formatted_address": "Ring Rd 3, Nigeria",
      "google_map_url": "https://maps.google.com?q=4.990201,7.929938099999999",
      "google_place_id": "EhJSaW5nIFJkIDMsIE5pZ2VyaWEiLiosChQKEgntVdACi_hnEBHyQVocdUECCxIUChIJf_-vXFH4ZxARJHIwakiJuTM"
    }
  },
  {
    "id": "9238",
    "name": "VILLAGE HALL NUNG OKU",
    "registration_area_id": "495",
    "precise_location": null,
    "abbreviation": "023",
    "units": "023",
    "delimitation": "03/09/01/023",
    "remark": "NEW PU",
    "ward_id": "495",
    "ward_name": "IBESIKPO 1",
    "local_government_id": "47",
    "local_government_name": "IBESIKPO ASUTAN",
    "state_id": "3",
    "state_name": "AKWA IBOM",
    "location": null
  },
  {
    "id": "9239",
    "name": "UYO CAPITAL CITY MOTOR PARK NUNG OKU",
    "registration_area_id": "495",
    "precise_location": null,
    "abbreviation": "024",
    "units": "024",
    "delimitation": "03/09/01/024",
    "remark": "NEW PU",
    "ward_id": "495",
    "ward_name": "IBESIKPO 1",
    "local_government_id": "47",
    "local_government_name": "IBESIKPO ASUTAN",
    "state_id": "3",
    "state_name": "AKWA IBOM",
    "location": null
  },
  {
    "id": "9240",
    "name": "CIVIC CENTRE NUNG OKU IBESIKPO",
    "registration_area_id": "495",
    "precise_location": null,
    "abbreviation": "025",
    "units": "025",
    "delimitation": "03/09/01/025",
    "remark": "NEW PU",
    "ward_id": "495",
    "ward_name": "IBESIKPO 1",
    "local_government_id": "47",
    "local_government_name": "IBESIKPO ASUTAN",
    "state_id": "3",
    "state_name": "AKWA IBOM",
    "location": {
      "latitude": 4.9760734,
      "longitude": 7.920379499999999,
      "viewport": {
        "northeast": {
          "lat": 4.977414429892722,
          "lng": 7.921729529892722
        },
        "southwest": {
          "lat": 4.974714770107278,
          "lng": 7.919029870107278
        }
      },
      "formatted_address": "XWGC+C5C, Rt. Hon. Aniekan Uko Avenue, Mbikpong Ikot Edim, Uyo, Nigeria",
      "google_map_url": "https://maps.google.com?q=4.9760734,7.920379499999999",
      "google_place_id": "ChIJEWo6Lx_5ZxARSDIxlDebHhM"
    }
  },
  {
    "id": "9241",
    "name": "VILLAGE SQUARE NUNG UDO AKPAN",
    "registration_area_id": "495",
    "precise_location": null,
    "abbreviation": "026",
    "units": "026",
    "delimitation": "03/09/01/026",
    "remark": "NEW PU",
    "ward_id": "495",
    "ward_name": "IBESIKPO 1",
    "local_government_id": "47",
    "local_government_name": "IBESIKPO ASUTAN",
    "state_id": "3",
    "state_name": "AKWA IBOM",
    "location": {
      "latitude": 5.0206399,
      "longitude": 7.9387279,
      "viewport": {
        "northeast": {
          "lat": 5.022041229892722,
          "lng": 7.940047729892719
        },
        "southwest": {
          "lat": 5.019341570107278,
          "lng": 7.937348070107276
        }
      },
      "formatted_address": "2WCQ+6GG, Udo Inyang Close, Ewet Housing Estate 520102, Uyo, Nigeria",
      "google_map_url": "https://maps.google.com?q=5.0206399,7.9387279",
      "google_place_id": "ChIJZSGTYBVXXRARAbcCUdh3t0M"
    }
  },
  {
    "id": "9242",
    "name": "PRI. SCH. AFAHA IKOT OSSOM II",
    "registration_area_id": "495",
    "precise_location": null,
    "abbreviation": "027",
    "units": "027",
    "delimitation": "03/09/01/027",
    "remark": "NEW PU",
    "ward_id": "495",
    "ward_name": "IBESIKPO 1",
    "local_government_id": "47",
    "local_government_name": "IBESIKPO ASUTAN",
    "state_id": "3",
    "state_name": "AKWA IBOM",
    "location": null
  },
  {
    "id": "9243",
    "name": "ST, CHARLES PRI. SCH. IKOT AKPAN EDU",
    "registration_area_id": "495",
    "precise_location": null,
    "abbreviation": "028",
    "units": "028",
    "delimitation": "03/09/01/028",
    "remark": "NEW PU",
    "ward_id": "495",
    "ward_name": "IBESIKPO 1",
    "local_government_id": "47",
    "local_government_name": "IBESIKPO ASUTAN",
    "state_id": "3",
    "state_name": "AKWA IBOM",
    "location": null
  },
  {
    "id": "9244",
    "name": "NUNG ESSIENOBOM COMMUNITY  HALL",
    "registration_area_id": "495",
    "precise_location": null,
    "abbreviation": "029",
    "units": "029",
    "delimitation": "03/09/01/029",
    "remark": "NEW PU",
    "ward_id": "495",
    "ward_name": "IBESIKPO 1",
    "local_government_id": "47",
    "local_government_name": "IBESIKPO ASUTAN",
    "state_id": "3",
    "state_name": "AKWA IBOM",
    "location": null
  },
  {
    "id": "9245",
    "name": "OPEN SPACE MBIKPONG IKOT EDIM COMMUNITY ESTATE BY ANANA STREET",
    "registration_area_id": "495",
    "precise_location": null,
    "abbreviation": "030",
    "units": "030",
    "delimitation": "03/09/01/030",
    "remark": "NEW PU",
    "ward_id": "495",
    "ward_name": "IBESIKPO 1",
    "local_government_id": "47",
    "local_government_name": "IBESIKPO ASUTAN",
    "state_id": "3",
    "state_name": "AKWA IBOM",
    "location": {
      "latitude": 4.9803523,
      "longitude": 7.9117133,
      "viewport": {
        "northeast": {
          "lat": 4.981715979892722,
          "lng": 7.913100429892723
        },
        "southwest": {
          "lat": 4.979016320107278,
          "lng": 7.910400770107279
        }
      },
      "formatted_address": "1 Ikot Iko Rd, Nigeria",
      "google_map_url": "https://maps.google.com?q=4.9803523,7.9117133",
      "google_place_id": "ChIJIy8uru_5ZxARJAz12Pno4Zs"
    }
  },
  {
    "id": "9246",
    "name": "TOWN HALL IKOT AKPANABIA",
    "registration_area_id": "495",
    "precise_location": null,
    "abbreviation": "031",
    "units": "031",
    "delimitation": "03/09/01/031",
    "remark": "NEW PU",
    "ward_id": "495",
    "ward_name": "IBESIKPO 1",
    "local_government_id": "47",
    "local_government_name": "IBESIKPO ASUTAN",
    "state_id": "3",
    "state_name": "AKWA IBOM",
    "location": null
  },
  {
    "id": "9247",
    "name": "MARKET SQUARE IKOT AKPANABIA",
    "registration_area_id": "495",
    "precise_location": null,
    "abbreviation": "032",
    "units": "032",
    "delimitation": "03/09/01/032",
    "remark": "NEW PU",
    "ward_id": "495",
    "ward_name": "IBESIKPO 1",
    "local_government_id": "47",
    "local_government_name": "IBESIKPO ASUTAN",
    "state_id": "3",
    "state_name": "AKWA IBOM",
    "location": {
      "latitude": 4.9983713,
      "longitude": 7.940507500000001,
      "viewport": {
        "northeast": {
          "lat": 4.999970829892722,
          "lng": 7.941756979892722
        },
        "southwest": {
          "lat": 4.997271170107278,
          "lng": 7.939057320107278
        }
      },
      "formatted_address": "Itiam Etoi Rd, 520102, Uyo, Nigeria",
      "google_map_url": "https://maps.google.com?q=4.9983713,7.940507500000001",
      "google_place_id": "ChIJwUodwRn5ZxARWny67OLCEMY"
    }
  },
  {
    "id": "9248",
    "name": "APICO SHOOPING COMPLEX AKWA  IMA ESTATE",
    "registration_area_id": "495",
    "precise_location": null,
    "abbreviation": "033",
    "units": "033",
    "delimitation": "03/09/01/033",
    "remark": "NEW PU",
    "ward_id": "495",
    "ward_name": "IBESIKPO 1",
    "local_government_id": "47",
    "local_government_name": "IBESIKPO ASUTAN",
    "state_id": "3",
    "state_name": "AKWA IBOM",
    "location": {
      "latitude": 4.998749699999999,
      "longitude": 7.904004299999999,
      "viewport": {
        "northeast": {
          "lat": 5.000080229892721,
          "lng": 7.905353979892721
        },
        "southwest": {
          "lat": 4.997380570107278,
          "lng": 7.902654320107277
        }
      },
      "formatted_address": "plot 61 Akwaima Estate Rd 1, 521110, Uyo, Nigeria",
      "google_map_url": "https://maps.google.com?q=4.998749699999999,7.904004299999999",
      "google_place_id": "ChIJuat6WWr5ZxAR65PjVuZev_g"
    }
  },
  {
    "id": "9249",
    "name": "NEW MARKET AFAHA IKOT OBIO NKAN",
    "registration_area_id": "495",
    "precise_location": null,
    "abbreviation": "034",
    "units": "034",
    "delimitation": "03/09/01/034",
    "remark": "NEW PU",
    "ward_id": "495",
    "ward_name": "IBESIKPO 1",
    "local_government_id": "47",
    "local_government_name": "IBESIKPO ASUTAN",
    "state_id": "3",
    "state_name": "AKWA IBOM",
    "location": {
      "latitude": 4.990284099999999,
      "longitude": 7.9455775,
      "viewport": {
        "northeast": {
          "lat": 4.991450679892722,
          "lng": 7.946946329892723
        },
        "southwest": {
          "lat": 4.988751020107278,
          "lng": 7.944246670107279
        }
      },
      "formatted_address": "XWRW+468, Ikot Obio Nkan, Ibesikpo Asutan, Ring Rd 3, Afaha Ibesikpo, Nigeria",
      "google_map_url": "https://maps.google.com?q=4.990284099999999,7.9455775",
      "google_place_id": "ChIJ1ZfKgj34ZxARYewt0Iq0R7Y"
    }
  },
  {
    "id": "9250",
    "name": "VILLAGE HALL AFAHA IKOT OBIO NKAN",
    "registration_area_id": "495",
    "precise_location": null,
    "abbreviation": "035",
    "units": "035",
    "delimitation": "03/09/01/035",
    "remark": "NEW PU",
    "ward_id": "495",
    "ward_name": "IBESIKPO 1",
    "local_government_id": "47",
    "local_government_name": "IBESIKPO ASUTAN",
    "state_id": "3",
    "state_name": "AKWA IBOM",
    "location": {
      "latitude": 4.990284099999999,
      "longitude": 7.9455775,
      "viewport": {
        "northeast": {
          "lat": 4.991450679892722,
          "lng": 7.946946329892723
        },
        "southwest": {
          "lat": 4.988751020107278,
          "lng": 7.944246670107279
        }
      },
      "formatted_address": "XWRW+468, Ikot Obio Nkan, Ibesikpo Asutan, Ring Rd 3, Afaha Ibesikpo, Nigeria",
      "google_map_url": "https://maps.google.com?q=4.990284099999999,7.9455775",
      "google_place_id": "ChIJ1ZfKgj34ZxARYewt0Iq0R7Y"
    }
  },
  {
    "id": "9251",
    "name": "OPEN SPACE BY 100 UNITS HOUSING ESTATE",
    "registration_area_id": "495",
    "precise_location": null,
    "abbreviation": "036",
    "units": "036",
    "delimitation": "03/09/01/036",
    "remark": "NEW PU",
    "ward_id": "495",
    "ward_name": "IBESIKPO 1",
    "local_government_id": "47",
    "local_government_name": "IBESIKPO ASUTAN",
    "state_id": "3",
    "state_name": "AKWA IBOM",
    "location": {
      "latitude": 5.0024231,
      "longitude": 7.932738499999999,
      "viewport": {
        "northeast": {
          "lat": 5.003745129892722,
          "lng": 7.934073829892721
        },
        "southwest": {
          "lat": 5.001045470107278,
          "lng": 7.931374170107278
        }
      },
      "formatted_address": "Udo Udoma Ave, 520102, Uyo, Nigeria",
      "google_map_url": "https://maps.google.com?q=5.0024231,7.932738499999999",
      "google_place_id": "ChIJE4uoQW34ZxAR-59nhwopFgM"
    }
  }
]