[
  {
    "id": "353053",
    "name": "GBENKU PRIMARY SCHOOL",
    "registration_area_id": "18080",
    "precise_location": null,
    "abbreviation": "001",
    "units": "001",
    "delimitation": "30/05/05/001",
    "remark": "EXISTING PU",
    "ward_id": "18080",
    "ward_name": "OLODO/KUMAPAYI I",
    "local_government_id": "632",
    "local_government_name": "EGBEDA",
    "state_id": "30",
    "state_name": "OYO",
    "location": {
      "latitude": 7.459748299999999,
      "longitude": 4.002434399999999,
      "viewport": {
        "northeast": {
          "lat": 7.461035129892722,
          "lng": 4.003861429892721
        },
        "southwest": {
          "lat": 7.458335470107278,
          "lng": 4.001161770107277
        }
      },
      "formatted_address": "Odan Primary School, 200106, Ibadan, Nigeria",
      "google_map_url": "https://maps.google.com?q=7.459748299999999,4.002434399999999",
      "google_place_id": "ChIJYfepkHbrORAR-ElE2vucJJI"
    }
  },
  {
    "id": "353054",
    "name": "I.D.C. SCHOOL, OLUJINLE I",
    "registration_area_id": "18080",
    "precise_location": null,
    "abbreviation": "002",
    "units": "002",
    "delimitation": "30/05/05/002",
    "remark": "EXISTING PU",
    "ward_id": "18080",
    "ward_name": "OLODO/KUMAPAYI I",
    "local_government_id": "632",
    "local_government_name": "EGBEDA",
    "state_id": "30",
    "state_name": "OYO",
    "location": {
      "latitude": 7.39074,
      "longitude": 3.955941,
      "viewport": {
        "northeast": {
          "lat": 7.392241029892723,
          "lng": 3.957287529892722
        },
        "southwest": {
          "lat": 7.389541370107279,
          "lng": 3.954587870107278
        }
      },
      "formatted_address": "6FV59XR4+79W, 11 Akingbade St, Egbeda 200113, Ibadan, Nigeria",
      "google_map_url": "https://maps.google.com?q=7.39074,3.955941",
      "google_place_id": "ChIJsWGBUi-TORARHYs5w10mQ0E"
    }
  },
  {
    "id": "353055",
    "name": "I.D.C. SCHOOL, OLUJINLE II",
    "registration_area_id": "18080",
    "precise_location": null,
    "abbreviation": "003",
    "units": "003",
    "delimitation": "30/05/05/003",
    "remark": "EXISTING PU",
    "ward_id": "18080",
    "ward_name": "OLODO/KUMAPAYI I",
    "local_government_id": "632",
    "local_government_name": "EGBEDA",
    "state_id": "30",
    "state_name": "OYO",
    "location": null
  },
  {
    "id": "353056",
    "name": "KUMAPAYI VILLAGE",
    "registration_area_id": "18080",
    "precise_location": null,
    "abbreviation": "004",
    "units": "004",
    "delimitation": "30/05/05/004",
    "remark": "EXISTING PU",
    "ward_id": "18080",
    "ward_name": "OLODO/KUMAPAYI I",
    "local_government_id": "632",
    "local_government_name": "EGBEDA",
    "state_id": "30",
    "state_name": "OYO",
    "location": {
      "latitude": 7.4470821,
      "longitude": 4.013361,
      "viewport": {
        "northeast": {
          "lat": 7.497381400000001,
          "lng": 4.0324708
        },
        "southwest": {
          "lat": 7.405827700000001,
          "lng": 3.984373299999999
        }
      },
      "formatted_address": "Olodo/Kumapayi I, Nigeria",
      "google_map_url": "https://maps.google.com?q=7.4470821,4.013361",
      "google_place_id": "ChIJV0OgsxLrORARn79DZhB16mw"
    }
  },
  {
    "id": "353057",
    "name": "ODAN PRIMARY SCHOOL",
    "registration_area_id": "18080",
    "precise_location": null,
    "abbreviation": "005",
    "units": "005",
    "delimitation": "30/05/05/005",
    "remark": "EXISTING PU",
    "ward_id": "18080",
    "ward_name": "OLODO/KUMAPAYI I",
    "local_government_id": "632",
    "local_government_name": "EGBEDA",
    "state_id": "30",
    "state_name": "OYO",
    "location": {
      "latitude": 7.459748299999999,
      "longitude": 4.002434399999999,
      "viewport": {
        "northeast": {
          "lat": 7.461035129892722,
          "lng": 4.003861429892721
        },
        "southwest": {
          "lat": 7.458335470107278,
          "lng": 4.001161770107277
        }
      },
      "formatted_address": "Odan Primary School, 200106, Ibadan, Nigeria",
      "google_map_url": "https://maps.google.com?q=7.459748299999999,4.002434399999999",
      "google_place_id": "ChIJYfepkHbrORAR-ElE2vucJJI"
    }
  },
  {
    "id": "353058",
    "name": "OKI TOWN I",
    "registration_area_id": "18080",
    "precise_location": null,
    "abbreviation": "006",
    "units": "006",
    "delimitation": "30/05/05/006",
    "remark": "EXISTING PU",
    "ward_id": "18080",
    "ward_name": "OLODO/KUMAPAYI I",
    "local_government_id": "632",
    "local_government_name": "EGBEDA",
    "state_id": "30",
    "state_name": "OYO",
    "location": {
      "latitude": 7.4470821,
      "longitude": 4.013361,
      "viewport": {
        "northeast": {
          "lat": 7.497381400000001,
          "lng": 4.0324708
        },
        "southwest": {
          "lat": 7.405827700000001,
          "lng": 3.984373299999999
        }
      },
      "formatted_address": "Olodo/Kumapayi I, Nigeria",
      "google_map_url": "https://maps.google.com?q=7.4470821,4.013361",
      "google_place_id": "ChIJV0OgsxLrORARn79DZhB16mw"
    }
  },
  {
    "id": "353059",
    "name": "OKI TOWN II",
    "registration_area_id": "18080",
    "precise_location": null,
    "abbreviation": "007",
    "units": "007",
    "delimitation": "30/05/05/007",
    "remark": "EXISTING PU",
    "ward_id": "18080",
    "ward_name": "OLODO/KUMAPAYI I",
    "local_government_id": "632",
    "local_government_name": "EGBEDA",
    "state_id": "30",
    "state_name": "OYO",
    "location": {
      "latitude": 7.4470821,
      "longitude": 4.013361,
      "viewport": {
        "northeast": {
          "lat": 7.497381400000001,
          "lng": 4.0324708
        },
        "southwest": {
          "lat": 7.405827700000001,
          "lng": 3.984373299999999
        }
      },
      "formatted_address": "Olodo/Kumapayi I, Nigeria",
      "google_map_url": "https://maps.google.com?q=7.4470821,4.013361",
      "google_place_id": "ChIJV0OgsxLrORARn79DZhB16mw"
    }
  },
  {
    "id": "353060",
    "name": "OKI TOWN III",
    "registration_area_id": "18080",
    "precise_location": null,
    "abbreviation": "008",
    "units": "008",
    "delimitation": "30/05/05/008",
    "remark": "EXISTING PU",
    "ward_id": "18080",
    "ward_name": "OLODO/KUMAPAYI I",
    "local_government_id": "632",
    "local_government_name": "EGBEDA",
    "state_id": "30",
    "state_name": "OYO",
    "location": {
      "latitude": 7.4470821,
      "longitude": 4.013361,
      "viewport": {
        "northeast": {
          "lat": 7.497381400000001,
          "lng": 4.0324708
        },
        "southwest": {
          "lat": 7.405827700000001,
          "lng": 3.984373299999999
        }
      },
      "formatted_address": "Olodo/Kumapayi I, Nigeria",
      "google_map_url": "https://maps.google.com?q=7.4470821,4.013361",
      "google_place_id": "ChIJV0OgsxLrORARn79DZhB16mw"
    }
  },
  {
    "id": "353061",
    "name": "OLODO SECONDARY SCHOOL",
    "registration_area_id": "18080",
    "precise_location": null,
    "abbreviation": "009",
    "units": "009",
    "delimitation": "30/05/05/009",
    "remark": "EXISTING PU",
    "ward_id": "18080",
    "ward_name": "OLODO/KUMAPAYI I",
    "local_government_id": "632",
    "local_government_name": "EGBEDA",
    "state_id": "30",
    "state_name": "OYO",
    "location": {
      "latitude": 7.433582400000001,
      "longitude": 3.9953374,
      "viewport": {
        "northeast": {
          "lat": 7.434870129892721,
          "lng": 3.996674529892722
        },
        "southwest": {
          "lat": 7.432170470107277,
          "lng": 3.993974870107278
        }
      },
      "formatted_address": "Olodo Secondary School, 200132, Ibadan, Nigeria",
      "google_map_url": "https://maps.google.com?q=7.433582400000001,3.9953374",
      "google_place_id": "ChIJQXdMVFrrORARLOciPUcZ61Y"
    }
  },
  {
    "id": "353062",
    "name": "OLUKUNLE PRIMARY SCHOOL",
    "registration_area_id": "18080",
    "precise_location": null,
    "abbreviation": "010",
    "units": "010",
    "delimitation": "30/05/05/010",
    "remark": "EXISTING PU",
    "ward_id": "18080",
    "ward_name": "OLODO/KUMAPAYI I",
    "local_government_id": "632",
    "local_government_name": "EGBEDA",
    "state_id": "30",
    "state_name": "OYO",
    "location": {
      "latitude": 7.418178299999999,
      "longitude": 4.0018948,
      "viewport": {
        "northeast": {
          "lat": 7.419623029892722,
          "lng": 4.003169779892722
        },
        "southwest": {
          "lat": 7.416923370107278,
          "lng": 4.000470120107278
        }
      },
      "formatted_address": "Aayegbami Rd, 200132, Ibadan, Nigeria",
      "google_map_url": "https://maps.google.com?q=7.418178299999999,4.0018948",
      "google_place_id": "ChIJGZkf56WVORARi79i2FAaERA"
    }
  },
  {
    "id": "353063",
    "name": "ST. PETER'S SCHOOL, OGANSO I",
    "registration_area_id": "18080",
    "precise_location": null,
    "abbreviation": "011",
    "units": "011",
    "delimitation": "30/05/05/011",
    "remark": "EXISTING PU",
    "ward_id": "18080",
    "ward_name": "OLODO/KUMAPAYI I",
    "local_government_id": "632",
    "local_government_name": "EGBEDA",
    "state_id": "30",
    "state_name": "OYO",
    "location": {
      "latitude": 43.3781404,
      "longitude": -80.3109249,
      "viewport": {
        "northeast": {
          "lat": 43.37948457989273,
          "lng": -80.30956917010728
        },
        "southwest": {
          "lat": 43.37678492010728,
          "lng": -80.31226882989272
        }
      },
      "formatted_address": "92 Avenue Rd, Cambridge, ON N1R 1C1, Canada",
      "google_map_url": "https://maps.google.com?q=43.3781404,-80.3109249",
      "google_place_id": "ChIJS4vYi9h3LIgRfd33Gq3_mkw"
    }
  },
  {
    "id": "353064",
    "name": "ST. PETER'S SCHOOL, OGANSO II",
    "registration_area_id": "18080",
    "precise_location": null,
    "abbreviation": "012",
    "units": "012",
    "delimitation": "30/05/05/012",
    "remark": "EXISTING PU",
    "ward_id": "18080",
    "ward_name": "OLODO/KUMAPAYI I",
    "local_government_id": "632",
    "local_government_name": "EGBEDA",
    "state_id": "30",
    "state_name": "OYO",
    "location": null
  },
  {
    "id": "353065",
    "name": "ST. PETER'S SCHOOL, OJUOLAPE",
    "registration_area_id": "18080",
    "precise_location": null,
    "abbreviation": "013",
    "units": "013",
    "delimitation": "30/05/05/013",
    "remark": "EXISTING PU",
    "ward_id": "18080",
    "ward_name": "OLODO/KUMAPAYI I",
    "local_government_id": "632",
    "local_government_name": "EGBEDA",
    "state_id": "30",
    "state_name": "OYO",
    "location": {
      "latitude": 7.447289,
      "longitude": 4.030651,
      "viewport": {
        "northeast": {
          "lat": 7.448609929892721,
          "lng": 4.032043379892722
        },
        "southwest": {
          "lat": 7.445910270107277,
          "lng": 4.029343720107278
        }
      },
      "formatted_address": "6FV6C2WJ+W76 5 Olodo egbeda, Ibadan, Nigeria",
      "google_map_url": "https://maps.google.com?q=7.447289,4.030651",
      "google_place_id": "ChIJfXJOVcvrORARo6jPptuqCzw"
    }
  },
  {
    "id": "353066",
    "name": "WOFUN VILLAGE I",
    "registration_area_id": "18080",
    "precise_location": null,
    "abbreviation": "014",
    "units": "014",
    "delimitation": "30/05/05/014",
    "remark": "EXISTING PU",
    "ward_id": "18080",
    "ward_name": "OLODO/KUMAPAYI I",
    "local_government_id": "632",
    "local_government_name": "EGBEDA",
    "state_id": "30",
    "state_name": "OYO",
    "location": {
      "latitude": 7.4286042,
      "longitude": 4.00188,
      "viewport": {
        "northeast": {
          "lat": 7.429963179892722,
          "lng": 4.003225229892723
        },
        "southwest": {
          "lat": 7.427263520107278,
          "lng": 4.000525570107279
        }
      },
      "formatted_address": "C2H2+CQR, Olodo, Ibadan, Nigeria",
      "google_map_url": "https://maps.google.com?q=7.4286042,4.00188",
      "google_place_id": "ChIJgS0lMHvrORARsw_iIPmiySc"
    }
  },
  {
    "id": "353067",
    "name": "WOFUN VILLAGE II",
    "registration_area_id": "18080",
    "precise_location": null,
    "abbreviation": "015",
    "units": "015",
    "delimitation": "30/05/05/015",
    "remark": "EXISTING PU",
    "ward_id": "18080",
    "ward_name": "OLODO/KUMAPAYI I",
    "local_government_id": "632",
    "local_government_name": "EGBEDA",
    "state_id": "30",
    "state_name": "OYO",
    "location": {
      "latitude": 7.4286042,
      "longitude": 4.00188,
      "viewport": {
        "northeast": {
          "lat": 7.429963179892722,
          "lng": 4.003225229892723
        },
        "southwest": {
          "lat": 7.427263520107278,
          "lng": 4.000525570107279
        }
      },
      "formatted_address": "C2H2+CQR, Olodo, Ibadan, Nigeria",
      "google_map_url": "https://maps.google.com?q=7.4286042,4.00188",
      "google_place_id": "ChIJgS0lMHvrORARsw_iIPmiySc"
    }
  },
  {
    "id": "353068",
    "name": "OPEN SPACE BESIDE AROK BLOCK INDUSTRY ARUBIEWE",
    "registration_area_id": "18080",
    "precise_location": null,
    "abbreviation": "016",
    "units": "016",
    "delimitation": "30/05/05/016",
    "remark": "NEW PU",
    "ward_id": "18080",
    "ward_name": "OLODO/KUMAPAYI I",
    "local_government_id": "632",
    "local_government_name": "EGBEDA",
    "state_id": "30",
    "state_name": "OYO",
    "location": {
      "latitude": 7.4286042,
      "longitude": 4.00188,
      "viewport": {
        "northeast": {
          "lat": 7.429963179892722,
          "lng": 4.003225229892723
        },
        "southwest": {
          "lat": 7.427263520107278,
          "lng": 4.000525570107279
        }
      },
      "formatted_address": "C2H2+CQR, Olodo, Ibadan, Nigeria",
      "google_map_url": "https://maps.google.com?q=7.4286042,4.00188",
      "google_place_id": "ChIJgS0lMHvrORARsw_iIPmiySc"
    }
  },
  {
    "id": "353069",
    "name": "OPEN SPACE BESIDE IFESOWAPO PRAYING GROUND ALAGBEDE",
    "registration_area_id": "18080",
    "precise_location": null,
    "abbreviation": "017",
    "units": "017",
    "delimitation": "30/05/05/017",
    "remark": "NEW PU",
    "ward_id": "18080",
    "ward_name": "OLODO/KUMAPAYI I",
    "local_government_id": "632",
    "local_government_name": "EGBEDA",
    "state_id": "30",
    "state_name": "OYO",
    "location": {
      "latitude": 7.416699200000001,
      "longitude": 4.0095732,
      "viewport": {
        "northeast": {
          "lat": 7.418056329892722,
          "lng": 4.010900829892722
        },
        "southwest": {
          "lat": 7.415356670107278,
          "lng": 4.008201170107277
        }
      },
      "formatted_address": "Olodo Road, 200111, Ibadan, Nigeria",
      "google_map_url": "https://maps.google.com?q=7.416699200000001,4.0095732",
      "google_place_id": "ChIJVzSYK0DrORARnaxuBW6obSo"
    }
  },
  {
    "id": "353070",
    "name": "OPEN SPACE BESIDE HIS MERCY BLOCK INDUSTRY OGUNDIPE",
    "registration_area_id": "18080",
    "precise_location": null,
    "abbreviation": "018",
    "units": "018",
    "delimitation": "30/05/05/018",
    "remark": "NEW PU",
    "ward_id": "18080",
    "ward_name": "OLODO/KUMAPAYI I",
    "local_government_id": "632",
    "local_government_name": "EGBEDA",
    "state_id": "30",
    "state_name": "OYO",
    "location": {
      "latitude": 7.416699200000001,
      "longitude": 4.0095732,
      "viewport": {
        "northeast": {
          "lat": 7.418056329892722,
          "lng": 4.010900829892722
        },
        "southwest": {
          "lat": 7.415356670107278,
          "lng": 4.008201170107277
        }
      },
      "formatted_address": "Olodo Road, 200111, Ibadan, Nigeria",
      "google_map_url": "https://maps.google.com?q=7.416699200000001,4.0095732",
      "google_place_id": "ChIJVzSYK0DrORARnaxuBW6obSo"
    }
  },
  {
    "id": "353071",
    "name": "OPEN SPACE OPP. ISLAMIC COLLEGE OF NIGERIA KUMAPAYI",
    "registration_area_id": "18080",
    "precise_location": null,
    "abbreviation": "019",
    "units": "019",
    "delimitation": "30/05/05/019",
    "remark": "NEW PU",
    "ward_id": "18080",
    "ward_name": "OLODO/KUMAPAYI I",
    "local_government_id": "632",
    "local_government_name": "EGBEDA",
    "state_id": "30",
    "state_name": "OYO",
    "location": {
      "latitude": 7.4072952,
      "longitude": 4.020027199999999,
      "viewport": {
        "northeast": {
          "lat": 7.408807629892721,
          "lng": 4.021355529892722
        },
        "southwest": {
          "lat": 7.406107970107278,
          "lng": 4.018655870107279
        }
      },
      "formatted_address": "C24C+W26, Oke-Omi Ogundipe, Olodo Road, Egbeda, Ibadan, Nigeria",
      "google_map_url": "https://maps.google.com?q=7.4072952,4.020027199999999",
      "google_place_id": "ChIJjYCr16qVORAR_Jhwl_mbRi0"
    }
  },
  {
    "id": "353072",
    "name": "ST BRENDAN PRIMARY SCHOOL",
    "registration_area_id": "18080",
    "precise_location": null,
    "abbreviation": "020",
    "units": "020",
    "delimitation": "30/05/05/020",
    "remark": "NEW PU",
    "ward_id": "18080",
    "ward_name": "OLODO/KUMAPAYI I",
    "local_government_id": "632",
    "local_government_name": "EGBEDA",
    "state_id": "30",
    "state_name": "OYO",
    "location": {
      "latitude": -0.3269778,
      "longitude": 35.7414268,
      "viewport": {
        "northeast": {
          "lat": -0.3256251701072778,
          "lng": 35.74278587989272
        },
        "southwest": {
          "lat": -0.3283248298927223,
          "lng": 35.74008622010728
        }
      },
      "formatted_address": "MPFR+5HM, Kenya",
      "google_map_url": "https://maps.google.com?q=-0.3269778,35.7414268",
      "google_place_id": "ChIJu6MxWM0kKhgREFpdVNyDlZI"
    }
  },
  {
    "id": "353073",
    "name": "IDC PRIMARY SCHOOL JENRIYIN",
    "registration_area_id": "18080",
    "precise_location": null,
    "abbreviation": "021",
    "units": "021",
    "delimitation": "30/05/05/021",
    "remark": "NEW PU",
    "ward_id": "18080",
    "ward_name": "OLODO/KUMAPAYI I",
    "local_government_id": "632",
    "local_government_name": "EGBEDA",
    "state_id": "30",
    "state_name": "OYO",
    "location": {
      "latitude": 7.430272,
      "longitude": 3.984035,
      "viewport": {
        "northeast": {
          "lat": 7.431718329892723,
          "lng": 3.985549179892722
        },
        "southwest": {
          "lat": 7.429018670107279,
          "lng": 3.982849520107278
        }
      },
      "formatted_address": "6FV5CXJM+4J3 Ward 5 Oluwa, Ibadan, Nigeria",
      "google_map_url": "https://maps.google.com?q=7.430272,3.984035",
      "google_place_id": "ChIJhyzsIzLtORARX0AoJtXGFB0"
    }
  },
  {
    "id": "353074",
    "name": "OPEN SPACE ABA ADAA OLUJOLA STREET",
    "registration_area_id": "18080",
    "precise_location": null,
    "abbreviation": "022",
    "units": "022",
    "delimitation": "30/05/05/022",
    "remark": "NEW PU",
    "ward_id": "18080",
    "ward_name": "OLODO/KUMAPAYI I",
    "local_government_id": "632",
    "local_government_name": "EGBEDA",
    "state_id": "30",
    "state_name": "OYO",
    "location": {
      "latitude": 7.4286042,
      "longitude": 4.00188,
      "viewport": {
        "northeast": {
          "lat": 7.429963179892722,
          "lng": 4.003225229892723
        },
        "southwest": {
          "lat": 7.427263520107278,
          "lng": 4.000525570107279
        }
      },
      "formatted_address": "C2H2+CQR, Olodo, Ibadan, Nigeria",
      "google_map_url": "https://maps.google.com?q=7.4286042,4.00188",
      "google_place_id": "ChIJgS0lMHvrORARsw_iIPmiySc"
    }
  },
  {
    "id": "353075",
    "name": "OPEN SPACE AGBEDE STREET, OKI",
    "registration_area_id": "18080",
    "precise_location": null,
    "abbreviation": "023",
    "units": "023",
    "delimitation": "30/05/05/023",
    "remark": "NEW PU",
    "ward_id": "18080",
    "ward_name": "OLODO/KUMAPAYI I",
    "local_government_id": "632",
    "local_government_name": "EGBEDA",
    "state_id": "30",
    "state_name": "OYO",
    "location": {
      "latitude": 7.4286042,
      "longitude": 4.00188,
      "viewport": {
        "northeast": {
          "lat": 7.429963179892722,
          "lng": 4.003225229892723
        },
        "southwest": {
          "lat": 7.427263520107278,
          "lng": 4.000525570107279
        }
      },
      "formatted_address": "C2H2+CQR, Olodo, Ibadan, Nigeria",
      "google_map_url": "https://maps.google.com?q=7.4286042,4.00188",
      "google_place_id": "ChIJgS0lMHvrORARsw_iIPmiySc"
    }
  },
  {
    "id": "353076",
    "name": "OPEN SPACE OROGBANGBAN, OKI",
    "registration_area_id": "18080",
    "precise_location": null,
    "abbreviation": "024",
    "units": "024",
    "delimitation": "30/05/05/024",
    "remark": "NEW PU",
    "ward_id": "18080",
    "ward_name": "OLODO/KUMAPAYI I",
    "local_government_id": "632",
    "local_government_name": "EGBEDA",
    "state_id": "30",
    "state_name": "OYO",
    "location": {
      "latitude": 7.4286042,
      "longitude": 4.00188,
      "viewport": {
        "northeast": {
          "lat": 7.429963179892722,
          "lng": 4.003225229892723
        },
        "southwest": {
          "lat": 7.427263520107278,
          "lng": 4.000525570107279
        }
      },
      "formatted_address": "C2H2+CQR, Olodo, Ibadan, Nigeria",
      "google_map_url": "https://maps.google.com?q=7.4286042,4.00188",
      "google_place_id": "ChIJgS0lMHvrORARsw_iIPmiySc"
    }
  },
  {
    "id": "353077",
    "name": "OPEN SPACE OLODO MARKET",
    "registration_area_id": "18080",
    "precise_location": null,
    "abbreviation": "025",
    "units": "025",
    "delimitation": "30/05/05/025",
    "remark": "NEW PU",
    "ward_id": "18080",
    "ward_name": "OLODO/KUMAPAYI I",
    "local_government_id": "632",
    "local_government_name": "EGBEDA",
    "state_id": "30",
    "state_name": "OYO",
    "location": {
      "latitude": 7.4286042,
      "longitude": 4.00188,
      "viewport": {
        "northeast": {
          "lat": 7.429963179892722,
          "lng": 4.003225229892723
        },
        "southwest": {
          "lat": 7.427263520107278,
          "lng": 4.000525570107279
        }
      },
      "formatted_address": "C2H2+CQR, Olodo, Ibadan, Nigeria",
      "google_map_url": "https://maps.google.com?q=7.4286042,4.00188",
      "google_place_id": "ChIJgS0lMHvrORARsw_iIPmiySc"
    }
  },
  {
    "id": "353078",
    "name": "OPEN SPACE BESIDE MTN MAST OKEOSUN OKESANYA",
    "registration_area_id": "18080",
    "precise_location": null,
    "abbreviation": "026",
    "units": "026",
    "delimitation": "30/05/05/026",
    "remark": "NEW PU",
    "ward_id": "18080",
    "ward_name": "OLODO/KUMAPAYI I",
    "local_government_id": "632",
    "local_government_name": "EGBEDA",
    "state_id": "30",
    "state_name": "OYO",
    "location": {
      "latitude": 7.4310144,
      "longitude": 4.0042749,
      "viewport": {
        "northeast": {
          "lat": 7.432350579892723,
          "lng": 4.005673429892722
        },
        "southwest": {
          "lat": 7.429650920107279,
          "lng": 4.002973770107278
        }
      },
      "formatted_address": "Olodo Ibadan Oyo State Egbeda, 200223, Ibadan, Nigeria",
      "google_map_url": "https://maps.google.com?q=7.4310144,4.0042749",
      "google_place_id": "ChIJBwRPcOvrORARiTFq2uUFErw"
    }
  },
  {
    "id": "353079",
    "name": "OPEN SPACE,BESIDE TRANSFORMER KOKO JUNCTION",
    "registration_area_id": "18080",
    "precise_location": null,
    "abbreviation": "027",
    "units": "027",
    "delimitation": "30/05/05/027",
    "remark": "NEW PU",
    "ward_id": "18080",
    "ward_name": "OLODO/KUMAPAYI I",
    "local_government_id": "632",
    "local_government_name": "EGBEDA",
    "state_id": "30",
    "state_name": "OYO",
    "location": null
  },
  {
    "id": "353080",
    "name": "OPEN SPACE AGBAJA JUNCTION",
    "registration_area_id": "18080",
    "precise_location": null,
    "abbreviation": "028",
    "units": "028",
    "delimitation": "30/05/05/028",
    "remark": "NEW PU",
    "ward_id": "18080",
    "ward_name": "OLODO/KUMAPAYI I",
    "local_government_id": "632",
    "local_government_name": "EGBEDA",
    "state_id": "30",
    "state_name": "OYO",
    "location": null
  },
  {
    "id": "353081",
    "name": "OPEN SPACE BESIDE CENTRAL MOSQUE KOKOKO",
    "registration_area_id": "18080",
    "precise_location": null,
    "abbreviation": "029",
    "units": "029",
    "delimitation": "30/05/05/029",
    "remark": "NEW PU",
    "ward_id": "18080",
    "ward_name": "OLODO/KUMAPAYI I",
    "local_government_id": "632",
    "local_government_name": "EGBEDA",
    "state_id": "30",
    "state_name": "OYO",
    "location": {
      "latitude": 7.422477900000001,
      "longitude": 4.0003769,
      "viewport": {
        "northeast": {
          "lat": 7.423832879892721,
          "lng": 4.001738779892722
        },
        "southwest": {
          "lat": 7.421133220107277,
          "lng": 3.999039120107278
        }
      },
      "formatted_address": "C2C2+X5W, Oki olodo ibadan Lagelu LG, Ibadan, Nigeria",
      "google_map_url": "https://maps.google.com?q=7.422477900000001,4.0003769",
      "google_place_id": "ChIJ5Vw1Ak3rORARwtH_hS_RDGI"
    }
  }
]