[
  {
    "id": "99910",
    "name": "ARHA KOFAR / GIDAN MAI UNGUWA",
    "registration_area_id": "5082",
    "precise_location": null,
    "abbreviation": "001",
    "units": "001",
    "delimitation": "20/24/09/001",
    "remark": "EXISTING PU",
    "ward_id": "5082",
    "ward_name": "NATSALLE",
    "local_government_id": "437",
    "local_government_name": "MAI'ADUA",
    "state_id": "20",
    "state_name": "KATSINA",
    "location": {
      "latitude": 13.1768159,
      "longitude": 8.235723799999999,
      "viewport": {
        "northeast": {
          "lat": 13.17811317989272,
          "lng": 8.236972079892722
        },
        "southwest": {
          "lat": 13.17541352010728,
          "lng": 8.234272420107278
        }
      },
      "formatted_address": "56GP+P7H, 824102, Maiadua, Nigeria",
      "google_map_url": "https://maps.google.com?q=13.1768159,8.235723799999999",
      "google_place_id": "ChIJ_2HWxUCRrxEROFuORHqiHHc"
    }
  },
  {
    "id": "99911",
    "name": "DANDODO - K/GIDAN LIMAN",
    "registration_area_id": "5082",
    "precise_location": null,
    "abbreviation": "002",
    "units": "002",
    "delimitation": "20/24/09/002",
    "remark": "EXISTING PU",
    "ward_id": "5082",
    "ward_name": "NATSALLE",
    "local_government_id": "437",
    "local_government_name": "MAI'ADUA",
    "state_id": "20",
    "state_name": "KATSINA",
    "location": {
      "latitude": 13.1818416,
      "longitude": 8.2324472,
      "viewport": {
        "northeast": {
          "lat": 13.18319557989272,
          "lng": 8.233803779892721
        },
        "southwest": {
          "lat": 13.18049592010728,
          "lng": 8.231104120107277
        }
      },
      "formatted_address": "56JJ+PXM, 824102, Maiadua, Nigeria",
      "google_map_url": "https://maps.google.com?q=13.1818416,8.2324472",
      "google_place_id": "ChIJv-Xy6UuRrxERJDGFQYGWuaM"
    }
  },
  {
    "id": "99912",
    "name": "DOMAI - PRI.SCHOOL",
    "registration_area_id": "5082",
    "precise_location": null,
    "abbreviation": "003",
    "units": "003",
    "delimitation": "20/24/09/003",
    "remark": "EXISTING PU",
    "ward_id": "5082",
    "ward_name": "NATSALLE",
    "local_government_id": "437",
    "local_government_name": "MAI'ADUA",
    "state_id": "20",
    "state_name": "KATSINA",
    "location": {
      "latitude": 13.1788113,
      "longitude": 8.227559399999999,
      "viewport": {
        "northeast": {
          "lat": 13.18010712989272,
          "lng": 8.22894442989272
        },
        "southwest": {
          "lat": 13.17740747010728,
          "lng": 8.226244770107277
        }
      },
      "formatted_address": "Center Masjid, 824102, Maiadua, Nigeria",
      "google_map_url": "https://maps.google.com?q=13.1788113,8.227559399999999",
      "google_place_id": "ChIJHQGON4GRrxER43g99GjXW1A"
    }
  },
  {
    "id": "99913",
    "name": "GOJOGOJO PRI.SCHOOL I",
    "registration_area_id": "5082",
    "precise_location": null,
    "abbreviation": "004",
    "units": "004",
    "delimitation": "20/24/09/004",
    "remark": "EXISTING PU",
    "ward_id": "5082",
    "ward_name": "NATSALLE",
    "local_government_id": "437",
    "local_government_name": "MAI'ADUA",
    "state_id": "20",
    "state_name": "KATSINA",
    "location": {
      "latitude": 13.0732032,
      "longitude": 8.3916713,
      "viewport": {
        "northeast": {
          "lat": 13.07454757989272,
          "lng": 8.39295857989272
        },
        "southwest": {
          "lat": 13.07184792010728,
          "lng": 8.390258920107277
        }
      },
      "formatted_address": "39FR+7MM, 824102, Katsina, Nigeria",
      "google_map_url": "https://maps.google.com?q=13.0732032,8.3916713",
      "google_place_id": "ChIJGbj0GdKYrxERXl6T7S1OY3U"
    }
  },
  {
    "id": "99914",
    "name": "GOJOGOJO PRI.SCHOOL II",
    "registration_area_id": "5082",
    "precise_location": null,
    "abbreviation": "005",
    "units": "005",
    "delimitation": "20/24/09/005",
    "remark": "EXISTING PU",
    "ward_id": "5082",
    "ward_name": "NATSALLE",
    "local_government_id": "437",
    "local_government_name": "MAI'ADUA",
    "state_id": "20",
    "state_name": "KATSINA",
    "location": {
      "latitude": 13.1788113,
      "longitude": 8.227559399999999,
      "viewport": {
        "northeast": {
          "lat": 13.18010712989272,
          "lng": 8.22894442989272
        },
        "southwest": {
          "lat": 13.17740747010728,
          "lng": 8.226244770107277
        }
      },
      "formatted_address": "Center Masjid, 824102, Maiadua, Nigeria",
      "google_map_url": "https://maps.google.com?q=13.1788113,8.227559399999999",
      "google_place_id": "ChIJHQGON4GRrxER43g99GjXW1A"
    }
  },
  {
    "id": "99915",
    "name": "KAHE - K/GIDAN MAIUNGUWA",
    "registration_area_id": "5082",
    "precise_location": null,
    "abbreviation": "006",
    "units": "006",
    "delimitation": "20/24/09/006",
    "remark": "EXISTING PU",
    "ward_id": "5082",
    "ward_name": "NATSALLE",
    "local_government_id": "437",
    "local_government_name": "MAI'ADUA",
    "state_id": "20",
    "state_name": "KATSINA",
    "location": {
      "latitude": 13.1768159,
      "longitude": 8.235723799999999,
      "viewport": {
        "northeast": {
          "lat": 13.17811317989272,
          "lng": 8.236972079892722
        },
        "southwest": {
          "lat": 13.17541352010728,
          "lng": 8.234272420107278
        }
      },
      "formatted_address": "56GP+P7H, 824102, Maiadua, Nigeria",
      "google_map_url": "https://maps.google.com?q=13.1768159,8.235723799999999",
      "google_place_id": "ChIJ_2HWxUCRrxEROFuORHqiHHc"
    }
  },
  {
    "id": "99916",
    "name": "MAIGORIBAI - K/GIDAN MAIGARI",
    "registration_area_id": "5082",
    "precise_location": null,
    "abbreviation": "007",
    "units": "007",
    "delimitation": "20/24/09/007",
    "remark": "EXISTING PU",
    "ward_id": "5082",
    "ward_name": "NATSALLE",
    "local_government_id": "437",
    "local_government_name": "MAI'ADUA",
    "state_id": "20",
    "state_name": "KATSINA",
    "location": {
      "latitude": 13.1768159,
      "longitude": 8.235723799999999,
      "viewport": {
        "northeast": {
          "lat": 13.17811317989272,
          "lng": 8.236972079892722
        },
        "southwest": {
          "lat": 13.17541352010728,
          "lng": 8.234272420107278
        }
      },
      "formatted_address": "56GP+P7H, 824102, Maiadua, Nigeria",
      "google_map_url": "https://maps.google.com?q=13.1768159,8.235723799999999",
      "google_place_id": "ChIJ_2HWxUCRrxEROFuORHqiHHc"
    }
  },
  {
    "id": "99917",
    "name": "MAIBAGARUWA - K/GIDAN MAIGARI",
    "registration_area_id": "5082",
    "precise_location": null,
    "abbreviation": "008",
    "units": "008",
    "delimitation": "20/24/09/008",
    "remark": "EXISTING PU",
    "ward_id": "5082",
    "ward_name": "NATSALLE",
    "local_government_id": "437",
    "local_government_name": "MAI'ADUA",
    "state_id": "20",
    "state_name": "KATSINA",
    "location": {
      "latitude": 13.1768159,
      "longitude": 8.235723799999999,
      "viewport": {
        "northeast": {
          "lat": 13.17811317989272,
          "lng": 8.236972079892722
        },
        "southwest": {
          "lat": 13.17541352010728,
          "lng": 8.234272420107278
        }
      },
      "formatted_address": "56GP+P7H, 824102, Maiadua, Nigeria",
      "google_map_url": "https://maps.google.com?q=13.1768159,8.235723799999999",
      "google_place_id": "ChIJ_2HWxUCRrxEROFuORHqiHHc"
    }
  },
  {
    "id": "99918",
    "name": "NATSALLE MAGAJI - K/GIDAN MAIGARI",
    "registration_area_id": "5082",
    "precise_location": null,
    "abbreviation": "009",
    "units": "009",
    "delimitation": "20/24/09/009",
    "remark": "EXISTING PU",
    "ward_id": "5082",
    "ward_name": "NATSALLE",
    "local_government_id": "437",
    "local_government_name": "MAI'ADUA",
    "state_id": "20",
    "state_name": "KATSINA",
    "location": null
  },
  {
    "id": "99919",
    "name": "MAI GORIBAI - K/GIDAN MAIGARI",
    "registration_area_id": "5082",
    "precise_location": null,
    "abbreviation": "010",
    "units": "010",
    "delimitation": "20/24/09/010",
    "remark": "EXISTING PU",
    "ward_id": "5082",
    "ward_name": "NATSALLE",
    "local_government_id": "437",
    "local_government_name": "MAI'ADUA",
    "state_id": "20",
    "state_name": "KATSINA",
    "location": {
      "latitude": 13.1768159,
      "longitude": 8.235723799999999,
      "viewport": {
        "northeast": {
          "lat": 13.17811317989272,
          "lng": 8.236972079892722
        },
        "southwest": {
          "lat": 13.17541352010728,
          "lng": 8.234272420107278
        }
      },
      "formatted_address": "56GP+P7H, 824102, Maiadua, Nigeria",
      "google_map_url": "https://maps.google.com?q=13.1768159,8.235723799999999",
      "google_place_id": "ChIJ_2HWxUCRrxEROFuORHqiHHc"
    }
  },
  {
    "id": "99920",
    "name": "NATSALLE MAGAJI - K/GIDAN MAIGARI",
    "registration_area_id": "5082",
    "precise_location": null,
    "abbreviation": "011",
    "units": "011",
    "delimitation": "20/24/09/011",
    "remark": "EXISTING PU",
    "ward_id": "5082",
    "ward_name": "NATSALLE",
    "local_government_id": "437",
    "local_government_name": "MAI'ADUA",
    "state_id": "20",
    "state_name": "KATSINA",
    "location": null
  },
  {
    "id": "99921",
    "name": "RAFIN ABZINAWA - K/GIDAN MAIGARI",
    "registration_area_id": "5082",
    "precise_location": null,
    "abbreviation": "012",
    "units": "012",
    "delimitation": "20/24/09/012",
    "remark": "EXISTING PU",
    "ward_id": "5082",
    "ward_name": "NATSALLE",
    "local_government_id": "437",
    "local_government_name": "MAI'ADUA",
    "state_id": "20",
    "state_name": "KATSINA",
    "location": {
      "latitude": 13.1768159,
      "longitude": 8.235723799999999,
      "viewport": {
        "northeast": {
          "lat": 13.17811317989272,
          "lng": 8.236972079892722
        },
        "southwest": {
          "lat": 13.17541352010728,
          "lng": 8.234272420107278
        }
      },
      "formatted_address": "56GP+P7H, 824102, Maiadua, Nigeria",
      "google_map_url": "https://maps.google.com?q=13.1768159,8.235723799999999",
      "google_place_id": "ChIJ_2HWxUCRrxEROFuORHqiHHc"
    }
  },
  {
    "id": "99922",
    "name": "RANDA JULI - K/GIDAN MAIGARI",
    "registration_area_id": "5082",
    "precise_location": null,
    "abbreviation": "013",
    "units": "013",
    "delimitation": "20/24/09/013",
    "remark": "EXISTING PU",
    "ward_id": "5082",
    "ward_name": "NATSALLE",
    "local_government_id": "437",
    "local_government_name": "MAI'ADUA",
    "state_id": "20",
    "state_name": "KATSINA",
    "location": {
      "latitude": 13.1768159,
      "longitude": 8.235723799999999,
      "viewport": {
        "northeast": {
          "lat": 13.17811317989272,
          "lng": 8.236972079892722
        },
        "southwest": {
          "lat": 13.17541352010728,
          "lng": 8.234272420107278
        }
      },
      "formatted_address": "56GP+P7H, 824102, Maiadua, Nigeria",
      "google_map_url": "https://maps.google.com?q=13.1768159,8.235723799999999",
      "google_place_id": "ChIJ_2HWxUCRrxEROFuORHqiHHc"
    }
  },
  {
    "id": "99923",
    "name": "NATSALLE MAZA - K/GIDAN MAIGARI",
    "registration_area_id": "5082",
    "precise_location": null,
    "abbreviation": "014",
    "units": "014",
    "delimitation": "20/24/09/014",
    "remark": "EXISTING PU",
    "ward_id": "5082",
    "ward_name": "NATSALLE",
    "local_government_id": "437",
    "local_government_name": "MAI'ADUA",
    "state_id": "20",
    "state_name": "KATSINA",
    "location": {
      "latitude": 13.1768159,
      "longitude": 8.235723799999999,
      "viewport": {
        "northeast": {
          "lat": 13.17811317989272,
          "lng": 8.236972079892722
        },
        "southwest": {
          "lat": 13.17541352010728,
          "lng": 8.234272420107278
        }
      },
      "formatted_address": "56GP+P7H, 824102, Maiadua, Nigeria",
      "google_map_url": "https://maps.google.com?q=13.1768159,8.235723799999999",
      "google_place_id": "ChIJ_2HWxUCRrxEROFuORHqiHHc"
    }
  },
  {
    "id": "99924",
    "name": "RANDA YAKU - K/GIDAN MAIGARI",
    "registration_area_id": "5082",
    "precise_location": null,
    "abbreviation": "015",
    "units": "015",
    "delimitation": "20/24/09/015",
    "remark": "EXISTING PU",
    "ward_id": "5082",
    "ward_name": "NATSALLE",
    "local_government_id": "437",
    "local_government_name": "MAI'ADUA",
    "state_id": "20",
    "state_name": "KATSINA",
    "location": {
      "latitude": 13.1768159,
      "longitude": 8.235723799999999,
      "viewport": {
        "northeast": {
          "lat": 13.17811317989272,
          "lng": 8.236972079892722
        },
        "southwest": {
          "lat": 13.17541352010728,
          "lng": 8.234272420107278
        }
      },
      "formatted_address": "56GP+P7H, 824102, Maiadua, Nigeria",
      "google_map_url": "https://maps.google.com?q=13.1768159,8.235723799999999",
      "google_place_id": "ChIJ_2HWxUCRrxEROFuORHqiHHc"
    }
  },
  {
    "id": "99925",
    "name": "SHARTA - K/GIDAN MAIGARI",
    "registration_area_id": "5082",
    "precise_location": null,
    "abbreviation": "016",
    "units": "016",
    "delimitation": "20/24/09/016",
    "remark": "EXISTING PU",
    "ward_id": "5082",
    "ward_name": "NATSALLE",
    "local_government_id": "437",
    "local_government_name": "MAI'ADUA",
    "state_id": "20",
    "state_name": "KATSINA",
    "location": {
      "latitude": 13.1768159,
      "longitude": 8.235723799999999,
      "viewport": {
        "northeast": {
          "lat": 13.17811317989272,
          "lng": 8.236972079892722
        },
        "southwest": {
          "lat": 13.17541352010728,
          "lng": 8.234272420107278
        }
      },
      "formatted_address": "56GP+P7H, 824102, Maiadua, Nigeria",
      "google_map_url": "https://maps.google.com?q=13.1768159,8.235723799999999",
      "google_place_id": "ChIJ_2HWxUCRrxEROFuORHqiHHc"
    }
  },
  {
    "id": "99926",
    "name": "TOFAKAI - K/GIDAN MAIGARI",
    "registration_area_id": "5082",
    "precise_location": null,
    "abbreviation": "017",
    "units": "017",
    "delimitation": "20/24/09/017",
    "remark": "EXISTING PU",
    "ward_id": "5082",
    "ward_name": "NATSALLE",
    "local_government_id": "437",
    "local_government_name": "MAI'ADUA",
    "state_id": "20",
    "state_name": "KATSINA",
    "location": {
      "latitude": 13.1768159,
      "longitude": 8.235723799999999,
      "viewport": {
        "northeast": {
          "lat": 13.17811317989272,
          "lng": 8.236972079892722
        },
        "southwest": {
          "lat": 13.17541352010728,
          "lng": 8.234272420107278
        }
      },
      "formatted_address": "56GP+P7H, 824102, Maiadua, Nigeria",
      "google_map_url": "https://maps.google.com?q=13.1768159,8.235723799999999",
      "google_place_id": "ChIJ_2HWxUCRrxEROFuORHqiHHc"
    }
  },
  {
    "id": "99927",
    "name": "WALAFULANI - K/GIDAN - MAIGARI",
    "registration_area_id": "5082",
    "precise_location": null,
    "abbreviation": "018",
    "units": "018",
    "delimitation": "20/24/09/018",
    "remark": "EXISTING PU",
    "ward_id": "5082",
    "ward_name": "NATSALLE",
    "local_government_id": "437",
    "local_government_name": "MAI'ADUA",
    "state_id": "20",
    "state_name": "KATSINA",
    "location": {
      "latitude": 13.1768159,
      "longitude": 8.235723799999999,
      "viewport": {
        "northeast": {
          "lat": 13.17811317989272,
          "lng": 8.236972079892722
        },
        "southwest": {
          "lat": 13.17541352010728,
          "lng": 8.234272420107278
        }
      },
      "formatted_address": "56GP+P7H, 824102, Maiadua, Nigeria",
      "google_map_url": "https://maps.google.com?q=13.1768159,8.235723799999999",
      "google_place_id": "ChIJ_2HWxUCRrxEROFuORHqiHHc"
    }
  },
  {
    "id": "99928",
    "name": "WALA HABE - K/GIDAN YAU",
    "registration_area_id": "5082",
    "precise_location": null,
    "abbreviation": "019",
    "units": "019",
    "delimitation": "20/24/09/019",
    "remark": "EXISTING PU",
    "ward_id": "5082",
    "ward_name": "NATSALLE",
    "local_government_id": "437",
    "local_government_name": "MAI'ADUA",
    "state_id": "20",
    "state_name": "KATSINA",
    "location": {
      "latitude": 13.1788113,
      "longitude": 8.227559399999999,
      "viewport": {
        "northeast": {
          "lat": 13.18010712989272,
          "lng": 8.22894442989272
        },
        "southwest": {
          "lat": 13.17740747010728,
          "lng": 8.226244770107277
        }
      },
      "formatted_address": "Center Masjid, 824102, Maiadua, Nigeria",
      "google_map_url": "https://maps.google.com?q=13.1788113,8.227559399999999",
      "google_place_id": "ChIJHQGON4GRrxER43g99GjXW1A"
    }
  },
  {
    "id": "99929",
    "name": "ZANGUNA - K/GIDAN MAIGARI",
    "registration_area_id": "5082",
    "precise_location": null,
    "abbreviation": "020",
    "units": "020",
    "delimitation": "20/24/09/020",
    "remark": "EXISTING PU",
    "ward_id": "5082",
    "ward_name": "NATSALLE",
    "local_government_id": "437",
    "local_government_name": "MAI'ADUA",
    "state_id": "20",
    "state_name": "KATSINA",
    "location": {
      "latitude": 13.1768159,
      "longitude": 8.235723799999999,
      "viewport": {
        "northeast": {
          "lat": 13.17811317989272,
          "lng": 8.236972079892722
        },
        "southwest": {
          "lat": 13.17541352010728,
          "lng": 8.234272420107278
        }
      },
      "formatted_address": "56GP+P7H, 824102, Maiadua, Nigeria",
      "google_map_url": "https://maps.google.com?q=13.1768159,8.235723799999999",
      "google_place_id": "ChIJ_2HWxUCRrxEROFuORHqiHHc"
    }
  },
  {
    "id": "99930",
    "name": "SHARTA K/GIDAN MAIGARI",
    "registration_area_id": "5082",
    "precise_location": null,
    "abbreviation": "021",
    "units": "021",
    "delimitation": "20/24/09/021",
    "remark": "EXISTING PU",
    "ward_id": "5082",
    "ward_name": "NATSALLE",
    "local_government_id": "437",
    "local_government_name": "MAI'ADUA",
    "state_id": "20",
    "state_name": "KATSINA",
    "location": {
      "latitude": 13.1768159,
      "longitude": 8.235723799999999,
      "viewport": {
        "northeast": {
          "lat": 13.17811317989272,
          "lng": 8.236972079892722
        },
        "southwest": {
          "lat": 13.17541352010728,
          "lng": 8.234272420107278
        }
      },
      "formatted_address": "56GP+P7H, 824102, Maiadua, Nigeria",
      "google_map_url": "https://maps.google.com?q=13.1768159,8.235723799999999",
      "google_place_id": "ChIJ_2HWxUCRrxEROFuORHqiHHc"
    }
  },
  {
    "id": "99931",
    "name": "WALA - K/GIDAN MAIGARI",
    "registration_area_id": "5082",
    "precise_location": null,
    "abbreviation": "022",
    "units": "022",
    "delimitation": "20/24/09/022",
    "remark": "EXISTING PU",
    "ward_id": "5082",
    "ward_name": "NATSALLE",
    "local_government_id": "437",
    "local_government_name": "MAI'ADUA",
    "state_id": "20",
    "state_name": "KATSINA",
    "location": {
      "latitude": 13.1768159,
      "longitude": 8.235723799999999,
      "viewport": {
        "northeast": {
          "lat": 13.17811317989272,
          "lng": 8.236972079892722
        },
        "southwest": {
          "lat": 13.17541352010728,
          "lng": 8.234272420107278
        }
      },
      "formatted_address": "56GP+P7H, 824102, Maiadua, Nigeria",
      "google_map_url": "https://maps.google.com?q=13.1768159,8.235723799999999",
      "google_place_id": "ChIJ_2HWxUCRrxEROFuORHqiHHc"
    }
  },
  {
    "id": "99932",
    "name": "GOJOGOJO SECONDARY SCHOOL",
    "registration_area_id": "5082",
    "precise_location": null,
    "abbreviation": "023",
    "units": "023",
    "delimitation": "20/24/09/023",
    "remark": "NEW PU",
    "ward_id": "5082",
    "ward_name": "NATSALLE",
    "local_government_id": "437",
    "local_government_name": "MAI'ADUA",
    "state_id": "20",
    "state_name": "KATSINA",
    "location": {
      "latitude": 12.9815608,
      "longitude": 7.622266499999999,
      "viewport": {
        "northeast": {
          "lat": 12.98290287989272,
          "lng": 7.62356807989272
        },
        "southwest": {
          "lat": 12.98020322010728,
          "lng": 7.620868420107276
        }
      },
      "formatted_address": "Mai adu, 820101, Katsina, Nigeria",
      "google_map_url": "https://maps.google.com?q=12.9815608,7.622266499999999",
      "google_place_id": "ChIJX1ct7hcjsBERHmiBspRzOCE"
    }
  }
]