[
  {
    "id": "6222",
    "name": "BINKOLA  GARI  I /BINKOLA PRI. SCH. I",
    "registration_area_id": "310",
    "precise_location": null,
    "abbreviation": "001",
    "units": "001",
    "delimitation": "02/12/12/001",
    "remark": "EXISTING PU",
    "ward_id": "310",
    "ward_name": "YOFFO",
    "local_government_id": "29",
    "local_government_name": "MAYO - BELWA",
    "state_id": "2",
    "state_name": "ADAMAWA",
    "location": {
      "latitude": 9.1953538,
      "longitude": 12.4818591,
      "viewport": {
        "northeast": {
          "lat": 9.196701179892722,
          "lng": 12.48326587989272
        },
        "southwest": {
          "lat": 9.194001520107278,
          "lng": 12.48056622010728
        }
      },
      "formatted_address": "5FWJ+4PX, Madumari 640284, Yola, Nigeria",
      "google_map_url": "https://maps.google.com?q=9.1953538,12.4818591",
      "google_place_id": "ChIJY3OYpf9s_BARTXBeuumv1HQ"
    }
  },
  {
    "id": "6223",
    "name": "BINKOLA  GARI  I I /BINKOLA PRI. SCH. II",
    "registration_area_id": "310",
    "precise_location": null,
    "abbreviation": "002",
    "units": "002",
    "delimitation": "02/12/12/002",
    "remark": "EXISTING PU",
    "ward_id": "310",
    "ward_name": "YOFFO",
    "local_government_id": "29",
    "local_government_name": "MAYO - BELWA",
    "state_id": "2",
    "state_name": "ADAMAWA",
    "location": {
      "latitude": 9.0620104,
      "longitude": 12.0535389,
      "viewport": {
        "northeast": {
          "lat": 9.063488429892722,
          "lng": 12.05489912989272
        },
        "southwest": {
          "lat": 9.060788770107278,
          "lng": 12.05219947010728
        }
      },
      "formatted_address": "3363+RC3, 641102, Mayo Belwa, Nigeria",
      "google_map_url": "https://maps.google.com?q=9.0620104,12.0535389",
      "google_place_id": "ChIJUUVgvBaq_hARRkaI6QJkKxM"
    }
  },
  {
    "id": "6224",
    "name": "CHUKKOL BATARE / CHUKKOL BATARE PRI. SCH.",
    "registration_area_id": "310",
    "precise_location": null,
    "abbreviation": "003",
    "units": "003",
    "delimitation": "02/12/12/003",
    "remark": "EXISTING PU",
    "ward_id": "310",
    "ward_name": "YOFFO",
    "local_government_id": "29",
    "local_government_name": "MAYO - BELWA",
    "state_id": "2",
    "state_name": "ADAMAWA",
    "location": {
      "latitude": 9.0574943,
      "longitude": 12.0589301,
      "viewport": {
        "northeast": {
          "lat": 9.059035479892723,
          "lng": 12.06030202989272
        },
        "southwest": {
          "lat": 9.056335820107279,
          "lng": 12.05760237010728
        }
      },
      "formatted_address": "3345+XHV, 641102, Mayo Belwa, Nigeria",
      "google_map_url": "https://maps.google.com?q=9.0574943,12.0589301",
      "google_place_id": "ChIJ46P1nBKq_hARODhY4Xz_wt4"
    }
  },
  {
    "id": "6225",
    "name": "CHUKKOL JODA G.D.S.S CHUKKOL",
    "registration_area_id": "310",
    "precise_location": null,
    "abbreviation": "004",
    "units": "004",
    "delimitation": "02/12/12/004",
    "remark": "EXISTING PU",
    "ward_id": "310",
    "ward_name": "YOFFO",
    "local_government_id": "29",
    "local_government_name": "MAYO - BELWA",
    "state_id": "2",
    "state_name": "ADAMAWA",
    "location": null
  },
  {
    "id": "6226",
    "name": "DUNDERE / KOFAR JAURO",
    "registration_area_id": "310",
    "precise_location": null,
    "abbreviation": "005",
    "units": "005",
    "delimitation": "02/12/12/005",
    "remark": "EXISTING PU",
    "ward_id": "310",
    "ward_name": "YOFFO",
    "local_government_id": "29",
    "local_government_name": "MAYO - BELWA",
    "state_id": "2",
    "state_name": "ADAMAWA",
    "location": {
      "latitude": 9.044123899999999,
      "longitude": 12.0622032,
      "viewport": {
        "northeast": {
          "lat": 9.045521879892721,
          "lng": 12.06361567989272
        },
        "southwest": {
          "lat": 9.042822220107277,
          "lng": 12.06091602010728
        }
      },
      "formatted_address": "641102, Mayo Belwa, Nigeria",
      "google_map_url": "https://maps.google.com?q=9.044123899999999,12.0622032",
      "google_place_id": "ChIJuR_am3qq_hARH_5WzhUqMkA"
    }
  },
  {
    "id": "6227",
    "name": "KANJANG KOFAR JAURO",
    "registration_area_id": "310",
    "precise_location": null,
    "abbreviation": "006",
    "units": "006",
    "delimitation": "02/12/12/006",
    "remark": "EXISTING PU",
    "ward_id": "310",
    "ward_name": "YOFFO",
    "local_government_id": "29",
    "local_government_name": "MAYO - BELWA",
    "state_id": "2",
    "state_name": "ADAMAWA",
    "location": {
      "latitude": 9.0528821,
      "longitude": 12.0575469,
      "viewport": {
        "northeast": {
          "lat": 9.054251329892724,
          "lng": 12.05887037989272
        },
        "southwest": {
          "lat": 9.05155167010728,
          "lng": 12.05617072010728
        }
      },
      "formatted_address": "3335+523, Ngurore Road, 641102, Mayo Belwa, Nigeria",
      "google_map_url": "https://maps.google.com?q=9.0528821,12.0575469",
      "google_place_id": "ChIJT9U4BrGr_hAREDqyovTZCs8"
    }
  },
  {
    "id": "6228",
    "name": "MAYO LAMJA KARIMU / M/LAMJA PRI. SCH.",
    "registration_area_id": "310",
    "precise_location": null,
    "abbreviation": "007",
    "units": "007",
    "delimitation": "02/12/12/007",
    "remark": "EXISTING PU",
    "ward_id": "310",
    "ward_name": "YOFFO",
    "local_government_id": "29",
    "local_government_name": "MAYO - BELWA",
    "state_id": "2",
    "state_name": "ADAMAWA",
    "location": {
      "latitude": 9.0620104,
      "longitude": 12.0535389,
      "viewport": {
        "northeast": {
          "lat": 9.063488429892722,
          "lng": 12.05489912989272
        },
        "southwest": {
          "lat": 9.060788770107278,
          "lng": 12.05219947010728
        }
      },
      "formatted_address": "3363+RC3, 641102, Mayo Belwa, Nigeria",
      "google_map_url": "https://maps.google.com?q=9.0620104,12.0535389",
      "google_place_id": "ChIJUUVgvBaq_hARRkaI6QJkKxM"
    }
  },
  {
    "id": "6229",
    "name": "MBELA LAGAJE / MBELA PRI. SCH.",
    "registration_area_id": "310",
    "precise_location": null,
    "abbreviation": "008",
    "units": "008",
    "delimitation": "02/12/12/008",
    "remark": "EXISTING PU",
    "ward_id": "310",
    "ward_name": "YOFFO",
    "local_government_id": "29",
    "local_government_name": "MAYO - BELWA",
    "state_id": "2",
    "state_name": "ADAMAWA",
    "location": {
      "latitude": 9.0177326,
      "longitude": 12.0105306,
      "viewport": {
        "northeast": {
          "lat": 9.019085379892724,
          "lng": 12.01185857989272
        },
        "southwest": {
          "lat": 9.01638572010728,
          "lng": 12.00915892010728
        }
      },
      "formatted_address": "2296+466, Mbela Lagaje, Kumba, Nigeria",
      "google_map_url": "https://maps.google.com?q=9.0177326,12.0105306",
      "google_place_id": "ChIJO8Us89er_hARhkutDqr6sZg"
    }
  },
  {
    "id": "6230",
    "name": "MUMBAKE / MUMBAKE PRI. SCH.",
    "registration_area_id": "310",
    "precise_location": null,
    "abbreviation": "009",
    "units": "009",
    "delimitation": "02/12/12/009",
    "remark": "EXISTING PU",
    "ward_id": "310",
    "ward_name": "YOFFO",
    "local_government_id": "29",
    "local_government_name": "MAYO - BELWA",
    "state_id": "2",
    "state_name": "ADAMAWA",
    "location": {
      "latitude": 9.0574943,
      "longitude": 12.0589301,
      "viewport": {
        "northeast": {
          "lat": 9.059035479892723,
          "lng": 12.06030202989272
        },
        "southwest": {
          "lat": 9.056335820107279,
          "lng": 12.05760237010728
        }
      },
      "formatted_address": "3345+XHV, 641102, Mayo Belwa, Nigeria",
      "google_map_url": "https://maps.google.com?q=9.0574943,12.0589301",
      "google_place_id": "ChIJ46P1nBKq_hARODhY4Xz_wt4"
    }
  },
  {
    "id": "6231",
    "name": "NAMJO FULANI / NAMJO PRI. SCH.",
    "registration_area_id": "310",
    "precise_location": null,
    "abbreviation": "010",
    "units": "010",
    "delimitation": "02/12/12/010",
    "remark": "EXISTING PU",
    "ward_id": "310",
    "ward_name": "YOFFO",
    "local_government_id": "29",
    "local_government_name": "MAYO - BELWA",
    "state_id": "2",
    "state_name": "ADAMAWA",
    "location": {
      "latitude": 9.0574943,
      "longitude": 12.0589301,
      "viewport": {
        "northeast": {
          "lat": 9.059035479892723,
          "lng": 12.06030202989272
        },
        "southwest": {
          "lat": 9.056335820107279,
          "lng": 12.05760237010728
        }
      },
      "formatted_address": "3345+XHV, 641102, Mayo Belwa, Nigeria",
      "google_map_url": "https://maps.google.com?q=9.0574943,12.0589301",
      "google_place_id": "ChIJ46P1nBKq_hARODhY4Xz_wt4"
    }
  },
  {
    "id": "6232",
    "name": "NDIYAM DADI  KOFAR JAURO",
    "registration_area_id": "310",
    "precise_location": null,
    "abbreviation": "011",
    "units": "011",
    "delimitation": "02/12/12/011",
    "remark": "EXISTING PU",
    "ward_id": "310",
    "ward_name": "YOFFO",
    "local_government_id": "29",
    "local_government_name": "MAYO - BELWA",
    "state_id": "2",
    "state_name": "ADAMAWA",
    "location": null
  },
  {
    "id": "6233",
    "name": "WURO BORNOJI / KOFAR JAURO",
    "registration_area_id": "310",
    "precise_location": null,
    "abbreviation": "012",
    "units": "012",
    "delimitation": "02/12/12/012",
    "remark": "EXISTING PU",
    "ward_id": "310",
    "ward_name": "YOFFO",
    "local_government_id": "29",
    "local_government_name": "MAYO - BELWA",
    "state_id": "2",
    "state_name": "ADAMAWA",
    "location": {
      "latitude": 9.0528821,
      "longitude": 12.0575469,
      "viewport": {
        "northeast": {
          "lat": 9.054251329892724,
          "lng": 12.05887037989272
        },
        "southwest": {
          "lat": 9.05155167010728,
          "lng": 12.05617072010728
        }
      },
      "formatted_address": "3335+523, Ngurore Road, 641102, Mayo Belwa, Nigeria",
      "google_map_url": "https://maps.google.com?q=9.0528821,12.0575469",
      "google_place_id": "ChIJT9U4BrGr_hAREDqyovTZCs8"
    }
  },
  {
    "id": "6234",
    "name": "YOFFO FULANI / YOFFO PRI. SCH.",
    "registration_area_id": "310",
    "precise_location": null,
    "abbreviation": "013",
    "units": "013",
    "delimitation": "02/12/12/013",
    "remark": "EXISTING PU",
    "ward_id": "310",
    "ward_name": "YOFFO",
    "local_government_id": "29",
    "local_government_name": "MAYO - BELWA",
    "state_id": "2",
    "state_name": "ADAMAWA",
    "location": {
      "latitude": 9.0620104,
      "longitude": 12.0535389,
      "viewport": {
        "northeast": {
          "lat": 9.063488429892722,
          "lng": 12.05489912989272
        },
        "southwest": {
          "lat": 9.060788770107278,
          "lng": 12.05219947010728
        }
      },
      "formatted_address": "3363+RC3, 641102, Mayo Belwa, Nigeria",
      "google_map_url": "https://maps.google.com?q=9.0620104,12.0535389",
      "google_place_id": "ChIJUUVgvBaq_hARRkaI6QJkKxM"
    }
  },
  {
    "id": "6235",
    "name": "CHUKKOL JODA GDSS CHUKKOL",
    "registration_area_id": "310",
    "precise_location": null,
    "abbreviation": "014",
    "units": "014",
    "delimitation": "02/12/12/014",
    "remark": "NEW PU",
    "ward_id": "310",
    "ward_name": "YOFFO",
    "local_government_id": "29",
    "local_government_name": "MAYO - BELWA",
    "state_id": "2",
    "state_name": "ADAMAWA",
    "location": null
  },
  {
    "id": "6236",
    "name": "NYAKAKUWA PRIMARY SCHOOL",
    "registration_area_id": "310",
    "precise_location": null,
    "abbreviation": "015",
    "units": "015",
    "delimitation": "02/12/12/015",
    "remark": "NEW PU",
    "ward_id": "310",
    "ward_name": "YOFFO",
    "local_government_id": "29",
    "local_government_name": "MAYO - BELWA",
    "state_id": "2",
    "state_name": "ADAMAWA",
    "location": {
      "latitude": 9.0620104,
      "longitude": 12.0535389,
      "viewport": {
        "northeast": {
          "lat": 9.063488429892722,
          "lng": 12.05489912989272
        },
        "southwest": {
          "lat": 9.060788770107278,
          "lng": 12.05219947010728
        }
      },
      "formatted_address": "3363+RC3, 641102, Mayo Belwa, Nigeria",
      "google_map_url": "https://maps.google.com?q=9.0620104,12.0535389",
      "google_place_id": "ChIJUUVgvBaq_hARRkaI6QJkKxM"
    }
  }
]